[
  {
    "name": "Al Muharraq",
    "countryCode": "BH",
    "stateCode": "15",
    "latitude": "26.25722000",
    "longitude": "50.61194000"
  },
  {
    "name": "Al Ḩadd",
    "countryCode": "BH",
    "stateCode": "15",
    "latitude": "26.24556000",
    "longitude": "50.65417000"
  },
  {
    "name": "Ar Rifā‘",
    "countryCode": "BH",
    "stateCode": "14",
    "latitude": "26.13000000",
    "longitude": "50.55500000"
  },
  {
    "name": "Dār Kulayb",
    "countryCode": "BH",
    "stateCode": "14",
    "latitude": "26.06861000",
    "longitude": "50.50389000"
  },
  {
    "name": "Jidd Ḩafş",
    "countryCode": "BH",
    "stateCode": "13",
    "latitude": "26.21861000",
    "longitude": "50.54778000"
  },
  {
    "name": "Madīnat Ḩamad",
    "countryCode": "BH",
    "stateCode": "16",
    "latitude": "26.11528000",
    "longitude": "50.50694000"
  },
  {
    "name": "Madīnat ‘Īsá",
    "countryCode": "BH",
    "stateCode": "14",
    "latitude": "26.17361000",
    "longitude": "50.54778000"
  },
  {
    "name": "Manama",
    "countryCode": "BH",
    "stateCode": "13",
    "latitude": "26.22787000",
    "longitude": "50.58565000"
  },
  {
    "name": "Sitrah",
    "countryCode": "BH",
    "stateCode": "13",
    "latitude": "26.15472000",
    "longitude": "50.62056000"
  }
]