[
  {
    "name": "Abomey",
    "countryCode": "BJ",
    "stateCode": "ZO",
    "latitude": "7.18286000",
    "longitude": "1.99119000"
  },
  {
    "name": "Abomey-Calavi",
    "countryCode": "BJ",
    "stateCode": "AQ",
    "latitude": "6.44852000",
    "longitude": "2.35566000"
  },
  {
    "name": "Allada",
    "countryCode": "BJ",
    "stateCode": "AQ",
    "latitude": "6.66547000",
    "longitude": "2.15138000"
  },
  {
    "name": "Banikoara",
    "countryCode": "BJ",
    "stateCode": "AL",
    "latitude": "11.29845000",
    "longitude": "2.43856000"
  },
  {
    "name": "Bassila",
    "countryCode": "BJ",
    "stateCode": "DO",
    "latitude": "9.00814000",
    "longitude": "1.66540000"
  },
  {
    "name": "Bembèrèkè",
    "countryCode": "BJ",
    "stateCode": "BO",
    "latitude": "10.22827000",
    "longitude": "2.66335000"
  },
  {
    "name": "Bohicon",
    "countryCode": "BJ",
    "stateCode": "ZO",
    "latitude": "7.17826000",
    "longitude": "2.06670000"
  },
  {
    "name": "Bétérou",
    "countryCode": "BJ",
    "stateCode": "BO",
    "latitude": "9.19916000",
    "longitude": "2.25855000"
  },
  {
    "name": "Commune of Agbangnizoun",
    "countryCode": "BJ",
    "stateCode": "ZO",
    "latitude": "7.07600000",
    "longitude": "1.96100000"
  },
  {
    "name": "Commune of Athieme",
    "countryCode": "BJ",
    "stateCode": "MO",
    "latitude": "6.56924000",
    "longitude": "1.70259000"
  },
  {
    "name": "Commune of Djougou",
    "countryCode": "BJ",
    "stateCode": "DO",
    "latitude": "9.64300000",
    "longitude": "1.89600000"
  },
  {
    "name": "Comé",
    "countryCode": "BJ",
    "stateCode": "CO",
    "latitude": "6.40764000",
    "longitude": "1.88198000"
  },
  {
    "name": "Cotonou",
    "countryCode": "BJ",
    "stateCode": "LI",
    "latitude": "6.36536000",
    "longitude": "2.41833000"
  },
  {
    "name": "Cové",
    "countryCode": "BJ",
    "stateCode": "ZO",
    "latitude": "7.22097000",
    "longitude": "2.34017000"
  },
  {
    "name": "Dassa-Zoumé",
    "countryCode": "BJ",
    "stateCode": "CO",
    "latitude": "7.75000000",
    "longitude": "2.18333000"
  },
  {
    "name": "Djakotomey",
    "countryCode": "BJ",
    "stateCode": "KO",
    "latitude": "6.90000000",
    "longitude": "1.71667000"
  },
  {
    "name": "Djougou",
    "countryCode": "BJ",
    "stateCode": "DO",
    "latitude": "9.70853000",
    "longitude": "1.66598000"
  },
  {
    "name": "Dogbo",
    "countryCode": "BJ",
    "stateCode": "KO",
    "latitude": "6.79911000",
    "longitude": "1.78073000"
  },
  {
    "name": "Guilmaro",
    "countryCode": "BJ",
    "stateCode": "AK",
    "latitude": "10.56583000",
    "longitude": "1.72444000"
  },
  {
    "name": "Hinvi",
    "countryCode": "BJ",
    "stateCode": "AQ",
    "latitude": "6.76667000",
    "longitude": "2.16667000"
  },
  {
    "name": "Hévié",
    "countryCode": "BJ",
    "stateCode": "AQ",
    "latitude": "6.41667000",
    "longitude": "2.25000000"
  },
  {
    "name": "Kandi",
    "countryCode": "BJ",
    "stateCode": "AL",
    "latitude": "11.13417000",
    "longitude": "2.93861000"
  },
  {
    "name": "Kétou",
    "countryCode": "BJ",
    "stateCode": "PL",
    "latitude": "7.36332000",
    "longitude": "2.59978000"
  },
  {
    "name": "Lokossa",
    "countryCode": "BJ",
    "stateCode": "MO",
    "latitude": "6.63869000",
    "longitude": "1.71674000"
  },
  {
    "name": "Malanville",
    "countryCode": "BJ",
    "stateCode": "AL",
    "latitude": "11.86819000",
    "longitude": "3.38327000"
  },
  {
    "name": "Natitingou",
    "countryCode": "BJ",
    "stateCode": "AK",
    "latitude": "10.30416000",
    "longitude": "1.37962000"
  },
  {
    "name": "Nikki",
    "countryCode": "BJ",
    "stateCode": "BO",
    "latitude": "9.94009000",
    "longitude": "3.21075000"
  },
  {
    "name": "Ouidah",
    "countryCode": "BJ",
    "stateCode": "AQ",
    "latitude": "6.36307000",
    "longitude": "2.08506000"
  },
  {
    "name": "Parakou",
    "countryCode": "BJ",
    "stateCode": "BO",
    "latitude": "9.33716000",
    "longitude": "2.63031000"
  },
  {
    "name": "Pobé",
    "countryCode": "BJ",
    "stateCode": "PL",
    "latitude": "6.98008000",
    "longitude": "2.66490000"
  },
  {
    "name": "Porto-Novo",
    "countryCode": "BJ",
    "stateCode": "OU",
    "latitude": "6.49646000",
    "longitude": "2.60359000"
  },
  {
    "name": "Sakété",
    "countryCode": "BJ",
    "stateCode": "PL",
    "latitude": "6.73618000",
    "longitude": "2.65866000"
  },
  {
    "name": "Savalou",
    "countryCode": "BJ",
    "stateCode": "CO",
    "latitude": "7.92807000",
    "longitude": "1.97558000"
  },
  {
    "name": "Savé",
    "countryCode": "BJ",
    "stateCode": "CO",
    "latitude": "8.03424000",
    "longitude": "2.48660000"
  },
  {
    "name": "Tanguieta",
    "countryCode": "BJ",
    "stateCode": "AK",
    "latitude": "11.03621000",
    "longitude": "1.41757000"
  },
  {
    "name": "Tchaourou",
    "countryCode": "BJ",
    "stateCode": "BO",
    "latitude": "8.88649000",
    "longitude": "2.59753000"
  }
]