[
  {
    "name": "Abadia de Goiás",
    "countryCode": "BR",
    "stateCode": "GO",
    "latitude": "-16.77762000",
    "longitude": "-49.46841000"
  },
  {
    "name": "Abadia dos Dourados",
    "countryCode": "BR",
    "stateCode": "MG",
    "latitude": "-18.36347000",
    "longitude": "-47.46997000"
  },
  {
    "name": "Abadiânia",
    "countryCode": "BR",
    "stateCode": "GO",
    "latitude": "-16.22632000",
    "longitude": "-48.62681000"
  },
  {
    "name": "Abaetetuba",
    "countryCode": "BR",
    "stateCode": "PA",
    "latitude": "-1.71806000",
    "longitude": "-48.88250000"
  },
  {
    "name": "Abaeté",
    "countryCode": "BR",
    "stateCode": "MG",
    "latitude": "-19.11099000",
    "longitude": "-45.43051000"
  },
  {
    "name": "Abaiara",
    "countryCode": "BR",
    "stateCode": "CE",
    "latitude": "-7.33642000",
    "longitude": "-39.06129000"
  },
  {
    "name": "Abaré",
    "countryCode": "BR",
    "stateCode": "BA",
    "latitude": "-8.80961000",
    "longitude": "-39.27062000"
  },
  {
    "name": "Abatiá",
    "countryCode": "BR",
    "stateCode": "PR",
    "latitude": "-23.29903000",
    "longitude": "-50.32176000"
  },
  {
    "name": "Abaíra",
    "countryCode": "BR",
    "stateCode": "BA",
    "latitude": "-13.32129000",
    "longitude": "-41.69759000"
  },
  {
    "name": "Abdon Batista",
    "countryCode": "BR",
    "stateCode": "SC",
    "latitude": "-27.58981000",
    "longitude": "-51.04023000"
  },
  {
    "name": "Abel Figueiredo",
    "countryCode": "BR",
    "stateCode": "PA",
    "latitude": "-4.94378000",
    "longitude": "-48.42275000"
  },
  {
    "name": "Abelardo Luz",
    "countryCode": "BR",
    "stateCode": "SC",
    "latitude": "-26.59825000",
    "longitude": "-52.22321000"
  },
  {
    "name": "Abre Campo",
    "countryCode": "BR",
    "stateCode": "MG",
    "latitude": "-20.27265000",
    "longitude": "-42.43908000"
  },
  {
    "name": "Abreu e Lima",
    "countryCode": "BR",
    "stateCode": "PE",
    "latitude": "-7.86865000",
    "longitude": "-35.08171000"
  },
  {
    "name": "Abreulândia",
    "countryCode": "BR",
    "stateCode": "TO",
    "latitude": "-9.43672000",
    "longitude": "-49.31733000"
  },
  {
    "name": "Acaiaca",
    "countryCode": "BR",
    "stateCode": "MG",
    "latitude": "-20.40360000",
    "longitude": "-43.10077000"
  },
  {
    "name": "Acajutiba",
    "countryCode": "BR",
    "stateCode": "BA",
    "latitude": "-11.60682000",
    "longitude": "-38.03594000"
  },
  {
    "name": "Acarape",
    "countryCode": "BR",
    "stateCode": "CE",
    "latitude": "-4.20565000",
    "longitude": "-38.69160000"
  },
  {
    "name": "Acaraú",
    "countryCode": "BR",
    "stateCode": "CE",
    "latitude": "-2.95424000",
    "longitude": "-40.08597000"
  },
  {
    "name": "Acari",
    "countryCode": "BR",
    "stateCode": "RN",
    "latitude": "-6.38547000",
    "longitude": "-36.63908000"
  },
  {
    "name": "Acará",
    "countryCode": "BR",
    "stateCode": "PA",
    "latitude": "-1.96083000",
    "longitude": "-48.19667000"
  },
  {
    "name": "Acauã",
    "countryCode": "BR",
    "stateCode": "PI",
    "latitude": "-8.31552000",
    "longitude": "-40.91283000"
  },
  {
    "name": "Aceguá",
    "countryCode": "BR",
    "stateCode": "RS",
    "latitude": "-31.64597000",
    "longitude": "-54.10715000"
  },
  {
    "name": "Acopiara",
    "countryCode": "BR",
    "stateCode": "CE",
    "latitude": "-6.11312000",
    "longitude": "-39.51756000"
  },
  {
    "name": "Acorizal",
    "countryCode": "BR",
    "stateCode": "MT",
    "latitude": "-15.17336000",
    "longitude": "-56.30434000"
  },
  {
    "name": "Acrelândia",
    "countryCode": "BR",
    "stateCode": "AC",
    "latitude": "-9.98045000",
    "longitude": "-66.84388000"
  },
  {
    "name": "Acreúna",
    "countryCode": "BR",
    "stateCode": "GO",
    "latitude": "-17.43605000",
    "longitude": "-50.26696000"
  },
  {
    "name": "Adamantina",
    "countryCode": "BR",
    "stateCode": "SP",
    "latitude": "-21.59136000",
    "longitude": "-51.06669000"
  },
  {
    "name": "Adelândia",
    "countryCode": "BR",
    "stateCode": "GO",
    "latitude": "-16.38577000",
    "longitude": "-50.18846000"
  },
  {
    "name": "Adolfo",
    "countryCode": "BR",
    "stateCode": "SP",
    "latitude": "-21.28535000",
    "longitude": "-49.65497000"
  },
  {
    "name": "Adrianópolis",
    "countryCode": "BR",
    "stateCode": "PR",
    "latitude": "-24.76632000",
    "longitude": "-48.79998000"
  },
  {
    "name": "Adustina",
    "countryCode": "BR",
    "stateCode": "BA",
    "latitude": "-10.48227000",
    "longitude": "-37.98446000"
  },
  {
    "name": "Afogados da Ingazeira",
    "countryCode": "BR",
    "stateCode": "PE",
    "latitude": "-7.72298000",
    "longitude": "-37.61781000"
  },
  {
    "name": "Afonso Bezerra",
    "countryCode": "BR",
    "stateCode": "RN",
    "latitude": "-5.43183000",
    "longitude": "-36.65619000"
  },
  {
    "name": "Afonso Cláudio",
    "countryCode": "BR",
    "stateCode": "ES",
    "latitude": "-20.10512000",
    "longitude": "-41.12422000"
  },
  {
    "name": "Afonso Cunha",
    "countryCode": "BR",
    "stateCode": "MA",
    "latitude": "-4.21479000",
    "longitude": "-43.29743000"
  },
  {
    "name": "Afrânio",
    "countryCode": "BR",
    "stateCode": "PE",
    "latitude": "-8.62589000",
    "longitude": "-41.05768000"
  },
  {
    "name": "Afuá",
    "countryCode": "BR",
    "stateCode": "PA",
    "latitude": "-0.15667000",
    "longitude": "-50.38667000"
  },
  {
    "name": "Agrestina",
    "countryCode": "BR",
    "stateCode": "PE",
    "latitude": "-8.45191000",
    "longitude": "-35.93238000"
  },
  {
    "name": "Agricolândia",
    "countryCode": "BR",
    "stateCode": "PI",
    "latitude": "-5.74819000",
    "longitude": "-42.67458000"
  },
  {
    "name": "Agrolândia",
    "countryCode": "BR",
    "stateCode": "SC",
    "latitude": "-27.46387000",
    "longitude": "-49.83759000"
  },
  {
    "name": "Agronômica",
    "countryCode": "BR",
    "stateCode": "SC",
    "latitude": "-27.31658000",
    "longitude": "-49.73117000"
  },
  {
    "name": "Aguanil",
    "countryCode": "BR",
    "stateCode": "MG",
    "latitude": "-20.96959000",
    "longitude": "-45.41717000"
  },
  {
    "name": "Aguaí",
    "countryCode": "BR",
    "stateCode": "SP",
    "latitude": "-22.02590000",
    "longitude": "-47.06702000"
  },
  {
    "name": "Agudo",
    "countryCode": "BR",
    "stateCode": "RS",
    "latitude": "-29.62631000",
    "longitude": "-53.22404000"
  },
  {
    "name": "Agudos",
    "countryCode": "BR",
    "stateCode": "SP",
    "latitude": "-22.58942000",
    "longitude": "-49.16164000"
  },
  {
    "name": "Agudos do Sul",
    "countryCode": "BR",
    "stateCode": "PR",
    "latitude": "-26.04616000",
    "longitude": "-49.31186000"
  },
  {
    "name": "Aguiar",
    "countryCode": "BR",
    "stateCode": "PB",
    "latitude": "-7.07620000",
    "longitude": "-38.24255000"
  },
  {
    "name": "Aguiarnópolis",
    "countryCode": "BR",
    "stateCode": "TO",
    "latitude": "-6.48176000",
    "longitude": "-47.51435000"
  },
  {
    "name": "Aimorés",
    "countryCode": "BR",
    "stateCode": "MG",
    "latitude": "-19.62552000",
    "longitude": "-41.20955000"
  },
  {
    "name": "Aiquara",
    "countryCode": "BR",
    "stateCode": "BA",
    "latitude": "-14.11135000",
    "longitude": "-39.87641000"
  },
  {
    "name": "Aiuaba",
    "countryCode": "BR",
    "stateCode": "CE",
    "latitude": "-6.58896000",
    "longitude": "-40.23948000"
  },
  {
    "name": "Aiuruoca",
    "countryCode": "BR",
    "stateCode": "MG",
    "latitude": "-21.94703000",
    "longitude": "-44.64779000"
  },
  {
    "name": "Ajuricaba",
    "countryCode": "BR",
    "stateCode": "RS",
    "latitude": "-28.20723000",
    "longitude": "-53.74458000"
  },
  {
    "name": "Alagoa",
    "countryCode": "BR",
    "stateCode": "MG",
    "latitude": "-22.18147000",
    "longitude": "-44.66024000"
  },
  {
    "name": "Alagoa Grande",
    "countryCode": "BR",
    "stateCode": "PB",
    "latitude": "-7.07831000",
    "longitude": "-35.59525000"
  },
  {
    "name": "Alagoa Nova",
    "countryCode": "BR",
    "stateCode": "PB",
    "latitude": "-7.04733000",
    "longitude": "-35.75397000"
  },
  {
    "name": "Alagoinha",
    "countryCode": "BR",
    "stateCode": "PB",
    "latitude": "-6.96256000",
    "longitude": "-35.51465000"
  },
  {
    "name": "Alagoinha",
    "countryCode": "BR",
    "stateCode": "PE",
    "latitude": "-8.53497000",
    "longitude": "-36.75607000"
  },
  {
    "name": "Alagoinha do Piauí",
    "countryCode": "BR",
    "stateCode": "PI",
    "latitude": "-6.98016000",
    "longitude": "-40.91814000"
  },
  {
    "name": "Alagoinhas",
    "countryCode": "BR",
    "stateCode": "BA",
    "latitude": "-12.00580000",
    "longitude": "-38.36146000"
  },
  {
    "name": "Alambari",
    "countryCode": "BR",
    "stateCode": "SP",
    "latitude": "-23.53745000",
    "longitude": "-47.86273000"
  },
  {
    "name": "Albertina",
    "countryCode": "BR",
    "stateCode": "MG",
    "latitude": "-22.19908000",
    "longitude": "-46.62076000"
  },
  {
    "name": "Alcantil",
    "countryCode": "BR",
    "stateCode": "PB",
    "latitude": "-7.69816000",
    "longitude": "-36.06604000"
  },
  {
    "name": "Alcinópolis",
    "countryCode": "BR",
    "stateCode": "MS",
    "latitude": "-18.19955000",
    "longitude": "-53.75814000"
  },
  {
    "name": "Alcobaça",
    "countryCode": "BR",
    "stateCode": "BA",
    "latitude": "-17.46365000",
    "longitude": "-39.37401000"
  },
  {
    "name": "Alcântara",
    "countryCode": "BR",
    "stateCode": "MA",
    "latitude": "-2.32768000",
    "longitude": "-44.50617000"
  },
  {
    "name": "Alcântaras",
    "countryCode": "BR",
    "stateCode": "CE",
    "latitude": "-3.58733000",
    "longitude": "-40.55517000"
  },
  {
    "name": "Aldeias Altas",
    "countryCode": "BR",
    "stateCode": "MA",
    "latitude": "-4.58522000",
    "longitude": "-43.46277000"
  },
  {
    "name": "Alecrim",
    "countryCode": "BR",
    "stateCode": "RS",
    "latitude": "-27.65897000",
    "longitude": "-54.75943000"
  },
  {
    "name": "Alegre",
    "countryCode": "BR",
    "stateCode": "ES",
    "latitude": "-20.70897000",
    "longitude": "-41.51937000"
  },
  {
    "name": "Alegrete",
    "countryCode": "BR",
    "stateCode": "RS",
    "latitude": "-29.78306000",
    "longitude": "-55.79194000"
  },
  {
    "name": "Alegrete do Piauí",
    "countryCode": "BR",
    "stateCode": "PI",
    "latitude": "-7.16226000",
    "longitude": "-40.82488000"
  },
  {
    "name": "Alegria",
    "countryCode": "BR",
    "stateCode": "RS",
    "latitude": "-27.79967000",
    "longitude": "-54.05855000"
  },
  {
    "name": "Alenquer",
    "countryCode": "BR",
    "stateCode": "PA",
    "latitude": "-0.85422000",
    "longitude": "-54.94506000"
  },
  {
    "name": "Alexandria",
    "countryCode": "BR",
    "stateCode": "RN",
    "latitude": "-6.39998000",
    "longitude": "-37.96862000"
  },
  {
    "name": "Alexânia",
    "countryCode": "BR",
    "stateCode": "GO",
    "latitude": "-16.14926000",
    "longitude": "-48.45973000"
  },
  {
    "name": "Alfenas",
    "countryCode": "BR",
    "stateCode": "MG",
    "latitude": "-21.39287000",
    "longitude": "-45.99521000"
  },
  {
    "name": "Alfredo Chaves",
    "countryCode": "BR",
    "stateCode": "ES",
    "latitude": "-20.54245000",
    "longitude": "-40.82368000"
  },
  {
    "name": "Alfredo Marcondes",
    "countryCode": "BR",
    "stateCode": "SP",
    "latitude": "-21.92954000",
    "longitude": "-51.39519000"
  },
  {
    "name": "Alfredo Vasconcelos",
    "countryCode": "BR",
    "stateCode": "MG",
    "latitude": "-21.14240000",
    "longitude": "-43.71114000"
  },
  {
    "name": "Alfredo Wagner",
    "countryCode": "BR",
    "stateCode": "SC",
    "latitude": "-27.70481000",
    "longitude": "-49.34069000"
  },
  {
    "name": "Algodão de Jandaíra",
    "countryCode": "BR",
    "stateCode": "PB",
    "latitude": "-6.86987000",
    "longitude": "-35.97724000"
  },
  {
    "name": "Alhandra",
    "countryCode": "BR",
    "stateCode": "PB",
    "latitude": "-7.35043000",
    "longitude": "-34.92835000"
  },
  {
    "name": "Aliança",
    "countryCode": "BR",
    "stateCode": "PE",
    "latitude": "-7.59698000",
    "longitude": "-35.16536000"
  },
  {
    "name": "Aliança do Tocantins",
    "countryCode": "BR",
    "stateCode": "TO",
    "latitude": "-11.32864000",
    "longitude": "-48.95855000"
  },
  {
    "name": "Almadina",
    "countryCode": "BR",
    "stateCode": "BA",
    "latitude": "-14.67608000",
    "longitude": "-39.69066000"
  },
  {
    "name": "Almas",
    "countryCode": "BR",
    "stateCode": "TO",
    "latitude": "-11.43527000",
    "longitude": "-47.23635000"
  },
  {
    "name": "Almeirim",
    "countryCode": "BR",
    "stateCode": "PA",
    "latitude": "0.47621000",
    "longitude": "-53.87297000"
  },
  {
    "name": "Almenara",
    "countryCode": "BR",
    "stateCode": "MG",
    "latitude": "-16.10053000",
    "longitude": "-40.71006000"
  },
  {
    "name": "Almino Afonso",
    "countryCode": "BR",
    "stateCode": "RN",
    "latitude": "-6.16686000",
    "longitude": "-37.77116000"
  },
  {
    "name": "Almirante Tamandaré",
    "countryCode": "BR",
    "stateCode": "PR",
    "latitude": "-25.32472000",
    "longitude": "-49.31000000"
  },
  {
    "name": "Almirante Tamandaré do Sul",
    "countryCode": "BR",
    "stateCode": "RS",
    "latitude": "-28.15104000",
    "longitude": "-52.91142000"
  },
  {
    "name": "Aloândia",
    "countryCode": "BR",
    "stateCode": "GO",
    "latitude": "-17.69411000",
    "longitude": "-49.44985000"
  },
  {
    "name": "Alpercata",
    "countryCode": "BR",
    "stateCode": "MG",
    "latitude": "-18.98379000",
    "longitude": "-42.00135000"
  },
  {
    "name": "Alpestre",
    "countryCode": "BR",
    "stateCode": "RS",
    "latitude": "-27.22135000",
    "longitude": "-53.05749000"
  },
  {
    "name": "Alpinópolis",
    "countryCode": "BR",
    "stateCode": "MG",
    "latitude": "-20.81822000",
    "longitude": "-46.37937000"
  },
  {
    "name": "Alta Floresta",
    "countryCode": "BR",
    "stateCode": "MT",
    "latitude": "-9.87556000",
    "longitude": "-56.08611000"
  },
  {
    "name": "Alta Floresta d'Oeste",
    "countryCode": "BR",
    "stateCode": "RO",
    "latitude": "-12.47107000",
    "longitude": "-62.13705000"
  },
  {
    "name": "Altair",
    "countryCode": "BR",
    "stateCode": "SP",
    "latitude": "-20.53889000",
    "longitude": "-49.10219000"
  },
  {
    "name": "Altamira",
    "countryCode": "BR",
    "stateCode": "PA",
    "latitude": "-3.20333000",
    "longitude": "-52.20639000"
  },
  {
    "name": "Altamira do Maranhão",
    "countryCode": "BR",
    "stateCode": "MA",
    "latitude": "-4.14072000",
    "longitude": "-45.46154000"
  },
  {
    "name": "Altamira do Paraná",
    "countryCode": "BR",
    "stateCode": "PR",
    "latitude": "-24.81257000",
    "longitude": "-52.70740000"
  },
  {
    "name": "Altaneira",
    "countryCode": "BR",
    "stateCode": "CE",
    "latitude": "-6.98737000",
    "longitude": "-39.72740000"
  },
  {
    "name": "Alterosa",
    "countryCode": "BR",
    "stateCode": "MG",
    "latitude": "-21.21904000",
    "longitude": "-46.18694000"
  },
  {
    "name": "Altinho",
    "countryCode": "BR",
    "stateCode": "PE",
    "latitude": "-8.45151000",
    "longitude": "-36.08155000"
  },
  {
    "name": "Altinópolis",
    "countryCode": "BR",
    "stateCode": "SP",
    "latitude": "-21.00412000",
    "longitude": "-47.39795000"
  },
  {
    "name": "Alto Alegre",
    "countryCode": "BR",
    "stateCode": "RS",
    "latitude": "-28.79752000",
    "longitude": "-52.98177000"
  },
  {
    "name": "Alto Alegre",
    "countryCode": "BR",
    "stateCode": "SP",
    "latitude": "-21.63149000",
    "longitude": "-50.19601000"
  },
  {
    "name": "Alto Alegre do Maranhão",
    "countryCode": "BR",
    "stateCode": "MA",
    "latitude": "-4.20288000",
    "longitude": "-44.41966000"
  },
  {
    "name": "Alto Alegre do Pindaré",
    "countryCode": "BR",
    "stateCode": "MA",
    "latitude": "-3.83592000",
    "longitude": "-46.03871000"
  },
  {
    "name": "Alto Alegre dos Parecis",
    "countryCode": "BR",
    "stateCode": "RO",
    "latitude": "-12.75601000",
    "longitude": "-61.97971000"
  },
  {
    "name": "Alto Araguaia",
    "countryCode": "BR",
    "stateCode": "MT",
    "latitude": "-17.48438000",
    "longitude": "-53.40594000"
  },
  {
    "name": "Alto Bela Vista",
    "countryCode": "BR",
    "stateCode": "SC",
    "latitude": "-27.40999000",
    "longitude": "-51.93145000"
  },
  {
    "name": "Alto Boa Vista",
    "countryCode": "BR",
    "stateCode": "MT",
    "latitude": "-11.82825000",
    "longitude": "-51.74596000"
  },
  {
    "name": "Alto Caparaó",
    "countryCode": "BR",
    "stateCode": "MG",
    "latitude": "-20.44669000",
    "longitude": "-41.87096000"
  },
  {
    "name": "Alto Feliz",
    "countryCode": "BR",
    "stateCode": "RS",
    "latitude": "-29.36438000",
    "longitude": "-51.30068000"
  },
  {
    "name": "Alto Garças",
    "countryCode": "BR",
    "stateCode": "MT",
    "latitude": "-16.81961000",
    "longitude": "-53.62461000"
  },
  {
    "name": "Alto Horizonte",
    "countryCode": "BR",
    "stateCode": "GO",
    "latitude": "-14.20236000",
    "longitude": "-49.43500000"
  },
  {
    "name": "Alto Jequitibá",
    "countryCode": "BR",
    "stateCode": "MG",
    "latitude": "-20.43703000",
    "longitude": "-41.95113000"
  },
  {
    "name": "Alto Longá",
    "countryCode": "BR",
    "stateCode": "PI",
    "latitude": "-5.40788000",
    "longitude": "-42.06612000"
  },
  {
    "name": "Alto Paraguai",
    "countryCode": "BR",
    "stateCode": "MT",
    "latitude": "-14.76851000",
    "longitude": "-56.72113000"
  },
  {
    "name": "Alto Paraná",
    "countryCode": "BR",
    "stateCode": "PR",
    "latitude": "-23.06783000",
    "longitude": "-52.31196000"
  },
  {
    "name": "Alto Paraíso",
    "countryCode": "BR",
    "stateCode": "PR",
    "latitude": "-23.55498000",
    "longitude": "-53.80770000"
  },
  {
    "name": "Alto Paraíso",
    "countryCode": "BR",
    "stateCode": "RO",
    "latitude": "-9.65996000",
    "longitude": "-63.58719000"
  },
  {
    "name": "Alto Paraíso de Goiás",
    "countryCode": "BR",
    "stateCode": "GO",
    "latitude": "-14.18198000",
    "longitude": "-47.45902000"
  },
  {
    "name": "Alto Parnaíba",
    "countryCode": "BR",
    "stateCode": "MA",
    "latitude": "-9.53480000",
    "longitude": "-46.13899000"
  },
  {
    "name": "Alto Piquiri",
    "countryCode": "BR",
    "stateCode": "PR",
    "latitude": "-24.12973000",
    "longitude": "-53.34661000"
  },
  {
    "name": "Alto Rio Doce",
    "countryCode": "BR",
    "stateCode": "MG",
    "latitude": "-21.01929000",
    "longitude": "-43.40538000"
  },
  {
    "name": "Alto Rio Novo",
    "countryCode": "BR",
    "stateCode": "ES",
    "latitude": "-19.03248000",
    "longitude": "-40.99144000"
  },
  {
    "name": "Alto Santo",
    "countryCode": "BR",
    "stateCode": "CE",
    "latitude": "-5.52410000",
    "longitude": "-38.20916000"
  },
  {
    "name": "Alto Taquari",
    "countryCode": "BR",
    "stateCode": "MT",
    "latitude": "-17.76618000",
    "longitude": "-53.28010000"
  },
  {
    "name": "Alto do Rodrigues",
    "countryCode": "BR",
    "stateCode": "RN",
    "latitude": "-5.34902000",
    "longitude": "-36.79683000"
  },
  {
    "name": "Altos",
    "countryCode": "BR",
    "stateCode": "PI",
    "latitude": "-5.03806000",
    "longitude": "-42.46000000"
  },
  {
    "name": "Altãnia",
    "countryCode": "BR",
    "stateCode": "PR",
    "latitude": "-23.87444000",
    "longitude": "-53.90167000"
  },
  {
    "name": "Altônia",
    "countryCode": "BR",
    "stateCode": "PR",
    "latitude": "-23.88648000",
    "longitude": "-53.96852000"
  },
  {
    "name": "Alumínio",
    "countryCode": "BR",
    "stateCode": "SP",
    "latitude": "-23.52259000",
    "longitude": "-47.28373000"
  },
  {
    "name": "Alvarenga",
    "countryCode": "BR",
    "stateCode": "MG",
    "latitude": "-19.39870000",
    "longitude": "-41.68138000"
  },
  {
    "name": "Alvarães",
    "countryCode": "BR",
    "stateCode": "AM",
    "latitude": "-3.22083000",
    "longitude": "-64.80417000"
  },
  {
    "name": "Alvinlândia",
    "countryCode": "BR",
    "stateCode": "SP",
    "latitude": "-22.45669000",
    "longitude": "-49.76243000"
  },
  {
    "name": "Alvinópolis",
    "countryCode": "BR",
    "stateCode": "MG",
    "latitude": "-20.12078000",
    "longitude": "-43.15399000"
  },
  {
    "name": "Alvorada",
    "countryCode": "BR",
    "stateCode": "RS",
    "latitude": "-29.98897000",
    "longitude": "-51.03717000"
  },
  {
    "name": "Alvorada",
    "countryCode": "BR",
    "stateCode": "TO",
    "latitude": "-12.48000000",
    "longitude": "-49.12472000"
  },
  {
    "name": "Alvorada d'Oeste",
    "countryCode": "BR",
    "stateCode": "RO",
    "latitude": "-11.29925000",
    "longitude": "-62.50152000"
  },
  {
    "name": "Alvorada de Minas",
    "countryCode": "BR",
    "stateCode": "MG",
    "latitude": "-18.79532000",
    "longitude": "-43.37002000"
  },
  {
    "name": "Alvorada do Gurguéia",
    "countryCode": "BR",
    "stateCode": "PI",
    "latitude": "-8.38553000",
    "longitude": "-43.83237000"
  },
  {
    "name": "Alvorada do Norte",
    "countryCode": "BR",
    "stateCode": "GO",
    "latitude": "-14.52424000",
    "longitude": "-46.64133000"
  },
  {
    "name": "Alvorada do Sul",
    "countryCode": "BR",
    "stateCode": "PR",
    "latitude": "-22.80928000",
    "longitude": "-51.27421000"
  },
  {
    "name": "Além Paraíba",
    "countryCode": "BR",
    "stateCode": "MG",
    "latitude": "-21.80936000",
    "longitude": "-42.75740000"
  },
  {
    "name": "Amajari",
    "countryCode": "BR",
    "stateCode": "RR",
    "latitude": "3.65416667",
    "longitude": "-61.41694444"
  },
  {
    "name": "Amambai",
    "countryCode": "BR",
    "stateCode": "MS",
    "latitude": "-23.12710000",
    "longitude": "-54.95790000"
  },
  {
    "name": "Amaporã",
    "countryCode": "BR",
    "stateCode": "PR",
    "latitude": "-23.13633000",
    "longitude": "-52.83810000"
  },
  {
    "name": "Amapá",
    "countryCode": "BR",
    "stateCode": "AP",
    "latitude": "1.85706000",
    "longitude": "-50.84374000"
  },
  {
    "name": "Amapá do Maranhão",
    "countryCode": "BR",
    "stateCode": "MA",
    "latitude": "-1.69470000",
    "longitude": "-45.92994000"
  },
  {
    "name": "Amaraji",
    "countryCode": "BR",
    "stateCode": "PE",
    "latitude": "-8.37192000",
    "longitude": "-35.48991000"
  },
  {
    "name": "Amaral Ferrador",
    "countryCode": "BR",
    "stateCode": "RS",
    "latitude": "-30.80769000",
    "longitude": "-52.29964000"
  },
  {
    "name": "Amaralina",
    "countryCode": "BR",
    "stateCode": "GO",
    "latitude": "-13.81390000",
    "longitude": "-49.63205000"
  },
  {
    "name": "Amarante",
    "countryCode": "BR",
    "stateCode": "PI",
    "latitude": "-6.37020000",
    "longitude": "-42.78806000"
  },
  {
    "name": "Amarante do Maranhão",
    "countryCode": "BR",
    "stateCode": "MA",
    "latitude": "-5.56939000",
    "longitude": "-46.64105000"
  },
  {
    "name": "Amargosa",
    "countryCode": "BR",
    "stateCode": "BA",
    "latitude": "-13.04970000",
    "longitude": "-39.60720000"
  },
  {
    "name": "Amaturá",
    "countryCode": "BR",
    "stateCode": "AM",
    "latitude": "-3.38926000",
    "longitude": "-68.22698000"
  },
  {
    "name": "Americana",
    "countryCode": "BR",
    "stateCode": "SP",
    "latitude": "-22.71408000",
    "longitude": "-47.29009000"
  },
  {
    "name": "Americano do Brasil",
    "countryCode": "BR",
    "stateCode": "GO",
    "latitude": "-16.26498000",
    "longitude": "-49.99408000"
  },
  {
    "name": "Ametista do Sul",
    "countryCode": "BR",
    "stateCode": "RS",
    "latitude": "-27.36698000",
    "longitude": "-53.18701000"
  },
  {
    "name": "Amontada",
    "countryCode": "BR",
    "stateCode": "CE",
    "latitude": "-3.27941000",
    "longitude": "-39.80582000"
  },
  {
    "name": "Amorinópolis",
    "countryCode": "BR",
    "stateCode": "GO",
    "latitude": "-16.63420000",
    "longitude": "-51.09852000"
  },
  {
    "name": "Amparo",
    "countryCode": "BR",
    "stateCode": "PB",
    "latitude": "-7.55889000",
    "longitude": "-37.03372000"
  },
  {
    "name": "Amparo",
    "countryCode": "BR",
    "stateCode": "SP",
    "latitude": "-22.70111000",
    "longitude": "-46.76444000"
  },
  {
    "name": "Amparo da Serra",
    "countryCode": "BR",
    "stateCode": "MG",
    "latitude": "-20.52383000",
    "longitude": "-42.79878000"
  },
  {
    "name": "Amparo de São Francisco",
    "countryCode": "BR",
    "stateCode": "SE",
    "latitude": "-10.13736000",
    "longitude": "-36.92219000"
  },
  {
    "name": "Ampére",
    "countryCode": "BR",
    "stateCode": "PR",
    "latitude": "-25.91242000",
    "longitude": "-53.49366000"
  },
  {
    "name": "Amélia Rodrigues",
    "countryCode": "BR",
    "stateCode": "BA",
    "latitude": "-12.38975000",
    "longitude": "-38.75153000"
  },
  {
    "name": "América Dourada",
    "countryCode": "BR",
    "stateCode": "BA",
    "latitude": "-11.46940000",
    "longitude": "-41.47335000"
  },
  {
    "name": "Américo Brasiliense",
    "countryCode": "BR",
    "stateCode": "SP",
    "latitude": "-21.71797000",
    "longitude": "-48.01568000"
  },
  {
    "name": "Américo de Campos",
    "countryCode": "BR",
    "stateCode": "SP",
    "latitude": "-20.27453000",
    "longitude": "-49.75539000"
  },
  {
    "name": "Anadia",
    "countryCode": "BR",
    "stateCode": "AL",
    "latitude": "-9.67495000",
    "longitude": "-36.33790000"
  },
  {
    "name": "Anagé",
    "countryCode": "BR",
    "stateCode": "BA",
    "latitude": "-14.66168000",
    "longitude": "-41.14703000"
  },
  {
    "name": "Anahy",
    "countryCode": "BR",
    "stateCode": "PR",
    "latitude": "-24.66517000",
    "longitude": "-53.13229000"
  },
  {
    "name": "Anajatuba",
    "countryCode": "BR",
    "stateCode": "MA",
    "latitude": "-3.27409000",
    "longitude": "-44.53278000"
  },
  {
    "name": "Anajás",
    "countryCode": "BR",
    "stateCode": "PA",
    "latitude": "-0.86015000",
    "longitude": "-50.03970000"
  },
  {
    "name": "Analândia",
    "countryCode": "BR",
    "stateCode": "SP",
    "latitude": "-22.12002000",
    "longitude": "-47.68938000"
  },
  {
    "name": "Anamã",
    "countryCode": "BR",
    "stateCode": "AM",
    "latitude": "-3.47990000",
    "longitude": "-61.71689000"
  },
  {
    "name": "Ananindeua",
    "countryCode": "BR",
    "stateCode": "PA",
    "latitude": "-1.34611000",
    "longitude": "-48.38287000"
  },
  {
    "name": "Ananás",
    "countryCode": "BR",
    "stateCode": "TO",
    "latitude": "-6.14621000",
    "longitude": "-48.21505000"
  },
  {
    "name": "Anapu",
    "countryCode": "BR",
    "stateCode": "PA",
    "latitude": "-3.88583000",
    "longitude": "-51.33796000"
  },
  {
    "name": "Anapurus",
    "countryCode": "BR",
    "stateCode": "MA",
    "latitude": "-3.56073000",
    "longitude": "-43.04307000"
  },
  {
    "name": "Anastácio",
    "countryCode": "BR",
    "stateCode": "MS",
    "latitude": "-20.76269000",
    "longitude": "-55.73052000"
  },
  {
    "name": "Anaurilândia",
    "countryCode": "BR",
    "stateCode": "MS",
    "latitude": "-22.14199000",
    "longitude": "-52.72011000"
  },
  {
    "name": "Anchieta",
    "countryCode": "BR",
    "stateCode": "ES",
    "latitude": "-20.73420000",
    "longitude": "-40.70056000"
  },
  {
    "name": "Anchieta",
    "countryCode": "BR",
    "stateCode": "SC",
    "latitude": "-26.52666000",
    "longitude": "-53.35459000"
  },
  {
    "name": "Andaraí",
    "countryCode": "BR",
    "stateCode": "BA",
    "latitude": "-12.84167000",
    "longitude": "-41.27679000"
  },
  {
    "name": "Andirá",
    "countryCode": "BR",
    "stateCode": "PR",
    "latitude": "-23.03931000",
    "longitude": "-50.27404000"
  },
  {
    "name": "Andorinha",
    "countryCode": "BR",
    "stateCode": "BA",
    "latitude": "-10.22216000",
    "longitude": "-39.86387000"
  },
  {
    "name": "Andradas",
    "countryCode": "BR",
    "stateCode": "MG",
    "latitude": "-22.06984000",
    "longitude": "-46.57230000"
  },
  {
    "name": "Andradina",
    "countryCode": "BR",
    "stateCode": "SP",
    "latitude": "-20.86545000",
    "longitude": "-51.31567000"
  },
  {
    "name": "Andrelândia",
    "countryCode": "BR",
    "stateCode": "MG",
    "latitude": "-21.71132000",
    "longitude": "-44.27912000"
  },
  {
    "name": "André da Rocha",
    "countryCode": "BR",
    "stateCode": "RS",
    "latitude": "-28.58832000",
    "longitude": "-51.49976000"
  },
  {
    "name": "Angatuba",
    "countryCode": "BR",
    "stateCode": "SP",
    "latitude": "-23.47450000",
    "longitude": "-48.42565000"
  },
  {
    "name": "Angelim",
    "countryCode": "BR",
    "stateCode": "PE",
    "latitude": "-8.89154000",
    "longitude": "-36.27674000"
  },
  {
    "name": "Angelina",
    "countryCode": "BR",
    "stateCode": "SC",
    "latitude": "-27.53450000",
    "longitude": "-49.08558000"
  },
  {
    "name": "Angelândia",
    "countryCode": "BR",
    "stateCode": "MG",
    "latitude": "-17.72394000",
    "longitude": "-42.26234000"
  },
  {
    "name": "Angical",
    "countryCode": "BR",
    "stateCode": "BA",
    "latitude": "-11.96280000",
    "longitude": "-44.74980000"
  },
  {
    "name": "Angical do Piauí",
    "countryCode": "BR",
    "stateCode": "PI",
    "latitude": "-6.09884000",
    "longitude": "-42.72022000"
  },
  {
    "name": "Angico",
    "countryCode": "BR",
    "stateCode": "TO",
    "latitude": "-6.34335000",
    "longitude": "-47.93112000"
  },
  {
    "name": "Angicos",
    "countryCode": "BR",
    "stateCode": "RN",
    "latitude": "-5.67403000",
    "longitude": "-36.54881000"
  },
  {
    "name": "Angra dos Reis",
    "countryCode": "BR",
    "stateCode": "RJ",
    "latitude": "-23.00667000",
    "longitude": "-44.31806000"
  },
  {
    "name": "Anguera",
    "countryCode": "BR",
    "stateCode": "BA",
    "latitude": "-12.18221000",
    "longitude": "-39.21384000"
  },
  {
    "name": "Angélica",
    "countryCode": "BR",
    "stateCode": "MS",
    "latitude": "-22.02780000",
    "longitude": "-53.86668000"
  },
  {
    "name": "Anhanguera",
    "countryCode": "BR",
    "stateCode": "GO",
    "latitude": "-18.31505000",
    "longitude": "-48.22190000"
  },
  {
    "name": "Anhembi",
    "countryCode": "BR",
    "stateCode": "SP",
    "latitude": "-22.83293000",
    "longitude": "-48.16384000"
  },
  {
    "name": "Anhumas",
    "countryCode": "BR",
    "stateCode": "SP",
    "latitude": "-22.34571000",
    "longitude": "-51.42761000"
  },
  {
    "name": "Anicuns",
    "countryCode": "BR",
    "stateCode": "GO",
    "latitude": "-16.38582000",
    "longitude": "-49.97942000"
  },
  {
    "name": "Anita Garibaldi",
    "countryCode": "BR",
    "stateCode": "SC",
    "latitude": "-27.72616000",
    "longitude": "-51.05838000"
  },
  {
    "name": "Anitápolis",
    "countryCode": "BR",
    "stateCode": "SC",
    "latitude": "-27.90194000",
    "longitude": "-49.12861000"
  },
  {
    "name": "Anori",
    "countryCode": "BR",
    "stateCode": "AM",
    "latitude": "-3.77278000",
    "longitude": "-61.64417000"
  },
  {
    "name": "Anta Gorda",
    "countryCode": "BR",
    "stateCode": "RS",
    "latitude": "-28.96836000",
    "longitude": "-51.97107000"
  },
  {
    "name": "Antas",
    "countryCode": "BR",
    "stateCode": "BA",
    "latitude": "-10.42138000",
    "longitude": "-38.30341000"
  },
  {
    "name": "Antonina",
    "countryCode": "BR",
    "stateCode": "PR",
    "latitude": "-25.28425000",
    "longitude": "-48.72037000"
  },
  {
    "name": "Antonina do Norte",
    "countryCode": "BR",
    "stateCode": "CE",
    "latitude": "-6.73622000",
    "longitude": "-39.97882000"
  },
  {
    "name": "Antônio Almeida",
    "countryCode": "BR",
    "stateCode": "PI",
    "latitude": "-7.12211000",
    "longitude": "-44.25307000"
  },
  {
    "name": "Antônio Cardoso",
    "countryCode": "BR",
    "stateCode": "BA",
    "latitude": "-12.38641000",
    "longitude": "-39.14549000"
  },
  {
    "name": "Antônio Carlos",
    "countryCode": "BR",
    "stateCode": "MG",
    "latitude": "-21.40838000",
    "longitude": "-43.76937000"
  },
  {
    "name": "Antônio Carlos",
    "countryCode": "BR",
    "stateCode": "SC",
    "latitude": "-27.49807000",
    "longitude": "-48.83918000"
  },
  {
    "name": "Antônio Dias",
    "countryCode": "BR",
    "stateCode": "MG",
    "latitude": "-19.56225000",
    "longitude": "-42.88855000"
  },
  {
    "name": "Antônio Gonçalves",
    "countryCode": "BR",
    "stateCode": "BA",
    "latitude": "-10.62282000",
    "longitude": "-40.40933000"
  },
  {
    "name": "Antônio João",
    "countryCode": "BR",
    "stateCode": "MS",
    "latitude": "-22.20114000",
    "longitude": "-55.93897000"
  },
  {
    "name": "Antônio Martins",
    "countryCode": "BR",
    "stateCode": "RN",
    "latitude": "-6.20609000",
    "longitude": "-37.92136000"
  },
  {
    "name": "Antônio Olinto",
    "countryCode": "BR",
    "stateCode": "PR",
    "latitude": "-25.96435000",
    "longitude": "-50.12992000"
  },
  {
    "name": "Antônio Prado",
    "countryCode": "BR",
    "stateCode": "RS",
    "latitude": "-28.87322000",
    "longitude": "-51.31744000"
  },
  {
    "name": "Antônio Prado de Minas",
    "countryCode": "BR",
    "stateCode": "MG",
    "latitude": "-21.02658000",
    "longitude": "-42.15497000"
  },
  {
    "name": "Anápolis",
    "countryCode": "BR",
    "stateCode": "GO",
    "latitude": "-16.32667000",
    "longitude": "-48.95278000"
  },
  {
    "name": "Anísio de Abreu",
    "countryCode": "BR",
    "stateCode": "PI",
    "latitude": "-9.24779000",
    "longitude": "-43.05238000"
  },
  {
    "name": "Aparecida",
    "countryCode": "BR",
    "stateCode": "PB",
    "latitude": "-6.80925000",
    "longitude": "-38.07182000"
  },
  {
    "name": "Aparecida",
    "countryCode": "BR",
    "stateCode": "SP",
    "latitude": "-22.90434000",
    "longitude": "-45.23562000"
  },
  {
    "name": "Aparecida d'Oeste",
    "countryCode": "BR",
    "stateCode": "SP",
    "latitude": "-20.48414000",
    "longitude": "-50.91883000"
  },
  {
    "name": "Aparecida de Goiânia",
    "countryCode": "BR",
    "stateCode": "GO",
    "latitude": "-16.82333000",
    "longitude": "-49.24389000"
  },
  {
    "name": "Aparecida do Rio Doce",
    "countryCode": "BR",
    "stateCode": "GO",
    "latitude": "-18.22963000",
    "longitude": "-51.24140000"
  },
  {
    "name": "Aparecida do Rio Negro",
    "countryCode": "BR",
    "stateCode": "TO",
    "latitude": "-10.06183000",
    "longitude": "-47.96514000"
  },
  {
    "name": "Aparecida do Taboado",
    "countryCode": "BR",
    "stateCode": "MS",
    "latitude": "-20.00909000",
    "longitude": "-51.34632000"
  },
  {
    "name": "Aperibé",
    "countryCode": "BR",
    "stateCode": "RJ",
    "latitude": "-21.64148000",
    "longitude": "-42.12753000"
  },
  {
    "name": "Apiacá",
    "countryCode": "BR",
    "stateCode": "ES",
    "latitude": "-21.08025000",
    "longitude": "-41.56100000"
  },
  {
    "name": "Apiacás",
    "countryCode": "BR",
    "stateCode": "MT",
    "latitude": "-9.03962000",
    "longitude": "-57.75949000"
  },
  {
    "name": "Apiaí",
    "countryCode": "BR",
    "stateCode": "SP",
    "latitude": "-24.39767000",
    "longitude": "-48.82237000"
  },
  {
    "name": "Apicum-Açu",
    "countryCode": "BR",
    "stateCode": "MA",
    "latitude": "-1.48035000",
    "longitude": "-45.08540000"
  },
  {
    "name": "Apiúna",
    "countryCode": "BR",
    "stateCode": "SC",
    "latitude": "-27.10736000",
    "longitude": "-49.38129000"
  },
  {
    "name": "Apodi",
    "countryCode": "BR",
    "stateCode": "RN",
    "latitude": "-5.66690000",
    "longitude": "-37.92339000"
  },
  {
    "name": "Aporá",
    "countryCode": "BR",
    "stateCode": "BA",
    "latitude": "-11.75439000",
    "longitude": "-38.22784000"
  },
  {
    "name": "Aporé",
    "countryCode": "BR",
    "stateCode": "GO",
    "latitude": "-18.74325000",
    "longitude": "-52.06942000"
  },
  {
    "name": "Apuarema",
    "countryCode": "BR",
    "stateCode": "BA",
    "latitude": "-13.83005000",
    "longitude": "-39.73444000"
  },
  {
    "name": "Apucarana",
    "countryCode": "BR",
    "stateCode": "PR",
    "latitude": "-23.56159000",
    "longitude": "-51.45358000"
  },
  {
    "name": "Apuiarés",
    "countryCode": "BR",
    "stateCode": "CE",
    "latitude": "-3.95004000",
    "longitude": "-39.30373000"
  },
  {
    "name": "Apuí",
    "countryCode": "BR",
    "stateCode": "AM",
    "latitude": "-7.78922000",
    "longitude": "-59.34104000"
  },
  {
    "name": "Aquidabã",
    "countryCode": "BR",
    "stateCode": "SE",
    "latitude": "-10.31619000",
    "longitude": "-37.10451000"
  },
  {
    "name": "Aquidauana",
    "countryCode": "BR",
    "stateCode": "MS",
    "latitude": "-20.45790000",
    "longitude": "-55.83801000"
  },
  {
    "name": "Aquiraz",
    "countryCode": "BR",
    "stateCode": "CE",
    "latitude": "-3.90157000",
    "longitude": "-38.39127000"
  },
  {
    "name": "Arabutã",
    "countryCode": "BR",
    "stateCode": "SC",
    "latitude": "-27.14142000",
    "longitude": "-52.18125000"
  },
  {
    "name": "Aracaju",
    "countryCode": "BR",
    "stateCode": "SE",
    "latitude": "-10.98232000",
    "longitude": "-37.10333000"
  },
  {
    "name": "Aracati",
    "countryCode": "BR",
    "stateCode": "CE",
    "latitude": "-4.56513000",
    "longitude": "-37.76688000"
  },
  {
    "name": "Aracatu",
    "countryCode": "BR",
    "stateCode": "BA",
    "latitude": "-14.39011000",
    "longitude": "-41.36331000"
  },
  {
    "name": "Araci",
    "countryCode": "BR",
    "stateCode": "BA",
    "latitude": "-11.13564000",
    "longitude": "-39.07003000"
  },
  {
    "name": "Aracitaba",
    "countryCode": "BR",
    "stateCode": "MG",
    "latitude": "-21.35243000",
    "longitude": "-43.40862000"
  },
  {
    "name": "Aracoiaba",
    "countryCode": "BR",
    "stateCode": "CE",
    "latitude": "-4.49045000",
    "longitude": "-38.67765000"
  },
  {
    "name": "Aracruz",
    "countryCode": "BR",
    "stateCode": "ES",
    "latitude": "-19.81952000",
    "longitude": "-40.19097000"
  },
  {
    "name": "Aragarças",
    "countryCode": "BR",
    "stateCode": "GO",
    "latitude": "-15.94743000",
    "longitude": "-52.08069000"
  },
  {
    "name": "Aragoiânia",
    "countryCode": "BR",
    "stateCode": "GO",
    "latitude": "-16.95418000",
    "longitude": "-49.40598000"
  },
  {
    "name": "Aragominas",
    "countryCode": "BR",
    "stateCode": "TO",
    "latitude": "-6.89259000",
    "longitude": "-48.61589000"
  },
  {
    "name": "Araguacema",
    "countryCode": "BR",
    "stateCode": "TO",
    "latitude": "-8.91352000",
    "longitude": "-49.40915000"
  },
  {
    "name": "Araguaiana",
    "countryCode": "BR",
    "stateCode": "MT",
    "latitude": "-15.73389000",
    "longitude": "-51.83139000"
  },
  {
    "name": "Araguainha",
    "countryCode": "BR",
    "stateCode": "MT",
    "latitude": "-16.78427000",
    "longitude": "-53.07981000"
  },
  {
    "name": "Araguanã",
    "countryCode": "BR",
    "stateCode": "MA",
    "latitude": "-3.04178000",
    "longitude": "-45.75874000"
  },
  {
    "name": "Araguanã",
    "countryCode": "BR",
    "stateCode": "TO",
    "latitude": "-6.76634000",
    "longitude": "-48.52702000"
  },
  {
    "name": "Araguapaz",
    "countryCode": "BR",
    "stateCode": "GO",
    "latitude": "-15.12986000",
    "longitude": "-50.49840000"
  },
  {
    "name": "Araguari",
    "countryCode": "BR",
    "stateCode": "MG",
    "latitude": "-18.64722000",
    "longitude": "-48.18722000"
  },
  {
    "name": "Araguatins",
    "countryCode": "BR",
    "stateCode": "TO",
    "latitude": "-5.64071000",
    "longitude": "-48.08859000"
  },
  {
    "name": "Araguaçu",
    "countryCode": "BR",
    "stateCode": "TO",
    "latitude": "-12.72579000",
    "longitude": "-49.74942000"
  },
  {
    "name": "Araguaína",
    "countryCode": "BR",
    "stateCode": "TO",
    "latitude": "-7.31139000",
    "longitude": "-48.62113000"
  },
  {
    "name": "Araioses",
    "countryCode": "BR",
    "stateCode": "MA",
    "latitude": "-2.89792000",
    "longitude": "-42.02298000"
  },
  {
    "name": "Aral Moreira",
    "countryCode": "BR",
    "stateCode": "MS",
    "latitude": "-22.90946000",
    "longitude": "-55.37007000"
  },
  {
    "name": "Aramari",
    "countryCode": "BR",
    "stateCode": "BA",
    "latitude": "-12.04618000",
    "longitude": "-38.55762000"
  },
  {
    "name": "Arambaré",
    "countryCode": "BR",
    "stateCode": "RS",
    "latitude": "-30.91331000",
    "longitude": "-51.55614000"
  },
  {
    "name": "Arame",
    "countryCode": "BR",
    "stateCode": "MA",
    "latitude": "-5.03155000",
    "longitude": "-45.86324000"
  },
  {
    "name": "Aramina",
    "countryCode": "BR",
    "stateCode": "SP",
    "latitude": "-20.16724000",
    "longitude": "-47.82645000"
  },
  {
    "name": "Arandu",
    "countryCode": "BR",
    "stateCode": "SP",
    "latitude": "-23.17065000",
    "longitude": "-49.05861000"
  },
  {
    "name": "Arantina",
    "countryCode": "BR",
    "stateCode": "MG",
    "latitude": "-21.89632000",
    "longitude": "-44.22633000"
  },
  {
    "name": "Arapeí",
    "countryCode": "BR",
    "stateCode": "SP",
    "latitude": "-22.66504000",
    "longitude": "-44.43858000"
  },
  {
    "name": "Arapiraca",
    "countryCode": "BR",
    "stateCode": "AL",
    "latitude": "-9.74380000",
    "longitude": "-36.59315000"
  },
  {
    "name": "Arapoema",
    "countryCode": "BR",
    "stateCode": "TO",
    "latitude": "-7.71941000",
    "longitude": "-49.03285000"
  },
  {
    "name": "Araponga",
    "countryCode": "BR",
    "stateCode": "MG",
    "latitude": "-20.66607000",
    "longitude": "-42.51113000"
  },
  {
    "name": "Arapongas",
    "countryCode": "BR",
    "stateCode": "PR",
    "latitude": "-23.41944000",
    "longitude": "-51.42444000"
  },
  {
    "name": "Araporã",
    "countryCode": "BR",
    "stateCode": "MG",
    "latitude": "-18.49061000",
    "longitude": "-49.13761000"
  },
  {
    "name": "Arapoti",
    "countryCode": "BR",
    "stateCode": "PR",
    "latitude": "-24.06902000",
    "longitude": "-50.03733000"
  },
  {
    "name": "Araputanga",
    "countryCode": "BR",
    "stateCode": "MT",
    "latitude": "-15.17477000",
    "longitude": "-58.49729000"
  },
  {
    "name": "Arapuá",
    "countryCode": "BR",
    "stateCode": "MG",
    "latitude": "-19.03065000",
    "longitude": "-46.09585000"
  },
  {
    "name": "Arapuã",
    "countryCode": "BR",
    "stateCode": "PR",
    "latitude": "-24.31991000",
    "longitude": "-51.81138000"
  },
  {
    "name": "Araquari",
    "countryCode": "BR",
    "stateCode": "SC",
    "latitude": "-26.46833000",
    "longitude": "-48.80083000"
  },
  {
    "name": "Arara",
    "countryCode": "BR",
    "stateCode": "PB",
    "latitude": "-6.82833000",
    "longitude": "-35.75833000"
  },
  {
    "name": "Araranguá",
    "countryCode": "BR",
    "stateCode": "SC",
    "latitude": "-28.93954000",
    "longitude": "-49.51119000"
  },
  {
    "name": "Araraquara",
    "countryCode": "BR",
    "stateCode": "SP",
    "latitude": "-21.79444000",
    "longitude": "-48.17556000"
  },
  {
    "name": "Araras",
    "countryCode": "BR",
    "stateCode": "SP",
    "latitude": "-22.35694000",
    "longitude": "-47.38417000"
  },
  {
    "name": "Ararendá",
    "countryCode": "BR",
    "stateCode": "CE",
    "latitude": "-4.77058000",
    "longitude": "-40.75389000"
  },
  {
    "name": "Arari",
    "countryCode": "BR",
    "stateCode": "MA",
    "latitude": "-3.45361000",
    "longitude": "-44.78000000"
  },
  {
    "name": "Araricá",
    "countryCode": "BR",
    "stateCode": "RS",
    "latitude": "-29.64987000",
    "longitude": "-50.93350000"
  },
  {
    "name": "Araripe",
    "countryCode": "BR",
    "stateCode": "CE",
    "latitude": "-7.20462000",
    "longitude": "-40.11426000"
  },
  {
    "name": "Araripina",
    "countryCode": "BR",
    "stateCode": "PE",
    "latitude": "-7.57611000",
    "longitude": "-40.49833000"
  },
  {
    "name": "Araruama",
    "countryCode": "BR",
    "stateCode": "RJ",
    "latitude": "-22.87278000",
    "longitude": "-42.34306000"
  },
  {
    "name": "Araruna",
    "countryCode": "BR",
    "stateCode": "PB",
    "latitude": "-6.55833000",
    "longitude": "-35.74167000"
  },
  {
    "name": "Araruna",
    "countryCode": "BR",
    "stateCode": "PR",
    "latitude": "-23.97219000",
    "longitude": "-52.59131000"
  },
  {
    "name": "Arataca",
    "countryCode": "BR",
    "stateCode": "BA",
    "latitude": "-15.24607000",
    "longitude": "-39.42481000"
  },
  {
    "name": "Aratiba",
    "countryCode": "BR",
    "stateCode": "RS",
    "latitude": "-27.37708000",
    "longitude": "-52.29009000"
  },
  {
    "name": "Aratuba",
    "countryCode": "BR",
    "stateCode": "CE",
    "latitude": "-4.41898000",
    "longitude": "-39.04818000"
  },
  {
    "name": "Aratuípe",
    "countryCode": "BR",
    "stateCode": "BA",
    "latitude": "-13.09363000",
    "longitude": "-39.08259000"
  },
  {
    "name": "Araucária",
    "countryCode": "BR",
    "stateCode": "PR",
    "latitude": "-25.59306000",
    "longitude": "-49.41028000"
  },
  {
    "name": "Arauá",
    "countryCode": "BR",
    "stateCode": "SE",
    "latitude": "-11.26222000",
    "longitude": "-37.61972000"
  },
  {
    "name": "Araxá",
    "countryCode": "BR",
    "stateCode": "MG",
    "latitude": "-19.59333000",
    "longitude": "-46.94056000"
  },
  {
    "name": "Araçagi",
    "countryCode": "BR",
    "stateCode": "PB",
    "latitude": "-6.85419000",
    "longitude": "-35.36047000"
  },
  {
    "name": "Araçariguama",
    "countryCode": "BR",
    "stateCode": "SP",
    "latitude": "-23.42294000",
    "longitude": "-47.07816000"
  },
  {
    "name": "Araçatuba",
    "countryCode": "BR",
    "stateCode": "SP",
    "latitude": "-21.14986000",
    "longitude": "-50.57470000"
  },
  {
    "name": "Araçaí",
    "countryCode": "BR",
    "stateCode": "MG",
    "latitude": "-19.24200000",
    "longitude": "-44.22429000"
  },
  {
    "name": "Araçoiaba",
    "countryCode": "BR",
    "stateCode": "PE",
    "latitude": "-7.79387000",
    "longitude": "-35.07645000"
  },
  {
    "name": "Araçoiaba da Serra",
    "countryCode": "BR",
    "stateCode": "SP",
    "latitude": "-23.56602000",
    "longitude": "-47.66733000"
  },
  {
    "name": "Araçu",
    "countryCode": "BR",
    "stateCode": "GO",
    "latitude": "-16.38304000",
    "longitude": "-49.70782000"
  },
  {
    "name": "Araçuaí",
    "countryCode": "BR",
    "stateCode": "MG",
    "latitude": "-16.90822000",
    "longitude": "-41.98596000"
  },
  {
    "name": "Araçás",
    "countryCode": "BR",
    "stateCode": "BA",
    "latitude": "-12.14681000",
    "longitude": "-38.17233000"
  },
  {
    "name": "Araújos",
    "countryCode": "BR",
    "stateCode": "MG",
    "latitude": "-19.87542000",
    "longitude": "-45.15682000"
  },
  {
    "name": "Arceburgo",
    "countryCode": "BR",
    "stateCode": "MG",
    "latitude": "-21.36655000",
    "longitude": "-46.94472000"
  },
  {
    "name": "Arco-Íris",
    "countryCode": "BR",
    "stateCode": "SP",
    "latitude": "-21.74342000",
    "longitude": "-50.42979000"
  },
  {
    "name": "Arcos",
    "countryCode": "BR",
    "stateCode": "MG",
    "latitude": "-20.24351000",
    "longitude": "-45.56760000"
  },
  {
    "name": "Arcoverde",
    "countryCode": "BR",
    "stateCode": "PE",
    "latitude": "-8.41889000",
    "longitude": "-37.05389000"
  },
  {
    "name": "Areado",
    "countryCode": "BR",
    "stateCode": "MG",
    "latitude": "-21.33401000",
    "longitude": "-46.16798000"
  },
  {
    "name": "Areal",
    "countryCode": "BR",
    "stateCode": "RJ",
    "latitude": "-22.23056000",
    "longitude": "-43.10556000"
  },
  {
    "name": "Arealva",
    "countryCode": "BR",
    "stateCode": "SP",
    "latitude": "-22.06881000",
    "longitude": "-48.99294000"
  },
  {
    "name": "Areia",
    "countryCode": "BR",
    "stateCode": "PB",
    "latitude": "-6.94723000",
    "longitude": "-35.66927000"
  },
  {
    "name": "Areia Branca",
    "countryCode": "BR",
    "stateCode": "RN",
    "latitude": "-4.95611000",
    "longitude": "-37.13694000"
  },
  {
    "name": "Areia Branca",
    "countryCode": "BR",
    "stateCode": "SE",
    "latitude": "-10.75778000",
    "longitude": "-37.31528000"
  },
  {
    "name": "Areia de Baraúnas",
    "countryCode": "BR",
    "stateCode": "PB",
    "latitude": "-7.11328000",
    "longitude": "-36.97177000"
  },
  {
    "name": "Areial",
    "countryCode": "BR",
    "stateCode": "PB",
    "latitude": "-7.04397000",
    "longitude": "-35.92622000"
  },
  {
    "name": "Areias",
    "countryCode": "BR",
    "stateCode": "SP",
    "latitude": "-22.66811000",
    "longitude": "-44.71651000"
  },
  {
    "name": "Areiópolis",
    "countryCode": "BR",
    "stateCode": "SP",
    "latitude": "-22.60627000",
    "longitude": "-48.65273000"
  },
  {
    "name": "Arenápolis",
    "countryCode": "BR",
    "stateCode": "MT",
    "latitude": "-14.45028000",
    "longitude": "-56.84611000"
  },
  {
    "name": "Arenópolis",
    "countryCode": "BR",
    "stateCode": "GO",
    "latitude": "-16.36096000",
    "longitude": "-51.60464000"
  },
  {
    "name": "Argirita",
    "countryCode": "BR",
    "stateCode": "MG",
    "latitude": "-21.63912000",
    "longitude": "-42.82857000"
  },
  {
    "name": "Aricanduva",
    "countryCode": "BR",
    "stateCode": "MG",
    "latitude": "-17.85789000",
    "longitude": "-42.59791000"
  },
  {
    "name": "Arinos",
    "countryCode": "BR",
    "stateCode": "MG",
    "latitude": "-15.80332000",
    "longitude": "-45.94198000"
  },
  {
    "name": "Aripuanã",
    "countryCode": "BR",
    "stateCode": "MT",
    "latitude": "-9.16667000",
    "longitude": "-60.63333000"
  },
  {
    "name": "Ariquemes",
    "countryCode": "BR",
    "stateCode": "RO",
    "latitude": "-9.91333000",
    "longitude": "-63.04083000"
  },
  {
    "name": "Ariranha",
    "countryCode": "BR",
    "stateCode": "SP",
    "latitude": "-21.17685000",
    "longitude": "-48.77771000"
  },
  {
    "name": "Ariranha do Ivaí",
    "countryCode": "BR",
    "stateCode": "PR",
    "latitude": "-24.35185000",
    "longitude": "-51.53194000"
  },
  {
    "name": "Armazém",
    "countryCode": "BR",
    "stateCode": "SC",
    "latitude": "-28.22409000",
    "longitude": "-49.00779000"
  },
  {
    "name": "Armação",
    "countryCode": "BR",
    "stateCode": "SC",
    "latitude": "-27.74963000",
    "longitude": "-48.50713000"
  },
  {
    "name": "Armação dos Búzios",
    "countryCode": "BR",
    "stateCode": "RJ",
    "latitude": "-22.76948000",
    "longitude": "-41.90965000"
  },
  {
    "name": "Arneiroz",
    "countryCode": "BR",
    "stateCode": "CE",
    "latitude": "-6.23607000",
    "longitude": "-40.09400000"
  },
  {
    "name": "Aroazes",
    "countryCode": "BR",
    "stateCode": "PI",
    "latitude": "-6.20348000",
    "longitude": "-41.86926000"
  },
  {
    "name": "Aroeiras",
    "countryCode": "BR",
    "stateCode": "PB",
    "latitude": "-7.52057000",
    "longitude": "-35.69927000"
  },
  {
    "name": "Aroeiras do Itaim",
    "countryCode": "BR",
    "stateCode": "PI",
    "latitude": "-7.27000000",
    "longitude": "-41.56000000"
  },
  {
    "name": "Arraial",
    "countryCode": "BR",
    "stateCode": "PI",
    "latitude": "-6.62721000",
    "longitude": "-42.49393000"
  },
  {
    "name": "Arraial do Cabo",
    "countryCode": "BR",
    "stateCode": "RJ",
    "latitude": "-22.95505000",
    "longitude": "-42.06098000"
  },
  {
    "name": "Arraias",
    "countryCode": "BR",
    "stateCode": "TO",
    "latitude": "-12.84110000",
    "longitude": "-46.90868000"
  },
  {
    "name": "Arroio Grande",
    "countryCode": "BR",
    "stateCode": "RS",
    "latitude": "-32.17945000",
    "longitude": "-52.86652000"
  },
  {
    "name": "Arroio Trinta",
    "countryCode": "BR",
    "stateCode": "SC",
    "latitude": "-26.91617000",
    "longitude": "-51.34527000"
  },
  {
    "name": "Arroio do Meio",
    "countryCode": "BR",
    "stateCode": "RS",
    "latitude": "-29.40111000",
    "longitude": "-51.94500000"
  },
  {
    "name": "Arroio do Padre",
    "countryCode": "BR",
    "stateCode": "RS",
    "latitude": "-31.43927000",
    "longitude": "-52.39642000"
  },
  {
    "name": "Arroio do Sal",
    "countryCode": "BR",
    "stateCode": "RS",
    "latitude": "-29.52930000",
    "longitude": "-49.89148000"
  },
  {
    "name": "Arroio do Tigre",
    "countryCode": "BR",
    "stateCode": "RS",
    "latitude": "-29.26209000",
    "longitude": "-53.06060000"
  },
  {
    "name": "Arroio dos Ratos",
    "countryCode": "BR",
    "stateCode": "RS",
    "latitude": "-30.07722000",
    "longitude": "-51.72917000"
  },
  {
    "name": "Artur Nogueira",
    "countryCode": "BR",
    "stateCode": "SP",
    "latitude": "-22.57306000",
    "longitude": "-47.17250000"
  },
  {
    "name": "Aruanã",
    "countryCode": "BR",
    "stateCode": "GO",
    "latitude": "-14.81020000",
    "longitude": "-50.94501000"
  },
  {
    "name": "Arujá",
    "countryCode": "BR",
    "stateCode": "SP",
    "latitude": "-23.39611000",
    "longitude": "-46.32083000"
  },
  {
    "name": "Arvoredo",
    "countryCode": "BR",
    "stateCode": "SC",
    "latitude": "-27.06908000",
    "longitude": "-52.44892000"
  },
  {
    "name": "Arvorezinha",
    "countryCode": "BR",
    "stateCode": "RS",
    "latitude": "-28.86971000",
    "longitude": "-52.19631000"
  },
  {
    "name": "Arês",
    "countryCode": "BR",
    "stateCode": "RN",
    "latitude": "-6.19444000",
    "longitude": "-35.16028000"
  },
  {
    "name": "Ascurra",
    "countryCode": "BR",
    "stateCode": "SC",
    "latitude": "-26.98578000",
    "longitude": "-49.37084000"
  },
  {
    "name": "Aspásia",
    "countryCode": "BR",
    "stateCode": "SP",
    "latitude": "-20.18385000",
    "longitude": "-50.73117000"
  },
  {
    "name": "Assaré",
    "countryCode": "BR",
    "stateCode": "CE",
    "latitude": "-6.89746000",
    "longitude": "-39.82906000"
  },
  {
    "name": "Assaí",
    "countryCode": "BR",
    "stateCode": "PR",
    "latitude": "-23.37333000",
    "longitude": "-50.84139000"
  },
  {
    "name": "Assis",
    "countryCode": "BR",
    "stateCode": "SP",
    "latitude": "-22.66167000",
    "longitude": "-50.41222000"
  },
  {
    "name": "Assis Brasil",
    "countryCode": "BR",
    "stateCode": "AC",
    "latitude": "-10.88334000",
    "longitude": "-70.01314000"
  },
  {
    "name": "Assis Chateaubriand",
    "countryCode": "BR",
    "stateCode": "PR",
    "latitude": "-24.40824000",
    "longitude": "-53.53328000"
  },
  {
    "name": "Assunção",
    "countryCode": "BR",
    "stateCode": "PB",
    "latitude": "-7.07371000",
    "longitude": "-36.69894000"
  },
  {
    "name": "Assunção do Piauí",
    "countryCode": "BR",
    "stateCode": "PI",
    "latitude": "-5.85575000",
    "longitude": "-40.94796000"
  },
  {
    "name": "Astolfo Dutra",
    "countryCode": "BR",
    "stateCode": "MG",
    "latitude": "-21.30413000",
    "longitude": "-42.88194000"
  },
  {
    "name": "Astorga",
    "countryCode": "BR",
    "stateCode": "PR",
    "latitude": "-23.24011000",
    "longitude": "-51.69541000"
  },
  {
    "name": "Atalaia",
    "countryCode": "BR",
    "stateCode": "AL",
    "latitude": "-9.50194000",
    "longitude": "-36.02278000"
  },
  {
    "name": "Atalaia",
    "countryCode": "BR",
    "stateCode": "PR",
    "latitude": "-23.12728000",
    "longitude": "-52.04286000"
  },
  {
    "name": "Atalaia do Norte",
    "countryCode": "BR",
    "stateCode": "AM",
    "latitude": "-5.66448000",
    "longitude": "-71.82776000"
  },
  {
    "name": "Atalanta",
    "countryCode": "BR",
    "stateCode": "SC",
    "latitude": "-27.44296000",
    "longitude": "-49.76089000"
  },
  {
    "name": "Ataléia",
    "countryCode": "BR",
    "stateCode": "MG",
    "latitude": "-18.18353000",
    "longitude": "-41.16721000"
  },
  {
    "name": "Atibaia",
    "countryCode": "BR",
    "stateCode": "SP",
    "latitude": "-23.13099000",
    "longitude": "-46.58896000"
  },
  {
    "name": "Atins",
    "countryCode": "BR",
    "stateCode": "MA",
    "latitude": "-2.57017000",
    "longitude": "-42.74229000"
  },
  {
    "name": "Atílio Vivacqua",
    "countryCode": "BR",
    "stateCode": "ES",
    "latitude": "-20.95472000",
    "longitude": "-41.19096000"
  },
  {
    "name": "Augustinópolis",
    "countryCode": "BR",
    "stateCode": "TO",
    "latitude": "-5.51080000",
    "longitude": "-47.91538000"
  },
  {
    "name": "Augusto Corrêa",
    "countryCode": "BR",
    "stateCode": "PA",
    "latitude": "-1.02167000",
    "longitude": "-46.63500000"
  },
  {
    "name": "Augusto Pestana",
    "countryCode": "BR",
    "stateCode": "RS",
    "latitude": "-28.54034000",
    "longitude": "-53.97927000"
  },
  {
    "name": "Augusto Severo",
    "countryCode": "BR",
    "stateCode": "RN",
    "latitude": "-5.90516000",
    "longitude": "-37.30121000"
  },
  {
    "name": "Augusto de Lima",
    "countryCode": "BR",
    "stateCode": "MG",
    "latitude": "-18.10720000",
    "longitude": "-44.16792000"
  },
  {
    "name": "Aurelino Leal",
    "countryCode": "BR",
    "stateCode": "BA",
    "latitude": "-14.36310000",
    "longitude": "-39.47961000"
  },
  {
    "name": "Auriflama",
    "countryCode": "BR",
    "stateCode": "SP",
    "latitude": "-20.68556000",
    "longitude": "-50.55472000"
  },
  {
    "name": "Aurilândia",
    "countryCode": "BR",
    "stateCode": "GO",
    "latitude": "-16.67681000",
    "longitude": "-50.52582000"
  },
  {
    "name": "Aurora",
    "countryCode": "BR",
    "stateCode": "CE",
    "latitude": "-7.00011000",
    "longitude": "-38.97042000"
  },
  {
    "name": "Aurora",
    "countryCode": "BR",
    "stateCode": "SC",
    "latitude": "-27.33930000",
    "longitude": "-49.57823000"
  },
  {
    "name": "Aurora do Pará",
    "countryCode": "BR",
    "stateCode": "PA",
    "latitude": "-2.30323000",
    "longitude": "-47.75621000"
  },
  {
    "name": "Aurora do Tocantins",
    "countryCode": "BR",
    "stateCode": "TO",
    "latitude": "-12.61624000",
    "longitude": "-46.44441000"
  },
  {
    "name": "Autazes",
    "countryCode": "BR",
    "stateCode": "AM",
    "latitude": "-3.57972000",
    "longitude": "-59.13056000"
  },
  {
    "name": "Avanhandava",
    "countryCode": "BR",
    "stateCode": "SP",
    "latitude": "-21.46596000",
    "longitude": "-49.94791000"
  },
  {
    "name": "Avaré",
    "countryCode": "BR",
    "stateCode": "SP",
    "latitude": "-23.03402000",
    "longitude": "-48.88802000"
  },
  {
    "name": "Avaí",
    "countryCode": "BR",
    "stateCode": "SP",
    "latitude": "-22.17789000",
    "longitude": "-49.30511000"
  },
  {
    "name": "Aveiro",
    "countryCode": "BR",
    "stateCode": "PA",
    "latitude": "-3.66721000",
    "longitude": "-56.01637000"
  },
  {
    "name": "Avelino Lopes",
    "countryCode": "BR",
    "stateCode": "PI",
    "latitude": "-10.11463000",
    "longitude": "-43.89286000"
  },
  {
    "name": "Avelinópolis",
    "countryCode": "BR",
    "stateCode": "GO",
    "latitude": "-16.49121000",
    "longitude": "-49.76368000"
  },
  {
    "name": "Axixá",
    "countryCode": "BR",
    "stateCode": "MA",
    "latitude": "-2.84586000",
    "longitude": "-44.10516000"
  },
  {
    "name": "Axixá do Tocantins",
    "countryCode": "BR",
    "stateCode": "TO",
    "latitude": "-5.64850000",
    "longitude": "-47.77278000"
  },
  {
    "name": "Açailândia",
    "countryCode": "BR",
    "stateCode": "MA",
    "latitude": "-4.69214000",
    "longitude": "-47.34302000"
  },
  {
    "name": "Açu",
    "countryCode": "BR",
    "stateCode": "RN",
    "latitude": "-5.57667000",
    "longitude": "-36.90861000"
  },
  {
    "name": "Açucena",
    "countryCode": "BR",
    "stateCode": "MG",
    "latitude": "-19.07306000",
    "longitude": "-42.54639000"
  },
  {
    "name": "Babaçulândia",
    "countryCode": "BR",
    "stateCode": "TO",
    "latitude": "-7.20516000",
    "longitude": "-47.76821000"
  },
  {
    "name": "Bacabal",
    "countryCode": "BR",
    "stateCode": "MA",
    "latitude": "-4.29167000",
    "longitude": "-44.79167000"
  },
  {
    "name": "Bacabeira",
    "countryCode": "BR",
    "stateCode": "MA",
    "latitude": "-2.86866000",
    "longitude": "-44.34505000"
  },
  {
    "name": "Bacuri",
    "countryCode": "BR",
    "stateCode": "MA",
    "latitude": "-1.65142000",
    "longitude": "-45.21995000"
  },
  {
    "name": "Bacurituba",
    "countryCode": "BR",
    "stateCode": "MA",
    "latitude": "-2.64645000",
    "longitude": "-44.65477000"
  },
  {
    "name": "Bady Bassitt",
    "countryCode": "BR",
    "stateCode": "SP",
    "latitude": "-20.91806000",
    "longitude": "-49.44528000"
  },
  {
    "name": "Baependi",
    "countryCode": "BR",
    "stateCode": "MG",
    "latitude": "-21.97623000",
    "longitude": "-44.85558000"
  },
  {
    "name": "Bagre",
    "countryCode": "BR",
    "stateCode": "PA",
    "latitude": "-2.40166000",
    "longitude": "-50.16628000"
  },
  {
    "name": "Bagé",
    "countryCode": "BR",
    "stateCode": "RS",
    "latitude": "-31.33139000",
    "longitude": "-54.10694000"
  },
  {
    "name": "Baianópolis",
    "countryCode": "BR",
    "stateCode": "BA",
    "latitude": "-12.48331000",
    "longitude": "-44.53105000"
  },
  {
    "name": "Baixa Grande",
    "countryCode": "BR",
    "stateCode": "BA",
    "latitude": "-11.97735000",
    "longitude": "-40.17993000"
  },
  {
    "name": "Baixa Grande do Ribeiro",
    "countryCode": "BR",
    "stateCode": "PI",
    "latitude": "-8.69171000",
    "longitude": "-45.12583000"
  },
  {
    "name": "Baixio",
    "countryCode": "BR",
    "stateCode": "CE",
    "latitude": "-6.70726000",
    "longitude": "-38.75748000"
  },
  {
    "name": "Baixo Guandu",
    "countryCode": "BR",
    "stateCode": "ES",
    "latitude": "-19.51889000",
    "longitude": "-41.01583000"
  },
  {
    "name": "Baião",
    "countryCode": "BR",
    "stateCode": "PA",
    "latitude": "-2.79056000",
    "longitude": "-49.67167000"
  },
  {
    "name": "Balbinos",
    "countryCode": "BR",
    "stateCode": "SP",
    "latitude": "-21.90089000",
    "longitude": "-49.33509000"
  },
  {
    "name": "Baldim",
    "countryCode": "BR",
    "stateCode": "MG",
    "latitude": "-19.23659000",
    "longitude": "-43.84684000"
  },
  {
    "name": "Baliza",
    "countryCode": "BR",
    "stateCode": "GO",
    "latitude": "-16.36672000",
    "longitude": "-52.43611000"
  },
  {
    "name": "Balneário Arroio do Silva",
    "countryCode": "BR",
    "stateCode": "SC",
    "latitude": "-29.00699000",
    "longitude": "-49.47849000"
  },
  {
    "name": "Balneário Barra do Sul",
    "countryCode": "BR",
    "stateCode": "SC",
    "latitude": "-26.41890000",
    "longitude": "-48.65147000"
  },
  {
    "name": "Balneário Camboriú",
    "countryCode": "BR",
    "stateCode": "SC",
    "latitude": "-26.99056000",
    "longitude": "-48.63472000"
  },
  {
    "name": "Balneário Gaivota",
    "countryCode": "BR",
    "stateCode": "SC",
    "latitude": "-29.13006000",
    "longitude": "-49.61187000"
  },
  {
    "name": "Balneário Pinhal",
    "countryCode": "BR",
    "stateCode": "RS",
    "latitude": "-30.21275000",
    "longitude": "-50.29309000"
  },
  {
    "name": "Balneário Piçarras",
    "countryCode": "BR",
    "stateCode": "SC",
    "latitude": "-26.75580000",
    "longitude": "-48.76000000"
  },
  {
    "name": "Balneário Rincão",
    "countryCode": "BR",
    "stateCode": "SC",
    "latitude": "-28.82679000",
    "longitude": "-49.25425000"
  },
  {
    "name": "Balsa Nova",
    "countryCode": "BR",
    "stateCode": "PR",
    "latitude": "-25.52151000",
    "longitude": "-49.67738000"
  },
  {
    "name": "Balsas",
    "countryCode": "BR",
    "stateCode": "MA",
    "latitude": "-7.53250000",
    "longitude": "-46.03556000"
  },
  {
    "name": "Bambuí",
    "countryCode": "BR",
    "stateCode": "MG",
    "latitude": "-20.10451000",
    "longitude": "-45.98743000"
  },
  {
    "name": "Banabuiú",
    "countryCode": "BR",
    "stateCode": "CE",
    "latitude": "-5.23555000",
    "longitude": "-38.87457000"
  },
  {
    "name": "Bananal",
    "countryCode": "BR",
    "stateCode": "SP",
    "latitude": "-22.73751000",
    "longitude": "-44.33413000"
  },
  {
    "name": "Bananeiras",
    "countryCode": "BR",
    "stateCode": "PB",
    "latitude": "-6.75000000",
    "longitude": "-35.63333000"
  },
  {
    "name": "Bandeira",
    "countryCode": "BR",
    "stateCode": "MG",
    "latitude": "-15.88042000",
    "longitude": "-40.59969000"
  },
  {
    "name": "Bandeira do Sul",
    "countryCode": "BR",
    "stateCode": "MG",
    "latitude": "-21.72907000",
    "longitude": "-46.38283000"
  },
  {
    "name": "Bandeirante",
    "countryCode": "BR",
    "stateCode": "SC",
    "latitude": "-26.76857000",
    "longitude": "-53.64907000"
  },
  {
    "name": "Bandeirantes",
    "countryCode": "BR",
    "stateCode": "MS",
    "latitude": "-19.80863000",
    "longitude": "-54.33095000"
  },
  {
    "name": "Bandeirantes",
    "countryCode": "BR",
    "stateCode": "PR",
    "latitude": "-23.15516000",
    "longitude": "-50.33873000"
  },
  {
    "name": "Bandeirantes do Tocantins",
    "countryCode": "BR",
    "stateCode": "TO",
    "latitude": "-8.00418000",
    "longitude": "-48.68223000"
  },
  {
    "name": "Bannach",
    "countryCode": "BR",
    "stateCode": "PA",
    "latitude": "-7.46864000",
    "longitude": "-50.65904000"
  },
  {
    "name": "Banzaê",
    "countryCode": "BR",
    "stateCode": "BA",
    "latitude": "-10.61578000",
    "longitude": "-38.62688000"
  },
  {
    "name": "Baraúna",
    "countryCode": "BR",
    "stateCode": "PB",
    "latitude": "-6.61853000",
    "longitude": "-36.26964000"
  },
  {
    "name": "Baraúna",
    "countryCode": "BR",
    "stateCode": "RN",
    "latitude": "-4.97189000",
    "longitude": "-37.52234000"
  },
  {
    "name": "Barbacena",
    "countryCode": "BR",
    "stateCode": "MG",
    "latitude": "-21.25031000",
    "longitude": "-43.84171000"
  },
  {
    "name": "Barbalha",
    "countryCode": "BR",
    "stateCode": "CE",
    "latitude": "-7.43604000",
    "longitude": "-39.35273000"
  },
  {
    "name": "Barbosa",
    "countryCode": "BR",
    "stateCode": "SP",
    "latitude": "-21.29619000",
    "longitude": "-49.92293000"
  },
  {
    "name": "Barbosa Ferraz",
    "countryCode": "BR",
    "stateCode": "PR",
    "latitude": "-24.06134000",
    "longitude": "-52.05494000"
  },
  {
    "name": "Barcarena",
    "countryCode": "BR",
    "stateCode": "PA",
    "latitude": "-1.54656000",
    "longitude": "-48.63248000"
  },
  {
    "name": "Barcelona",
    "countryCode": "BR",
    "stateCode": "RN",
    "latitude": "-5.94268000",
    "longitude": "-35.92019000"
  },
  {
    "name": "Barcelos",
    "countryCode": "BR",
    "stateCode": "AM",
    "latitude": "-0.97357000",
    "longitude": "-62.92690000"
  },
  {
    "name": "Bariri",
    "countryCode": "BR",
    "stateCode": "SP",
    "latitude": "-22.07444000",
    "longitude": "-48.74028000"
  },
  {
    "name": "Barra",
    "countryCode": "BR",
    "stateCode": "BA",
    "latitude": "-11.08944000",
    "longitude": "-43.14167000"
  },
  {
    "name": "Barra Bonita",
    "countryCode": "BR",
    "stateCode": "SC",
    "latitude": "-26.68537000",
    "longitude": "-53.41393000"
  },
  {
    "name": "Barra Bonita",
    "countryCode": "BR",
    "stateCode": "SP",
    "latitude": "-22.49472000",
    "longitude": "-48.55806000"
  },
  {
    "name": "Barra Funda",
    "countryCode": "BR",
    "stateCode": "RS",
    "latitude": "-27.91562000",
    "longitude": "-53.03286000"
  },
  {
    "name": "Barra Longa",
    "countryCode": "BR",
    "stateCode": "MG",
    "latitude": "-20.27861000",
    "longitude": "-43.07170000"
  },
  {
    "name": "Barra Mansa",
    "countryCode": "BR",
    "stateCode": "RJ",
    "latitude": "-22.54417000",
    "longitude": "-44.17139000"
  },
  {
    "name": "Barra Velha",
    "countryCode": "BR",
    "stateCode": "SC",
    "latitude": "-26.63222000",
    "longitude": "-48.68472000"
  },
  {
    "name": "Barra d'Alcântara",
    "countryCode": "BR",
    "stateCode": "PI",
    "latitude": "-6.54095000",
    "longitude": "-42.11504000"
  },
  {
    "name": "Barra da Estiva",
    "countryCode": "BR",
    "stateCode": "BA",
    "latitude": "-13.62611000",
    "longitude": "-41.32694000"
  },
  {
    "name": "Barra de Guabiraba",
    "countryCode": "BR",
    "stateCode": "PE",
    "latitude": "-8.39450000",
    "longitude": "-35.62054000"
  },
  {
    "name": "Barra de Santa Rosa",
    "countryCode": "BR",
    "stateCode": "PB",
    "latitude": "-6.79042000",
    "longitude": "-36.00175000"
  },
  {
    "name": "Barra de Santana",
    "countryCode": "BR",
    "stateCode": "PB",
    "latitude": "-7.59054000",
    "longitude": "-35.98824000"
  },
  {
    "name": "Barra de Santo Antônio",
    "countryCode": "BR",
    "stateCode": "AL",
    "latitude": "-9.40472000",
    "longitude": "-35.50722000"
  },
  {
    "name": "Barra de São Francisco",
    "countryCode": "BR",
    "stateCode": "ES",
    "latitude": "-18.75500000",
    "longitude": "-40.89083000"
  },
  {
    "name": "Barra de São Miguel",
    "countryCode": "BR",
    "stateCode": "AL",
    "latitude": "-9.81230000",
    "longitude": "-35.96087000"
  },
  {
    "name": "Barra de São Miguel",
    "countryCode": "BR",
    "stateCode": "PB",
    "latitude": "-7.71640000",
    "longitude": "-36.25481000"
  },
  {
    "name": "Barra do Bugres",
    "countryCode": "BR",
    "stateCode": "MT",
    "latitude": "-15.07250000",
    "longitude": "-57.18111000"
  },
  {
    "name": "Barra do Chapéu",
    "countryCode": "BR",
    "stateCode": "SP",
    "latitude": "-24.44047000",
    "longitude": "-49.08615000"
  },
  {
    "name": "Barra do Choça",
    "countryCode": "BR",
    "stateCode": "BA",
    "latitude": "-15.01024000",
    "longitude": "-40.66731000"
  },
  {
    "name": "Barra do Corda",
    "countryCode": "BR",
    "stateCode": "MA",
    "latitude": "-5.50556000",
    "longitude": "-45.24333000"
  },
  {
    "name": "Barra do Garças",
    "countryCode": "BR",
    "stateCode": "MT",
    "latitude": "-15.89000000",
    "longitude": "-52.25667000"
  },
  {
    "name": "Barra do Guarita",
    "countryCode": "BR",
    "stateCode": "RS",
    "latitude": "-27.21739000",
    "longitude": "-53.76461000"
  },
  {
    "name": "Barra do Jacaré",
    "countryCode": "BR",
    "stateCode": "PR",
    "latitude": "-23.11066000",
    "longitude": "-50.15719000"
  },
  {
    "name": "Barra do Mendes",
    "countryCode": "BR",
    "stateCode": "BA",
    "latitude": "-12.16094000",
    "longitude": "-42.03542000"
  },
  {
    "name": "Barra do Ouro",
    "countryCode": "BR",
    "stateCode": "TO",
    "latitude": "-7.75845000",
    "longitude": "-47.58781000"
  },
  {
    "name": "Barra do Piraí",
    "countryCode": "BR",
    "stateCode": "RJ",
    "latitude": "-22.47000000",
    "longitude": "-43.82556000"
  },
  {
    "name": "Barra do Quaraí",
    "countryCode": "BR",
    "stateCode": "RS",
    "latitude": "-30.17445000",
    "longitude": "-57.31007000"
  },
  {
    "name": "Barra do Ribeiro",
    "countryCode": "BR",
    "stateCode": "RS",
    "latitude": "-30.34435000",
    "longitude": "-51.36125000"
  },
  {
    "name": "Barra do Rio Azul",
    "countryCode": "BR",
    "stateCode": "RS",
    "latitude": "-27.39848000",
    "longitude": "-52.40887000"
  },
  {
    "name": "Barra do Rocha",
    "countryCode": "BR",
    "stateCode": "BA",
    "latitude": "-14.07510000",
    "longitude": "-39.59068000"
  },
  {
    "name": "Barra do Turvo",
    "countryCode": "BR",
    "stateCode": "SP",
    "latitude": "-24.89045000",
    "longitude": "-48.40790000"
  },
  {
    "name": "Barra dos Coqueiros",
    "countryCode": "BR",
    "stateCode": "SE",
    "latitude": "-10.90889000",
    "longitude": "-37.03861000"
  },
  {
    "name": "Barracão",
    "countryCode": "BR",
    "stateCode": "PR",
    "latitude": "-26.24009000",
    "longitude": "-53.52586000"
  },
  {
    "name": "Barracão",
    "countryCode": "BR",
    "stateCode": "RS",
    "latitude": "-27.73726000",
    "longitude": "-51.44229000"
  },
  {
    "name": "Barras",
    "countryCode": "BR",
    "stateCode": "PI",
    "latitude": "-4.24444000",
    "longitude": "-42.29444000"
  },
  {
    "name": "Barreira",
    "countryCode": "BR",
    "stateCode": "CE",
    "latitude": "-4.37049000",
    "longitude": "-38.61021000"
  },
  {
    "name": "Barreiras",
    "countryCode": "BR",
    "stateCode": "BA",
    "latitude": "-12.15278000",
    "longitude": "-44.99000000"
  },
  {
    "name": "Barreiras do Piauí",
    "countryCode": "BR",
    "stateCode": "PI",
    "latitude": "-9.99042000",
    "longitude": "-45.69329000"
  },
  {
    "name": "Barreirinha",
    "countryCode": "BR",
    "stateCode": "AM",
    "latitude": "-2.79333000",
    "longitude": "-57.07000000"
  },
  {
    "name": "Barreirinhas",
    "countryCode": "BR",
    "stateCode": "MA",
    "latitude": "-2.75136000",
    "longitude": "-42.83432000"
  },
  {
    "name": "Barreiro do Jaíba",
    "countryCode": "BR",
    "stateCode": "MG",
    "latitude": "-15.61532000",
    "longitude": "-43.59187000"
  },
  {
    "name": "Barreiros",
    "countryCode": "BR",
    "stateCode": "PE",
    "latitude": "-8.81833000",
    "longitude": "-35.18639000"
  },
  {
    "name": "Barretos",
    "countryCode": "BR",
    "stateCode": "SP",
    "latitude": "-20.55722000",
    "longitude": "-48.56778000"
  },
  {
    "name": "Barrinha",
    "countryCode": "BR",
    "stateCode": "SP",
    "latitude": "-21.19361000",
    "longitude": "-48.16389000"
  },
  {
    "name": "Barro",
    "countryCode": "BR",
    "stateCode": "CE",
    "latitude": "-7.13537000",
    "longitude": "-38.73373000"
  },
  {
    "name": "Barro Alto",
    "countryCode": "BR",
    "stateCode": "BA",
    "latitude": "-11.76083000",
    "longitude": "-41.91167000"
  },
  {
    "name": "Barro Alto",
    "countryCode": "BR",
    "stateCode": "GO",
    "latitude": "-14.91276000",
    "longitude": "-48.87739000"
  },
  {
    "name": "Barro Duro",
    "countryCode": "BR",
    "stateCode": "PI",
    "latitude": "-5.85063000",
    "longitude": "-42.45878000"
  },
  {
    "name": "Barro Preto",
    "countryCode": "BR",
    "stateCode": "BA",
    "latitude": "-14.75795000",
    "longitude": "-39.40711000"
  },
  {
    "name": "Barrocas",
    "countryCode": "BR",
    "stateCode": "BA",
    "latitude": "-11.60190000",
    "longitude": "-39.12267000"
  },
  {
    "name": "Barrolândia",
    "countryCode": "BR",
    "stateCode": "TO",
    "latitude": "-9.84999000",
    "longitude": "-48.83437000"
  },
  {
    "name": "Barroquinha",
    "countryCode": "BR",
    "stateCode": "CE",
    "latitude": "-3.01889000",
    "longitude": "-41.13611000"
  },
  {
    "name": "Barros Cassal",
    "countryCode": "BR",
    "stateCode": "RS",
    "latitude": "-29.13534000",
    "longitude": "-52.57508000"
  },
  {
    "name": "Barroso",
    "countryCode": "BR",
    "stateCode": "MG",
    "latitude": "-21.17886000",
    "longitude": "-43.95708000"
  },
  {
    "name": "Barueri",
    "countryCode": "BR",
    "stateCode": "SP",
    "latitude": "-23.51056000",
    "longitude": "-46.87611000"
  },
  {
    "name": "Barão",
    "countryCode": "BR",
    "stateCode": "RS",
    "latitude": "-29.39636000",
    "longitude": "-51.54620000"
  },
  {
    "name": "Barão de Antonina",
    "countryCode": "BR",
    "stateCode": "SP",
    "latitude": "-23.57097000",
    "longitude": "-49.56660000"
  },
  {
    "name": "Barão de Cocais",
    "countryCode": "BR",
    "stateCode": "MG",
    "latitude": "-19.87980000",
    "longitude": "-43.49476000"
  },
  {
    "name": "Barão de Cotegipe",
    "countryCode": "BR",
    "stateCode": "RS",
    "latitude": "-27.55108000",
    "longitude": "-52.44751000"
  },
  {
    "name": "Barão de Grajaú",
    "countryCode": "BR",
    "stateCode": "MA",
    "latitude": "-6.62978000",
    "longitude": "-43.20317000"
  },
  {
    "name": "Barão de Melgaço",
    "countryCode": "BR",
    "stateCode": "MT",
    "latitude": "-16.19444000",
    "longitude": "-55.96750000"
  },
  {
    "name": "Barão de Monte Alto",
    "countryCode": "BR",
    "stateCode": "MG",
    "latitude": "-21.26536000",
    "longitude": "-42.27886000"
  },
  {
    "name": "Barão do Triunfo",
    "countryCode": "BR",
    "stateCode": "RS",
    "latitude": "-30.39257000",
    "longitude": "-51.79493000"
  },
  {
    "name": "Bastos",
    "countryCode": "BR",
    "stateCode": "SP",
    "latitude": "-21.92194000",
    "longitude": "-50.73389000"
  },
  {
    "name": "Bataguassu",
    "countryCode": "BR",
    "stateCode": "MS",
    "latitude": "-21.78550000",
    "longitude": "-52.56542000"
  },
  {
    "name": "Bataiporã",
    "countryCode": "BR",
    "stateCode": "MS",
    "latitude": "-22.29528000",
    "longitude": "-53.27111000"
  },
  {
    "name": "Batalha",
    "countryCode": "BR",
    "stateCode": "AL",
    "latitude": "-9.73256000",
    "longitude": "-37.08877000"
  },
  {
    "name": "Batalha",
    "countryCode": "BR",
    "stateCode": "PI",
    "latitude": "-3.99736000",
    "longitude": "-42.10645000"
  },
  {
    "name": "Batatais",
    "countryCode": "BR",
    "stateCode": "SP",
    "latitude": "-20.83515000",
    "longitude": "-47.56742000"
  },
  {
    "name": "Batayporã",
    "countryCode": "BR",
    "stateCode": "MS",
    "latitude": "-22.46496000",
    "longitude": "-53.17683000"
  },
  {
    "name": "Baturité",
    "countryCode": "BR",
    "stateCode": "CE",
    "latitude": "-4.37308000",
    "longitude": "-38.85915000"
  },
  {
    "name": "Bauru",
    "countryCode": "BR",
    "stateCode": "SP",
    "latitude": "-22.31472000",
    "longitude": "-49.06056000"
  },
  {
    "name": "Bayeux",
    "countryCode": "BR",
    "stateCode": "PB",
    "latitude": "-7.12136000",
    "longitude": "-34.91725000"
  },
  {
    "name": "Baía Formosa",
    "countryCode": "BR",
    "stateCode": "RN",
    "latitude": "-6.43006000",
    "longitude": "-35.05050000"
  },
  {
    "name": "Baía da Traição",
    "countryCode": "BR",
    "stateCode": "PB",
    "latitude": "-6.66287000",
    "longitude": "-34.97272000"
  },
  {
    "name": "Bebedouro",
    "countryCode": "BR",
    "stateCode": "SP",
    "latitude": "-20.94944000",
    "longitude": "-48.47917000"
  },
  {
    "name": "Beberibe",
    "countryCode": "BR",
    "stateCode": "CE",
    "latitude": "-4.17972000",
    "longitude": "-38.13056000"
  },
  {
    "name": "Beira Rio",
    "countryCode": "BR",
    "stateCode": "BA",
    "latitude": "-12.25438000",
    "longitude": "-42.75529000"
  },
  {
    "name": "Bela Cruz",
    "countryCode": "BR",
    "stateCode": "CE",
    "latitude": "-3.05056000",
    "longitude": "-40.16778000"
  },
  {
    "name": "Bela Vista",
    "countryCode": "BR",
    "stateCode": "MS",
    "latitude": "-22.10889000",
    "longitude": "-56.52111000"
  },
  {
    "name": "Bela Vista da Caroba",
    "countryCode": "BR",
    "stateCode": "PR",
    "latitude": "-25.87398000",
    "longitude": "-53.62755000"
  },
  {
    "name": "Bela Vista de Goiás",
    "countryCode": "BR",
    "stateCode": "GO",
    "latitude": "-16.97278000",
    "longitude": "-48.95333000"
  },
  {
    "name": "Bela Vista de Minas",
    "countryCode": "BR",
    "stateCode": "MG",
    "latitude": "-19.80136000",
    "longitude": "-43.10273000"
  },
  {
    "name": "Bela Vista do Maranhão",
    "countryCode": "BR",
    "stateCode": "MA",
    "latitude": "-3.79140000",
    "longitude": "-45.29546000"
  },
  {
    "name": "Bela Vista do Paraíso",
    "countryCode": "BR",
    "stateCode": "PR",
    "latitude": "-22.99667000",
    "longitude": "-51.19056000"
  },
  {
    "name": "Bela Vista do Piauí",
    "countryCode": "BR",
    "stateCode": "PI",
    "latitude": "-7.91606000",
    "longitude": "-41.90091000"
  },
  {
    "name": "Bela Vista do Toldo",
    "countryCode": "BR",
    "stateCode": "SC",
    "latitude": "-26.45944000",
    "longitude": "-50.51061000"
  },
  {
    "name": "Belford Roxo",
    "countryCode": "BR",
    "stateCode": "RJ",
    "latitude": "-22.76417000",
    "longitude": "-43.39944000"
  },
  {
    "name": "Belmiro Braga",
    "countryCode": "BR",
    "stateCode": "MG",
    "latitude": "-21.96440000",
    "longitude": "-43.45933000"
  },
  {
    "name": "Belmonte",
    "countryCode": "BR",
    "stateCode": "BA",
    "latitude": "-15.86126000",
    "longitude": "-38.87982000"
  },
  {
    "name": "Belmonte",
    "countryCode": "BR",
    "stateCode": "SC",
    "latitude": "-26.85317000",
    "longitude": "-53.61399000"
  },
  {
    "name": "Belo Campo",
    "countryCode": "BR",
    "stateCode": "BA",
    "latitude": "-14.87419000",
    "longitude": "-41.22671000"
  },
  {
    "name": "Belo Horizonte",
    "countryCode": "BR",
    "stateCode": "MG",
    "latitude": "-19.92083000",
    "longitude": "-43.93778000"
  },
  {
    "name": "Belo Jardim",
    "countryCode": "BR",
    "stateCode": "PE",
    "latitude": "-8.33556000",
    "longitude": "-36.42417000"
  },
  {
    "name": "Belo Monte",
    "countryCode": "BR",
    "stateCode": "AL",
    "latitude": "-9.80521000",
    "longitude": "-37.19157000"
  },
  {
    "name": "Belo Oriente",
    "countryCode": "BR",
    "stateCode": "MG",
    "latitude": "-19.25558000",
    "longitude": "-42.44289000"
  },
  {
    "name": "Belo Vale",
    "countryCode": "BR",
    "stateCode": "MG",
    "latitude": "-20.41584000",
    "longitude": "-44.06470000"
  },
  {
    "name": "Belterra",
    "countryCode": "BR",
    "stateCode": "PA",
    "latitude": "-3.01258000",
    "longitude": "-54.99128000"
  },
  {
    "name": "Belágua",
    "countryCode": "BR",
    "stateCode": "MA",
    "latitude": "-3.08799000",
    "longitude": "-43.45673000"
  },
  {
    "name": "Belém",
    "countryCode": "BR",
    "stateCode": "AL",
    "latitude": "-9.54424000",
    "longitude": "-36.50196000"
  },
  {
    "name": "Belém",
    "countryCode": "BR",
    "stateCode": "PA",
    "latitude": "-1.45583000",
    "longitude": "-48.50444000"
  },
  {
    "name": "Belém",
    "countryCode": "BR",
    "stateCode": "PB",
    "latitude": "-6.69167000",
    "longitude": "-35.53333000"
  },
  {
    "name": "Belém de Maria",
    "countryCode": "BR",
    "stateCode": "PE",
    "latitude": "-8.57849000",
    "longitude": "-35.82495000"
  },
  {
    "name": "Belém de São Francisco",
    "countryCode": "BR",
    "stateCode": "PE",
    "latitude": "-8.75389000",
    "longitude": "-38.96583000"
  },
  {
    "name": "Belém do Brejo do Cruz",
    "countryCode": "BR",
    "stateCode": "PB",
    "latitude": "-6.18861000",
    "longitude": "-37.53583000"
  },
  {
    "name": "Belém do Piauí",
    "countryCode": "BR",
    "stateCode": "PI",
    "latitude": "-7.40657000",
    "longitude": "-40.98873000"
  },
  {
    "name": "Belém do São Francisco",
    "countryCode": "BR",
    "stateCode": "PE",
    "latitude": "-8.53386000",
    "longitude": "-38.98166000"
  },
  {
    "name": "Beneditinos",
    "countryCode": "BR",
    "stateCode": "PI",
    "latitude": "-5.45000000",
    "longitude": "-42.36667000"
  },
  {
    "name": "Benedito Leite",
    "countryCode": "BR",
    "stateCode": "MA",
    "latitude": "-7.10697000",
    "longitude": "-44.58763000"
  },
  {
    "name": "Benedito Novo",
    "countryCode": "BR",
    "stateCode": "SC",
    "latitude": "-26.78592000",
    "longitude": "-49.43603000"
  },
  {
    "name": "Benevides",
    "countryCode": "BR",
    "stateCode": "PA",
    "latitude": "-1.36139000",
    "longitude": "-48.24472000"
  },
  {
    "name": "Benjamin Constant",
    "countryCode": "BR",
    "stateCode": "AM",
    "latitude": "-4.37555000",
    "longitude": "-70.03179000"
  },
  {
    "name": "Benjamin Constant do Sul",
    "countryCode": "BR",
    "stateCode": "RS",
    "latitude": "-27.48726000",
    "longitude": "-52.65470000"
  },
  {
    "name": "Bento Fernandes",
    "countryCode": "BR",
    "stateCode": "RN",
    "latitude": "-5.63426000",
    "longitude": "-35.81702000"
  },
  {
    "name": "Bento Gonçalves",
    "countryCode": "BR",
    "stateCode": "RS",
    "latitude": "-29.09958000",
    "longitude": "-51.54344000"
  },
  {
    "name": "Bento de Abreu",
    "countryCode": "BR",
    "stateCode": "SP",
    "latitude": "-21.34057000",
    "longitude": "-50.86542000"
  },
  {
    "name": "Bequimão",
    "countryCode": "BR",
    "stateCode": "MA",
    "latitude": "-2.44889000",
    "longitude": "-44.78250000"
  },
  {
    "name": "Berilo",
    "countryCode": "BR",
    "stateCode": "MG",
    "latitude": "-16.86340000",
    "longitude": "-42.48889000"
  },
  {
    "name": "Berizal",
    "countryCode": "BR",
    "stateCode": "MG",
    "latitude": "-15.67761000",
    "longitude": "-41.77137000"
  },
  {
    "name": "Bernardino Batista",
    "countryCode": "BR",
    "stateCode": "PB",
    "latitude": "-6.47656000",
    "longitude": "-38.56998000"
  },
  {
    "name": "Bernardino de Campos",
    "countryCode": "BR",
    "stateCode": "SP",
    "latitude": "-23.02698000",
    "longitude": "-49.49277000"
  },
  {
    "name": "Bernardo Sayão",
    "countryCode": "BR",
    "stateCode": "TO",
    "latitude": "-7.97377000",
    "longitude": "-48.98609000"
  },
  {
    "name": "Bernardo do Mearim",
    "countryCode": "BR",
    "stateCode": "MA",
    "latitude": "-4.67175000",
    "longitude": "-44.64279000"
  },
  {
    "name": "Bertioga",
    "countryCode": "BR",
    "stateCode": "SP",
    "latitude": "-23.85444000",
    "longitude": "-46.13861000"
  },
  {
    "name": "Bertolínia",
    "countryCode": "BR",
    "stateCode": "PI",
    "latitude": "-7.75477000",
    "longitude": "-43.79588000"
  },
  {
    "name": "Bertópolis",
    "countryCode": "BR",
    "stateCode": "MG",
    "latitude": "-16.95442000",
    "longitude": "-40.56435000"
  },
  {
    "name": "Beruri",
    "countryCode": "BR",
    "stateCode": "AM",
    "latitude": "-4.34371000",
    "longitude": "-61.75126000"
  },
  {
    "name": "Betim",
    "countryCode": "BR",
    "stateCode": "MG",
    "latitude": "-19.96778000",
    "longitude": "-44.19833000"
  },
  {
    "name": "Betânia",
    "countryCode": "BR",
    "stateCode": "PE",
    "latitude": "-8.28789000",
    "longitude": "-37.97622000"
  },
  {
    "name": "Betânia do Piauí",
    "countryCode": "BR",
    "stateCode": "PI",
    "latitude": "-8.06430000",
    "longitude": "-40.85924000"
  },
  {
    "name": "Bezerros",
    "countryCode": "BR",
    "stateCode": "PE",
    "latitude": "-8.23333000",
    "longitude": "-35.79694000"
  },
  {
    "name": "Bias Fortes",
    "countryCode": "BR",
    "stateCode": "MG",
    "latitude": "-21.63008000",
    "longitude": "-43.75508000"
  },
  {
    "name": "Bicas",
    "countryCode": "BR",
    "stateCode": "MG",
    "latitude": "-21.73237000",
    "longitude": "-43.10454000"
  },
  {
    "name": "Biguaçu",
    "countryCode": "BR",
    "stateCode": "SC",
    "latitude": "-27.49417000",
    "longitude": "-48.65556000"
  },
  {
    "name": "Bilac",
    "countryCode": "BR",
    "stateCode": "SP",
    "latitude": "-21.42076000",
    "longitude": "-50.47862000"
  },
  {
    "name": "Biquinhas",
    "countryCode": "BR",
    "stateCode": "MG",
    "latitude": "-18.76231000",
    "longitude": "-45.54853000"
  },
  {
    "name": "Birigui",
    "countryCode": "BR",
    "stateCode": "SP",
    "latitude": "-21.28861000",
    "longitude": "-50.34000000"
  },
  {
    "name": "Biritiba Mirim",
    "countryCode": "BR",
    "stateCode": "SP",
    "latitude": "-23.57250000",
    "longitude": "-46.03861000"
  },
  {
    "name": "Biritiba-Mirim",
    "countryCode": "BR",
    "stateCode": "SP",
    "latitude": "-23.62009000",
    "longitude": "-46.01938000"
  },
  {
    "name": "Biritinga",
    "countryCode": "BR",
    "stateCode": "BA",
    "latitude": "-11.67075000",
    "longitude": "-38.78931000"
  },
  {
    "name": "Bituruna",
    "countryCode": "BR",
    "stateCode": "PR",
    "latitude": "-26.18538000",
    "longitude": "-51.54497000"
  },
  {
    "name": "Blumenau",
    "countryCode": "BR",
    "stateCode": "SC",
    "latitude": "-26.91944000",
    "longitude": "-49.06611000"
  },
  {
    "name": "Boa Esperança",
    "countryCode": "BR",
    "stateCode": "ES",
    "latitude": "-18.54000000",
    "longitude": "-40.29583000"
  },
  {
    "name": "Boa Esperança",
    "countryCode": "BR",
    "stateCode": "MG",
    "latitude": "-21.08132000",
    "longitude": "-45.62433000"
  },
  {
    "name": "Boa Esperança",
    "countryCode": "BR",
    "stateCode": "PR",
    "latitude": "-24.24372000",
    "longitude": "-52.73574000"
  },
  {
    "name": "Boa Esperança do Iguaçu",
    "countryCode": "BR",
    "stateCode": "PR",
    "latitude": "-25.63520000",
    "longitude": "-53.22621000"
  },
  {
    "name": "Boa Esperança do Sul",
    "countryCode": "BR",
    "stateCode": "SP",
    "latitude": "-21.99250000",
    "longitude": "-48.39083000"
  },
  {
    "name": "Boa Hora",
    "countryCode": "BR",
    "stateCode": "PI",
    "latitude": "-4.35576000",
    "longitude": "-42.14109000"
  },
  {
    "name": "Boa Nova",
    "countryCode": "BR",
    "stateCode": "BA",
    "latitude": "-14.36412000",
    "longitude": "-40.22378000"
  },
  {
    "name": "Boa Ventura",
    "countryCode": "BR",
    "stateCode": "PB",
    "latitude": "-7.45676000",
    "longitude": "-38.17678000"
  },
  {
    "name": "Boa Ventura de São Roque",
    "countryCode": "BR",
    "stateCode": "PR",
    "latitude": "-24.84082000",
    "longitude": "-51.55638000"
  },
  {
    "name": "Boa Viagem",
    "countryCode": "BR",
    "stateCode": "CE",
    "latitude": "-5.02536000",
    "longitude": "-39.84169000"
  },
  {
    "name": "Boa Vista",
    "countryCode": "BR",
    "stateCode": "PB",
    "latitude": "-7.26995000",
    "longitude": "-36.15741000"
  },
  {
    "name": "Boa Vista",
    "countryCode": "BR",
    "stateCode": "RR",
    "latitude": "2.82000000",
    "longitude": "-60.67194444"
  },
  {
    "name": "Boa Vista da Aparecida",
    "countryCode": "BR",
    "stateCode": "PR",
    "latitude": "-25.43709000",
    "longitude": "-53.41293000"
  },
  {
    "name": "Boa Vista das Missões",
    "countryCode": "BR",
    "stateCode": "RS",
    "latitude": "-27.69239000",
    "longitude": "-53.35253000"
  },
  {
    "name": "Boa Vista do Buricá",
    "countryCode": "BR",
    "stateCode": "RS",
    "latitude": "-27.68021000",
    "longitude": "-54.10928000"
  },
  {
    "name": "Boa Vista do Cadeado",
    "countryCode": "BR",
    "stateCode": "RS",
    "latitude": "-28.62211000",
    "longitude": "-53.81616000"
  },
  {
    "name": "Boa Vista do Gurupi",
    "countryCode": "BR",
    "stateCode": "MA",
    "latitude": "-1.73082000",
    "longitude": "-46.19635000"
  },
  {
    "name": "Boa Vista do Incra",
    "countryCode": "BR",
    "stateCode": "RS",
    "latitude": "-28.84193000",
    "longitude": "-53.45649000"
  },
  {
    "name": "Boa Vista do Ramos",
    "countryCode": "BR",
    "stateCode": "AM",
    "latitude": "-3.15779000",
    "longitude": "-57.90517000"
  },
  {
    "name": "Boa Vista do Sul",
    "countryCode": "BR",
    "stateCode": "RS",
    "latitude": "-29.34197000",
    "longitude": "-51.68079000"
  },
  {
    "name": "Boa Vista do Tupim",
    "countryCode": "BR",
    "stateCode": "BA",
    "latitude": "-12.87313000",
    "longitude": "-40.62823000"
  },
  {
    "name": "Boca da Mata",
    "countryCode": "BR",
    "stateCode": "AL",
    "latitude": "-9.64651000",
    "longitude": "-36.14134000"
  },
  {
    "name": "Boca do Acre",
    "countryCode": "BR",
    "stateCode": "AM",
    "latitude": "-8.75222000",
    "longitude": "-67.39778000"
  },
  {
    "name": "Bocaina",
    "countryCode": "BR",
    "stateCode": "PI",
    "latitude": "-6.89508000",
    "longitude": "-41.32746000"
  },
  {
    "name": "Bocaina",
    "countryCode": "BR",
    "stateCode": "SP",
    "latitude": "-22.09830000",
    "longitude": "-48.51952000"
  },
  {
    "name": "Bocaina de Minas",
    "countryCode": "BR",
    "stateCode": "MG",
    "latitude": "-22.23436000",
    "longitude": "-44.49342000"
  },
  {
    "name": "Bocaina do Sul",
    "countryCode": "BR",
    "stateCode": "SC",
    "latitude": "-27.73891000",
    "longitude": "-49.91707000"
  },
  {
    "name": "Bocaiúva",
    "countryCode": "BR",
    "stateCode": "MG",
    "latitude": "-17.38916000",
    "longitude": "-43.83571000"
  },
  {
    "name": "Bocaiúva do Sul",
    "countryCode": "BR",
    "stateCode": "PR",
    "latitude": "-25.10040000",
    "longitude": "-48.87116000"
  },
  {
    "name": "Bodocó",
    "countryCode": "BR",
    "stateCode": "PE",
    "latitude": "-7.78881000",
    "longitude": "-39.95255000"
  },
  {
    "name": "Bodoquena",
    "countryCode": "BR",
    "stateCode": "MS",
    "latitude": "-20.48226000",
    "longitude": "-56.65893000"
  },
  {
    "name": "Bodó",
    "countryCode": "BR",
    "stateCode": "RN",
    "latitude": "-5.93390000",
    "longitude": "-36.39716000"
  },
  {
    "name": "Bofete",
    "countryCode": "BR",
    "stateCode": "SP",
    "latitude": "-23.12244000",
    "longitude": "-48.28058000"
  },
  {
    "name": "Boituva",
    "countryCode": "BR",
    "stateCode": "SP",
    "latitude": "-23.28333000",
    "longitude": "-47.67222000"
  },
  {
    "name": "Bom Conselho",
    "countryCode": "BR",
    "stateCode": "PE",
    "latitude": "-9.16972000",
    "longitude": "-36.67972000"
  },
  {
    "name": "Bom Despacho",
    "countryCode": "BR",
    "stateCode": "MG",
    "latitude": "-19.69145000",
    "longitude": "-45.25297000"
  },
  {
    "name": "Bom Jardim",
    "countryCode": "BR",
    "stateCode": "MA",
    "latitude": "-3.77409000",
    "longitude": "-46.21707000"
  },
  {
    "name": "Bom Jardim",
    "countryCode": "BR",
    "stateCode": "PE",
    "latitude": "-7.79583000",
    "longitude": "-35.58722000"
  },
  {
    "name": "Bom Jardim",
    "countryCode": "BR",
    "stateCode": "RJ",
    "latitude": "-22.17871000",
    "longitude": "-42.33515000"
  },
  {
    "name": "Bom Jardim da Serra",
    "countryCode": "BR",
    "stateCode": "SC",
    "latitude": "-28.36743000",
    "longitude": "-49.64216000"
  },
  {
    "name": "Bom Jardim de Goiás",
    "countryCode": "BR",
    "stateCode": "GO",
    "latitude": "-16.27033000",
    "longitude": "-52.05682000"
  },
  {
    "name": "Bom Jardim de Minas",
    "countryCode": "BR",
    "stateCode": "MG",
    "latitude": "-21.94390000",
    "longitude": "-44.12193000"
  },
  {
    "name": "Bom Jesus",
    "countryCode": "BR",
    "stateCode": "PB",
    "latitude": "-6.81845000",
    "longitude": "-38.62549000"
  },
  {
    "name": "Bom Jesus",
    "countryCode": "BR",
    "stateCode": "PI",
    "latitude": "-9.07444000",
    "longitude": "-44.35861000"
  },
  {
    "name": "Bom Jesus",
    "countryCode": "BR",
    "stateCode": "RN",
    "latitude": "-6.00882000",
    "longitude": "-35.58384000"
  },
  {
    "name": "Bom Jesus",
    "countryCode": "BR",
    "stateCode": "RS",
    "latitude": "-28.59981000",
    "longitude": "-50.46197000"
  },
  {
    "name": "Bom Jesus",
    "countryCode": "BR",
    "stateCode": "SC",
    "latitude": "-26.74082000",
    "longitude": "-52.39184000"
  },
  {
    "name": "Bom Jesus da Lapa",
    "countryCode": "BR",
    "stateCode": "BA",
    "latitude": "-13.25500000",
    "longitude": "-43.41806000"
  },
  {
    "name": "Bom Jesus da Penha",
    "countryCode": "BR",
    "stateCode": "MG",
    "latitude": "-20.99902000",
    "longitude": "-46.54769000"
  },
  {
    "name": "Bom Jesus da Serra",
    "countryCode": "BR",
    "stateCode": "BA",
    "latitude": "-14.38380000",
    "longitude": "-40.53982000"
  },
  {
    "name": "Bom Jesus das Selvas",
    "countryCode": "BR",
    "stateCode": "MA",
    "latitude": "-4.51333000",
    "longitude": "-46.60686000"
  },
  {
    "name": "Bom Jesus de Goiás",
    "countryCode": "BR",
    "stateCode": "GO",
    "latitude": "-18.19213000",
    "longitude": "-49.89536000"
  },
  {
    "name": "Bom Jesus do Amparo",
    "countryCode": "BR",
    "stateCode": "MG",
    "latitude": "-19.71668000",
    "longitude": "-43.46840000"
  },
  {
    "name": "Bom Jesus do Araguaia",
    "countryCode": "BR",
    "stateCode": "MT",
    "latitude": "-12.27879000",
    "longitude": "-51.75156000"
  },
  {
    "name": "Bom Jesus do Galho",
    "countryCode": "BR",
    "stateCode": "MG",
    "latitude": "-19.71687000",
    "longitude": "-42.37558000"
  },
  {
    "name": "Bom Jesus do Itabapoana",
    "countryCode": "BR",
    "stateCode": "RJ",
    "latitude": "-21.13389000",
    "longitude": "-41.67972000"
  },
  {
    "name": "Bom Jesus do Norte",
    "countryCode": "BR",
    "stateCode": "ES",
    "latitude": "-21.08831000",
    "longitude": "-41.63939000"
  },
  {
    "name": "Bom Jesus do Oeste",
    "countryCode": "BR",
    "stateCode": "SC",
    "latitude": "-26.69047000",
    "longitude": "-53.09669000"
  },
  {
    "name": "Bom Jesus do Sul",
    "countryCode": "BR",
    "stateCode": "PR",
    "latitude": "-26.15280000",
    "longitude": "-53.54963000"
  },
  {
    "name": "Bom Jesus do Tocantins",
    "countryCode": "BR",
    "stateCode": "PA",
    "latitude": "-4.99184000",
    "longitude": "-48.82370000"
  },
  {
    "name": "Bom Jesus do Tocantins",
    "countryCode": "BR",
    "stateCode": "TO",
    "latitude": "-9.01838000",
    "longitude": "-47.86969000"
  },
  {
    "name": "Bom Jesus dos Perdões",
    "countryCode": "BR",
    "stateCode": "SP",
    "latitude": "-23.13500000",
    "longitude": "-46.46528000"
  },
  {
    "name": "Bom Lugar",
    "countryCode": "BR",
    "stateCode": "MA",
    "latitude": "-4.34667000",
    "longitude": "-45.02098000"
  },
  {
    "name": "Bom Princípio",
    "countryCode": "BR",
    "stateCode": "RS",
    "latitude": "-29.46171000",
    "longitude": "-51.36405000"
  },
  {
    "name": "Bom Princípio do Piauí",
    "countryCode": "BR",
    "stateCode": "PI",
    "latitude": "-3.23751000",
    "longitude": "-41.64572000"
  },
  {
    "name": "Bom Progresso",
    "countryCode": "BR",
    "stateCode": "RS",
    "latitude": "-27.54223000",
    "longitude": "-53.82889000"
  },
  {
    "name": "Bom Repouso",
    "countryCode": "BR",
    "stateCode": "MG",
    "latitude": "-22.44963000",
    "longitude": "-46.18632000"
  },
  {
    "name": "Bom Retiro",
    "countryCode": "BR",
    "stateCode": "SC",
    "latitude": "-27.76046000",
    "longitude": "-49.61964000"
  },
  {
    "name": "Bom Retiro do Sul",
    "countryCode": "BR",
    "stateCode": "RS",
    "latitude": "-29.63558000",
    "longitude": "-51.91097000"
  },
  {
    "name": "Bom Sucesso",
    "countryCode": "BR",
    "stateCode": "MG",
    "latitude": "-21.03029000",
    "longitude": "-44.79501000"
  },
  {
    "name": "Bom Sucesso",
    "countryCode": "BR",
    "stateCode": "PB",
    "latitude": "-6.47349000",
    "longitude": "-37.95770000"
  },
  {
    "name": "Bom Sucesso",
    "countryCode": "BR",
    "stateCode": "PR",
    "latitude": "-23.69506000",
    "longitude": "-51.81945000"
  },
  {
    "name": "Bom Sucesso de Itararé",
    "countryCode": "BR",
    "stateCode": "SP",
    "latitude": "-24.31225000",
    "longitude": "-49.16700000"
  },