[
  {
    "name": "Abraham’s Bay",
    "countryCode": "BS",
    "stateCode": "MG",
    "latitude": "22.36667000",
    "longitude": "-72.96667000"
  },
  {
    "name": "Alice Town",
    "countryCode": "BS",
    "stateCode": "BI",
    "latitude": "25.72800000",
    "longitude": "-79.29721000"
  },
  {
    "name": "Andros Town",
    "countryCode": "BS",
    "stateCode": "NS",
    "latitude": "24.70502000",
    "longitude": "-77.76912000"
  },
  {
    "name": "Arthur’s Town",
    "countryCode": "BS",
    "stateCode": "CI",
    "latitude": "24.62240000",
    "longitude": "-75.67151000"
  },
  {
    "name": "Clarence Town",
    "countryCode": "BS",
    "stateCode": "LI",
    "latitude": "23.10000000",
    "longitude": "-74.98333000"
  },
  {
    "name": "Cockburn Town",
    "countryCode": "BS",
    "stateCode": "SS",
    "latitude": "24.05179000",
    "longitude": "-74.53138000"
  },
  {
    "name": "Colonel Hill",
    "countryCode": "BS",
    "stateCode": "CK",
    "latitude": "22.75450000",
    "longitude": "-74.20415000"
  },
  {
    "name": "Cooper’s Town",
    "countryCode": "BS",
    "stateCode": "NO",
    "latitude": "26.87137000",
    "longitude": "-77.51131000"
  },
  {
    "name": "Duncan Town",
    "countryCode": "BS",
    "stateCode": "RI",
    "latitude": "22.19083000",
    "longitude": "-75.72583000"
  },
  {
    "name": "Dunmore Town",
    "countryCode": "BS",
    "stateCode": "HI",
    "latitude": "25.50216000",
    "longitude": "-76.63633000"
  },
  {
    "name": "Freeport",
    "countryCode": "BS",
    "stateCode": "FP",
    "latitude": "26.53333000",
    "longitude": "-78.70000000"
  },
  {
    "name": "George Town",
    "countryCode": "BS",
    "stateCode": "EX",
    "latitude": "23.51616000",
    "longitude": "-75.78665000"
  },
  {
    "name": "High Rock",
    "countryCode": "BS",
    "stateCode": "EG",
    "latitude": "26.60999000",
    "longitude": "-78.27863000"
  },
  {
    "name": "Lucaya",
    "countryCode": "BS",
    "stateCode": "FP",
    "latitude": "26.53333000",
    "longitude": "-78.66667000"
  },
  {
    "name": "Marsh Harbour",
    "countryCode": "BS",
    "stateCode": "CO",
    "latitude": "26.54124000",
    "longitude": "-77.06360000"
  },
  {
    "name": "Matthew Town",
    "countryCode": "BS",
    "stateCode": "IN",
    "latitude": "20.94982000",
    "longitude": "-73.67346000"
  },
  {
    "name": "Nassau",
    "countryCode": "BS",
    "stateCode": "NP",
    "latitude": "25.06666667",
    "longitude": "-77.33333333"
  },
  {
    "name": "Port Nelson",
    "countryCode": "BS",
    "stateCode": "RC",
    "latitude": "23.64967000",
    "longitude": "-74.84157000"
  },
  {
    "name": "San Andros",
    "countryCode": "BS",
    "stateCode": "NS",
    "latitude": "25.06667000",
    "longitude": "-78.05000000"
  },
  {
    "name": "Spanish Wells",
    "countryCode": "BS",
    "stateCode": "SW",
    "latitude": "25.54717000",
    "longitude": "-76.76405000"
  },
  {
    "name": "West End",
    "countryCode": "BS",
    "stateCode": "WG",
    "latitude": "26.68711000",
    "longitude": "-78.97702000"
  }
]