[
  {
    "name": "Abangares",
    "countryCode": "CR",
    "stateCode": "G",
    "latitude": "10.21667000",
    "longitude": "-85.00000000"
  },
  {
    "name": "Acosta",
    "countryCode": "CR",
    "stateCode": "SJ",
    "latitude": "9.80000000",
    "longitude": "-84.20000000"
  },
  {
    "name": "Alajuela",
    "countryCode": "CR",
    "stateCode": "A",
    "latitude": "10.01625000",
    "longitude": "-84.21163000"
  },
  {
    "name": "Alajuelita",
    "countryCode": "CR",
    "stateCode": "SJ",
    "latitude": "9.90000000",
    "longitude": "-84.10000000"
  },
  {
    "name": "Alvarado",
    "countryCode": "CR",
    "stateCode": "C",
    "latitude": "9.93333000",
    "longitude": "-83.80000000"
  },
  {
    "name": "Aserrí",
    "countryCode": "CR",
    "stateCode": "SJ",
    "latitude": "9.86667000",
    "longitude": "-84.10000000"
  },
  {
    "name": "Atenas",
    "countryCode": "CR",
    "stateCode": "A",
    "latitude": "9.98333000",
    "longitude": "-84.38333000"
  },
  {
    "name": "Bagaces",
    "countryCode": "CR",
    "stateCode": "G",
    "latitude": "10.50000000",
    "longitude": "-85.25000000"
  },
  {
    "name": "Barva",
    "countryCode": "CR",
    "stateCode": "H",
    "latitude": "10.08333000",
    "longitude": "-84.10000000"
  },
  {
    "name": "Batán",
    "countryCode": "CR",
    "stateCode": "L",
    "latitude": "10.08354000",
    "longitude": "-83.33413000"
  },
  {
    "name": "Belén",
    "countryCode": "CR",
    "stateCode": "G",
    "latitude": "10.40789000",
    "longitude": "-85.58836000"
  },
  {
    "name": "Belén",
    "countryCode": "CR",
    "stateCode": "H",
    "latitude": "9.98333000",
    "longitude": "-84.16667000"
  },
  {
    "name": "Bijagua",
    "countryCode": "CR",
    "stateCode": "A",
    "latitude": "10.73279000",
    "longitude": "-85.05676000"
  },
  {
    "name": "Buenos Aires",
    "countryCode": "CR",
    "stateCode": "P",
    "latitude": "9.11667000",
    "longitude": "-83.25000000"
  },
  {
    "name": "Calle Blancos",
    "countryCode": "CR",
    "stateCode": "SJ",
    "latitude": "9.95000000",
    "longitude": "-84.06667000"
  },
  {
    "name": "Canoas",
    "countryCode": "CR",
    "stateCode": "P",
    "latitude": "8.53305000",
    "longitude": "-82.83844000"
  },
  {
    "name": "Carrillo",
    "countryCode": "CR",
    "stateCode": "G",
    "latitude": "10.41667000",
    "longitude": "-85.58333000"
  },
  {
    "name": "Carrillos",
    "countryCode": "CR",
    "stateCode": "A",
    "latitude": "10.02918000",
    "longitude": "-84.27403000"
  },
  {
    "name": "Cartago",
    "countryCode": "CR",
    "stateCode": "C",
    "latitude": "9.86444000",
    "longitude": "-83.91944000"
  },
  {
    "name": "Cañas",
    "countryCode": "CR",
    "stateCode": "G",
    "latitude": "10.48005000",
    "longitude": "-85.11349000"
  },
  {
    "name": "Chacarita",
    "countryCode": "CR",
    "stateCode": "P",
    "latitude": "9.98424000",
    "longitude": "-84.77892000"
  },
  {
    "name": "Ciudad Cortés",
    "countryCode": "CR",
    "stateCode": "P",
    "latitude": "8.95988000",
    "longitude": "-83.52381000"
  },
  {
    "name": "Colima",
    "countryCode": "CR",
    "stateCode": "SJ",
    "latitude": "9.95091000",
    "longitude": "-84.08503000"
  },
  {
    "name": "Colón",
    "countryCode": "CR",
    "stateCode": "SJ",
    "latitude": "9.91491000",
    "longitude": "-84.24170000"
  },
  {
    "name": "Concepción",
    "countryCode": "CR",
    "stateCode": "C",
    "latitude": "9.93333000",
    "longitude": "-84.00000000"
  },
  {
    "name": "Corredor",
    "countryCode": "CR",
    "stateCode": "P",
    "latitude": "8.64002000",
    "longitude": "-82.94600000"
  },
  {
    "name": "Corredores",
    "countryCode": "CR",
    "stateCode": "P",
    "latitude": "8.58333000",
    "longitude": "-82.91667000"
  },
  {
    "name": "Cot",
    "countryCode": "CR",
    "stateCode": "C",
    "latitude": "9.89449000",
    "longitude": "-83.87302000"
  },
  {
    "name": "Coto Brus",
    "countryCode": "CR",
    "stateCode": "P",
    "latitude": "8.88333000",
    "longitude": "-82.96667000"
  },
  {
    "name": "Curridabat",
    "countryCode": "CR",
    "stateCode": "SJ",
    "latitude": "9.91667000",
    "longitude": "-84.03333000"
  },
  {
    "name": "Daniel Flores",
    "countryCode": "CR",
    "stateCode": "SJ",
    "latitude": "9.33554000",
    "longitude": "-83.66940000"
  },
  {
    "name": "Desamparados",
    "countryCode": "CR",
    "stateCode": "A",
    "latitude": "9.94727000",
    "longitude": "-84.50626000"
  },
  {
    "name": "Desamparados",
    "countryCode": "CR",
    "stateCode": "SJ",
    "latitude": "9.90000000",
    "longitude": "-84.06667000"
  },
  {
    "name": "Dota",
    "countryCode": "CR",
    "stateCode": "SJ",
    "latitude": "9.65000000",
    "longitude": "-83.95000000"
  },
  {
    "name": "El Guarco",
    "countryCode": "CR",
    "stateCode": "C",
    "latitude": "9.75000000",
    "longitude": "-83.91667000"
  },
  {
    "name": "Escazú",
    "countryCode": "CR",
    "stateCode": "SJ",
    "latitude": "9.93333000",
    "longitude": "-84.13333000"
  },
  {
    "name": "Esparza",
    "countryCode": "CR",
    "stateCode": "P",
    "latitude": "10.00000000",
    "longitude": "-84.66667000"
  },
  {
    "name": "Esquipulas",
    "countryCode": "CR",
    "stateCode": "A",
    "latitude": "10.05676000",
    "longitude": "-84.42337000"
  },
  {
    "name": "Flores",
    "countryCode": "CR",
    "stateCode": "H",
    "latitude": "10.00000000",
    "longitude": "-84.15000000"
  },
  {
    "name": "Fortuna",
    "countryCode": "CR",
    "stateCode": "G",
    "latitude": "10.67384000",
    "longitude": "-85.19984000"
  },
  {
    "name": "Garabito",
    "countryCode": "CR",
    "stateCode": "P",
    "latitude": "9.61903000",
    "longitude": "-84.62013000"
  },
  {
    "name": "Goicoechea",
    "countryCode": "CR",
    "stateCode": "SJ",
    "latitude": "9.94848000",
    "longitude": "-84.06365000"
  },
  {
    "name": "Golfito",
    "countryCode": "CR",
    "stateCode": "P",
    "latitude": "8.60000000",
    "longitude": "-83.12000000"
  },
  {
    "name": "Granadilla",
    "countryCode": "CR",
    "stateCode": "SJ",
    "latitude": "9.93491000",
    "longitude": "-84.01688000"
  },
  {
    "name": "Grecia",
    "countryCode": "CR",
    "stateCode": "A",
    "latitude": "10.06892000",
    "longitude": "-84.31458000"
  },
  {
    "name": "Guadalupe",
    "countryCode": "CR",
    "stateCode": "SJ",
    "latitude": "9.94805000",
    "longitude": "-84.05665000"
  },
  {
    "name": "Guatuso",
    "countryCode": "CR",
    "stateCode": "A",
    "latitude": "10.66667000",
    "longitude": "-84.83333000"
  },
  {
    "name": "Guácimo",
    "countryCode": "CR",
    "stateCode": "L",
    "latitude": "10.20000000",
    "longitude": "-83.66667000"
  },
  {
    "name": "Guápiles",
    "countryCode": "CR",
    "stateCode": "L",
    "latitude": "10.21682000",
    "longitude": "-83.78483000"
  },
  {
    "name": "Heredia",
    "countryCode": "CR",
    "stateCode": "H",
    "latitude": "10.00236000",
    "longitude": "-84.11651000"
  },
  {
    "name": "Hojancha",
    "countryCode": "CR",
    "stateCode": "G",
    "latitude": "9.96667000",
    "longitude": "-85.41667000"
  },
  {
    "name": "Ipís",
    "countryCode": "CR",
    "stateCode": "SJ",
    "latitude": "9.96745000",
    "longitude": "-84.01326000"
  },
  {
    "name": "Jacó",
    "countryCode": "CR",
    "stateCode": "P",
    "latitude": "9.61497000",
    "longitude": "-84.62975000"
  },
  {
    "name": "Jiménez",
    "countryCode": "CR",
    "stateCode": "C",
    "latitude": "9.75000000",
    "longitude": "-83.68333000"
  },
  {
    "name": "Juntas",
    "countryCode": "CR",
    "stateCode": "G",
    "latitude": "10.28089000",
    "longitude": "-84.95951000"
  },
  {
    "name": "La Asunción",
    "countryCode": "CR",
    "stateCode": "H",
    "latitude": "9.97961000",
    "longitude": "-84.17281000"
  },
  {
    "name": "La Cruz",
    "countryCode": "CR",
    "stateCode": "G",
    "latitude": "11.00000000",
    "longitude": "-85.58333000"
  },
  {
    "name": "La Fortuna",
    "countryCode": "CR",
    "stateCode": "A",
    "latitude": "10.47089000",
    "longitude": "-84.64535000"
  },
  {
    "name": "La Suiza",
    "countryCode": "CR",
    "stateCode": "C",
    "latitude": "9.85065000",
    "longitude": "-83.61690000"
  },
  {
    "name": "La Unión",
    "countryCode": "CR",
    "stateCode": "C",
    "latitude": "9.91667000",
    "longitude": "-83.98333000"
  },
  {
    "name": "León Cortés",
    "countryCode": "CR",
    "stateCode": "SJ",
    "latitude": "9.68300000",
    "longitude": "-84.04781000"
  },
  {
    "name": "Liberia",
    "countryCode": "CR",
    "stateCode": "G",
    "latitude": "10.63504000",
    "longitude": "-85.43772000"
  },
  {
    "name": "Limón",
    "countryCode": "CR",
    "stateCode": "L",
    "latitude": "9.99074000",
    "longitude": "-83.03596000"
  },
  {
    "name": "Llorente",
    "countryCode": "CR",
    "stateCode": "H",
    "latitude": "9.99844000",
    "longitude": "-84.15448000"
  },
  {
    "name": "Los Chiles",
    "countryCode": "CR",
    "stateCode": "A",
    "latitude": "10.86667000",
    "longitude": "-84.66667000"
  },
  {
    "name": "Matina",
    "countryCode": "CR",
    "stateCode": "L",
    "latitude": "10.00000000",
    "longitude": "-83.25000000"
  },
  {
    "name": "Mercedes",
    "countryCode": "CR",
    "stateCode": "H",
    "latitude": "10.00695000",
    "longitude": "-84.13396000"
  },
  {
    "name": "Mercedes",
    "countryCode": "CR",
    "stateCode": "SJ",
    "latitude": "9.26270000",
    "longitude": "-83.58202000"
  },
  {
    "name": "Miramar",
    "countryCode": "CR",
    "stateCode": "P",
    "latitude": "10.09250000",
    "longitude": "-84.72978000"
  },
  {
    "name": "Montes de Oca",
    "countryCode": "CR",
    "stateCode": "SJ",
    "latitude": "9.93960000",
    "longitude": "-84.03013000"
  },
  {
    "name": "Montes de Oro",
    "countryCode": "CR",
    "stateCode": "P",
    "latitude": "10.10000000",
    "longitude": "-84.75000000"
  },
  {
    "name": "Mora",
    "countryCode": "CR",
    "stateCode": "SJ",
    "latitude": "9.91667000",
    "longitude": "-84.25000000"
  },
  {
    "name": "Moravia",
    "countryCode": "CR",
    "stateCode": "SJ",
    "latitude": "10.04000000",
    "longitude": "-84.00000000"
  },
  {
    "name": "Nandayure",
    "countryCode": "CR",
    "stateCode": "G",
    "latitude": "9.91667000",
    "longitude": "-85.28333000"
  },
  {
    "name": "Naranjo",
    "countryCode": "CR",
    "stateCode": "A",
    "latitude": "10.11667000",
    "longitude": "-84.40000000"
  },
  {
    "name": "Nicoya",
    "countryCode": "CR",
    "stateCode": "G",
    "latitude": "10.08333000",
    "longitude": "-85.50000000"
  },
  {
    "name": "Oreamuno",
    "countryCode": "CR",
    "stateCode": "C",
    "latitude": "10.00000000",
    "longitude": "-83.83333000"
  },
  {
    "name": "Orosí",
    "countryCode": "CR",
    "stateCode": "C",
    "latitude": "9.79617000",
    "longitude": "-83.85383000"
  },
  {
    "name": "Orotina",
    "countryCode": "CR",
    "stateCode": "A",
    "latitude": "9.90000000",
    "longitude": "-84.56667000"
  },
  {
    "name": "Osa",
    "countryCode": "CR",
    "stateCode": "P",
    "latitude": "8.83333000",
    "longitude": "-83.50000000"
  },
  {
    "name": "Pacayas",
    "countryCode": "CR",
    "stateCode": "C",
    "latitude": "9.80709000",
    "longitude": "-84.04764000"
  },
  {
    "name": "Palmares",
    "countryCode": "CR",
    "stateCode": "A",
    "latitude": "10.03333000",
    "longitude": "-84.43333000"
  },
  {
    "name": "Palmichal",
    "countryCode": "CR",
    "stateCode": "SJ",
    "latitude": "9.83778000",
    "longitude": "-84.20478000"
  },
  {
    "name": "Paquera",
    "countryCode": "CR",
    "stateCode": "P",
    "latitude": "9.82005000",
    "longitude": "-84.93513000"
  },
  {
    "name": "Paraíso",
    "countryCode": "CR",
    "stateCode": "C",
    "latitude": "9.75000000",
    "longitude": "-83.80000000"
  },
  {
    "name": "Parrita",
    "countryCode": "CR",
    "stateCode": "P",
    "latitude": "9.55000000",
    "longitude": "-84.33333000"
  },
  {
    "name": "Patarrá",
    "countryCode": "CR",
    "stateCode": "SJ",
    "latitude": "9.88071000",
    "longitude": "-84.03501000"
  },
  {
    "name": "Pejibaye",
    "countryCode": "CR",
    "stateCode": "C",
    "latitude": "9.81135000",
    "longitude": "-83.70336000"
  },
  {
    "name": "Pital",
    "countryCode": "CR",
    "stateCode": "A",
    "latitude": "10.45056000",
    "longitude": "-84.27406000"
  },
  {
    "name": "Pococí",
    "countryCode": "CR",
    "stateCode": "L",
    "latitude": "10.50000000",
    "longitude": "-83.63333000"
  },
  {
    "name": "Pocora",
    "countryCode": "CR",
    "stateCode": "L",
    "latitude": "10.17185000",
    "longitude": "-83.60439000"
  },
  {
    "name": "Pocosol",
    "countryCode": "CR",
    "stateCode": "A",
    "latitude": "10.36667000",
    "longitude": "-84.61667000"
  },
  {
    "name": "Poás",
    "countryCode": "CR",
    "stateCode": "A",
    "latitude": "10.08333000",
    "longitude": "-84.23333000"
  },
  {
    "name": "Puntarenas",
    "countryCode": "CR",
    "stateCode": "P",
    "latitude": "9.97625000",
    "longitude": "-84.83836000"
  },
  {
    "name": "Puriscal",
    "countryCode": "CR",
    "stateCode": "SJ",
    "latitude": "9.75000000",
    "longitude": "-84.41667000"
  },
  {
    "name": "Purral",
    "countryCode": "CR",
    "stateCode": "SJ",
    "latitude": "9.95808000",
    "longitude": "-84.03050000"
  },
  {
    "name": "Pérez Zeledón",
    "countryCode": "CR",
    "stateCode": "SJ",
    "latitude": "9.35473000",
    "longitude": "-83.63484000"
  },
  {
    "name": "Quepos",
    "countryCode": "CR",
    "stateCode": "P",
    "latitude": "9.43187000",
    "longitude": "-84.16141000"
  },
  {
    "name": "Quesada",
    "countryCode": "CR",
    "stateCode": "A",
    "latitude": "10.32381000",
    "longitude": "-84.42714000"
  },
  {
    "name": "Roxana",
    "countryCode": "CR",
    "stateCode": "L",
    "latitude": "10.26712000",
    "longitude": "-83.75110000"
  },
  {
    "name": "Río Segundo",
    "countryCode": "CR",
    "stateCode": "A",
    "latitude": "10.24138000",
    "longitude": "-84.27933000"
  },
  {
    "name": "Sabanilla",
    "countryCode": "CR",
    "stateCode": "A",
    "latitude": "10.07404000",
    "longitude": "-84.21551000"
  },
  {
    "name": "Sabanilla",
    "countryCode": "CR",
    "stateCode": "SJ",
    "latitude": "9.94522000",
    "longitude": "-84.03927000"
  },
  {
    "name": "Salitral",
    "countryCode": "CR",
    "stateCode": "SJ",
    "latitude": "9.91163000",
    "longitude": "-84.17835000"
  },
  {
    "name": "Salitrillos",
    "countryCode": "CR",
    "stateCode": "SJ",
    "latitude": "9.85259000",
    "longitude": "-84.09062000"
  },
  {
    "name": "San Antonio",
    "countryCode": "CR",
    "stateCode": "H",
    "latitude": "9.98333000",
    "longitude": "-84.18333000"
  },
  {
    "name": "San Carlos",
    "countryCode": "CR",
    "stateCode": "A",
    "latitude": "10.58333000",
    "longitude": "-84.41667000"
  },
  {
    "name": "San Diego",
    "countryCode": "CR",
    "stateCode": "C",
    "latitude": "9.89898000",
    "longitude": "-84.00287000"
  },
  {
    "name": "San Felipe",
    "countryCode": "CR",
    "stateCode": "SJ",
    "latitude": "9.90488000",
    "longitude": "-84.10551000"
  },
  {
    "name": "San Francisco",
    "countryCode": "CR",
    "stateCode": "H",
    "latitude": "9.99299000",
    "longitude": "-84.12934000"
  },
  {
    "name": "San Ignacio",
    "countryCode": "CR",
    "stateCode": "SJ",
    "latitude": "9.79853000",
    "longitude": "-84.16173000"
  },
  {
    "name": "San Isidro",
    "countryCode": "CR",
    "stateCode": "H",
    "latitude": "10.03333000",
    "longitude": "-84.03333000"
  },
  {
    "name": "San Isidro",
    "countryCode": "CR",
    "stateCode": "SJ",
    "latitude": "9.36740000",
    "longitude": "-83.69713000"
  },
  {
    "name": "San Josecito",
    "countryCode": "CR",
    "stateCode": "H",
    "latitude": "10.01667000",
    "longitude": "-84.10000000"
  },
  {
    "name": "San José",
    "countryCode": "CR",
    "stateCode": "A",
    "latitude": "10.95173000",
    "longitude": "-85.13610000"
  },
  {
    "name": "San José",
    "countryCode": "CR",
    "stateCode": "SJ",
    "latitude": "9.93333000",
    "longitude": "-84.08333000"
  },
  {
    "name": "San Juan",
    "countryCode": "CR",
    "stateCode": "A",
    "latitude": "10.10248000",
    "longitude": "-84.31694000"
  },
  {
    "name": "San Juan",
    "countryCode": "CR",
    "stateCode": "SJ",
    "latitude": "9.95974000",
    "longitude": "-84.08165000"
  },
  {
    "name": "San Juan de Dios",
    "countryCode": "CR",
    "stateCode": "SJ",
    "latitude": "9.87730000",
    "longitude": "-84.08470000"
  },
  {
    "name": "San Marcos",
    "countryCode": "CR",
    "stateCode": "SJ",
    "latitude": "9.66010000",
    "longitude": "-84.02026000"
  },
  {
    "name": "San Mateo",
    "countryCode": "CR",
    "stateCode": "A",
    "latitude": "9.95000000",
    "longitude": "-84.51667000"
  },
  {
    "name": "San Miguel",
    "countryCode": "CR",
    "stateCode": "SJ",
    "latitude": "9.87121000",
    "longitude": "-84.06084000"
  },
  {
    "name": "San Pablo",
    "countryCode": "CR",
    "stateCode": "H",
    "latitude": "10.00000000",
    "longitude": "-84.08333000"
  },
  {
    "name": "San Pedro",
    "countryCode": "CR",
    "stateCode": "SJ",
    "latitude": "9.92829000",
    "longitude": "-84.05074000"
  },
  {
    "name": "San Rafael",
    "countryCode": "CR",
    "stateCode": "A",
    "latitude": "10.06403000",
    "longitude": "-84.47281000"
  },
  {
    "name": "San Rafael",
    "countryCode": "CR",
    "stateCode": "H",
    "latitude": "10.05000000",
    "longitude": "-84.06667000"
  },
  {
    "name": "San Rafael",
    "countryCode": "CR",
    "stateCode": "SJ",
    "latitude": "9.92787000",
    "longitude": "-84.13722000"
  },
  {
    "name": "San Rafael Abajo",
    "countryCode": "CR",
    "stateCode": "SJ",
    "latitude": "9.83100000",
    "longitude": "-84.29008000"
  },
  {
    "name": "San Rafael Arriba",
    "countryCode": "CR",
    "stateCode": "SJ",
    "latitude": "9.87556000",
    "longitude": "-84.07661000"
  },
  {
    "name": "San Ramón",
    "countryCode": "CR",
    "stateCode": "A",
    "latitude": "10.08718000",
    "longitude": "-84.47044000"
  },
  {
    "name": "San Vicente",
    "countryCode": "CR",
    "stateCode": "SJ",
    "latitude": "9.96016000",
    "longitude": "-84.04762000"
  },
  {
    "name": "San Vicente de Moravia",
    "countryCode": "CR",
    "stateCode": "SJ",
    "latitude": "9.96164000",
    "longitude": "-84.04880000"
  },
  {
    "name": "San Vito",
    "countryCode": "CR",
    "stateCode": "P",
    "latitude": "8.82079000",
    "longitude": "-82.97092000"
  },
  {
    "name": "Santa Ana",
    "countryCode": "CR",
    "stateCode": "SJ",
    "latitude": "9.93260000",
    "longitude": "-84.18255000"
  },
  {
    "name": "Santa Bárbara",
    "countryCode": "CR",
    "stateCode": "H",
    "latitude": "10.08333000",
    "longitude": "-84.15000000"
  },
  {
    "name": "Santa Cruz",
    "countryCode": "CR",
    "stateCode": "G",
    "latitude": "10.25000000",
    "longitude": "-85.66667000"
  },
  {
    "name": "Santiago",
    "countryCode": "CR",
    "stateCode": "A",
    "latitude": "10.02275000",
    "longitude": "-84.44420000"
  },
  {
    "name": "Santiago",
    "countryCode": "CR",
    "stateCode": "SJ",
    "latitude": "9.84636000",
    "longitude": "-84.31428000"
  },
  {
    "name": "Santo Domingo",
    "countryCode": "CR",
    "stateCode": "H",
    "latitude": "10.06389000",
    "longitude": "-84.15499000"
  },
  {
    "name": "Sarapiquí",
    "countryCode": "CR",
    "stateCode": "H",
    "latitude": "10.50000000",
    "longitude": "-84.00000000"
  },
  {
    "name": "Sardinal",
    "countryCode": "CR",
    "stateCode": "G",
    "latitude": "10.51674000",
    "longitude": "-85.64748000"
  },
  {
    "name": "Siquirres",
    "countryCode": "CR",
    "stateCode": "L",
    "latitude": "10.11667000",
    "longitude": "-83.50000000"
  },
  {
    "name": "Sixaola",
    "countryCode": "CR",
    "stateCode": "L",
    "latitude": "9.52766000",
    "longitude": "-82.62185000"
  },
  {
    "name": "Sámara",
    "countryCode": "CR",
    "stateCode": "G",
    "latitude": "9.88147000",
    "longitude": "-85.52809000"
  },
  {
    "name": "Talamanca",
    "countryCode": "CR",
    "stateCode": "L",
    "latitude": "9.50000000",
    "longitude": "-83.08333000"
  },
  {
    "name": "Tarrazú",
    "countryCode": "CR",
    "stateCode": "SJ",
    "latitude": "9.65965000",
    "longitude": "-84.02138000"
  },
  {
    "name": "Tejar",
    "countryCode": "CR",
    "stateCode": "SJ",
    "latitude": "9.74622000",
    "longitude": "-84.23368000"
  },
  {
    "name": "Tibás",
    "countryCode": "CR",
    "stateCode": "SJ",
    "latitude": "9.96667000",
    "longitude": "-84.08333000"
  },
  {
    "name": "Tilarán",
    "countryCode": "CR",
    "stateCode": "G",
    "latitude": "10.45878000",
    "longitude": "-84.97513000"
  },
  {
    "name": "Tobosi",
    "countryCode": "CR",
    "stateCode": "C",
    "latitude": "9.83837000",
    "longitude": "-83.98391000"
  },
  {
    "name": "Tres Ríos",
    "countryCode": "CR",
    "stateCode": "C",
    "latitude": "9.90644000",
    "longitude": "-83.98760000"
  },
  {
    "name": "Tucurrique",
    "countryCode": "CR",
    "stateCode": "C",
    "latitude": "9.85336000",
    "longitude": "-83.72273000"
  },
  {
    "name": "Turrialba",
    "countryCode": "CR",
    "stateCode": "C",
    "latitude": "9.80000000",
    "longitude": "-83.53333000"
  },
  {
    "name": "Turrubares",
    "countryCode": "CR",
    "stateCode": "SJ",
    "latitude": "9.75000000",
    "longitude": "-84.50000000"
  },
  {
    "name": "Upala",
    "countryCode": "CR",
    "stateCode": "A",
    "latitude": "10.85000000",
    "longitude": "-85.16667000"
  },
  {
    "name": "Valverde Vega",
    "countryCode": "CR",
    "stateCode": "A",
    "latitude": "10.18721000",
    "longitude": "-84.30290000"
  },
  {
    "name": "Vázquez de Coronado",
    "countryCode": "CR",
    "stateCode": "SJ",
    "latitude": "10.06000000",
    "longitude": "-84.00000000"
  },
  {
    "name": "Zarcero",
    "countryCode": "CR",
    "stateCode": "A",
    "latitude": "10.20000000",
    "longitude": "-84.40000000"
  },
  {
    "name": "Ángeles",
    "countryCode": "CR",
    "stateCode": "H",
    "latitude": "9.99591000",
    "longitude": "-84.05126000"
  }
]