[
  {
    "name": "Agua Santa del Yuna",
    "countryCode": "DO",
    "stateCode": "06",
    "latitude": "19.15072000",
    "longitude": "-69.80069000"
  },
  {
    "name": "Altamira",
    "countryCode": "DO",
    "stateCode": "18",
    "latitude": "19.70000000",
    "longitude": "-70.83333000"
  },
  {
    "name": "Amina",
    "countryCode": "DO",
    "stateCode": "27",
    "latitude": "19.54813000",
    "longitude": "-70.99599000"
  },
  {
    "name": "Arenoso",
    "countryCode": "DO",
    "stateCode": "06",
    "latitude": "19.18732000",
    "longitude": "-69.85917000"
  },
  {
    "name": "Arroyo Salado",
    "countryCode": "DO",
    "stateCode": "14",
    "latitude": "19.50000000",
    "longitude": "-69.90000000"
  },
  {
    "name": "Azua",
    "countryCode": "DO",
    "stateCode": "02",
    "latitude": "18.45319000",
    "longitude": "-70.73490000"
  },
  {
    "name": "Baitoa",
    "countryCode": "DO",
    "stateCode": "25",
    "latitude": "19.32512000",
    "longitude": "-70.70357000"
  },
  {
    "name": "Bajos de Haina",
    "countryCode": "DO",
    "stateCode": "21",
    "latitude": "18.41667000",
    "longitude": "-70.03333000"
  },
  {
    "name": "Baní",
    "countryCode": "DO",
    "stateCode": "17",
    "latitude": "18.27964000",
    "longitude": "-70.33185000"
  },
  {
    "name": "Bayaguana",
    "countryCode": "DO",
    "stateCode": "29",
    "latitude": "18.78333000",
    "longitude": "-69.60000000"
  },
  {
    "name": "Bella Vista",
    "countryCode": "DO",
    "stateCode": "01",
    "latitude": "18.45539000",
    "longitude": "-69.94540000"
  },
  {
    "name": "Bisonó",
    "countryCode": "DO",
    "stateCode": "25",
    "latitude": "19.58333000",
    "longitude": "-70.86667000"
  },
  {
    "name": "Boca Chica",
    "countryCode": "DO",
    "stateCode": "32",
    "latitude": "18.45000000",
    "longitude": "-69.60000000"
  },
  {
    "name": "Boca de Yuma",
    "countryCode": "DO",
    "stateCode": "11",
    "latitude": "18.37825000",
    "longitude": "-68.60900000"
  },
  {
    "name": "Bohechío",
    "countryCode": "DO",
    "stateCode": "22",
    "latitude": "18.77515000",
    "longitude": "-70.98889000"
  },
  {
    "name": "Bonao",
    "countryCode": "DO",
    "stateCode": "28",
    "latitude": "18.91667000",
    "longitude": "-70.46667000"
  },
  {
    "name": "Cabarete",
    "countryCode": "DO",
    "stateCode": "18",
    "latitude": "19.74982000",
    "longitude": "-70.40829000"
  },
  {
    "name": "Cabral",
    "countryCode": "DO",
    "stateCode": "04",
    "latitude": "18.19991000",
    "longitude": "-71.24660000"
  },
  {
    "name": "Cabrera",
    "countryCode": "DO",
    "stateCode": "14",
    "latitude": "19.64260000",
    "longitude": "-69.90489000"
  },
  {
    "name": "Cachón",
    "countryCode": "DO",
    "stateCode": "04",
    "latitude": "18.24833000",
    "longitude": "-71.18912000"
  },
  {
    "name": "Cambita Garabitos",
    "countryCode": "DO",
    "stateCode": "21",
    "latitude": "18.50000000",
    "longitude": "-70.23333000"
  },
  {
    "name": "Cana Chapetón",
    "countryCode": "DO",
    "stateCode": "15",
    "latitude": "19.60703000",
    "longitude": "-71.25734000"
  },
  {
    "name": "Canoa",
    "countryCode": "DO",
    "stateCode": "04",
    "latitude": "18.35499000",
    "longitude": "-71.15851000"
  },
  {
    "name": "Castañuelas",
    "countryCode": "DO",
    "stateCode": "15",
    "latitude": "19.71387000",
    "longitude": "-71.49876000"
  },
  {
    "name": "Castillo",
    "countryCode": "DO",
    "stateCode": "06",
    "latitude": "19.25000000",
    "longitude": "-70.00000000"
  },
  {
    "name": "Cayetano Germosén",
    "countryCode": "DO",
    "stateCode": "09",
    "latitude": "19.34285000",
    "longitude": "-70.47573000"
  },
  {
    "name": "Cercado Abajo",
    "countryCode": "DO",
    "stateCode": "22",
    "latitude": "18.72681000",
    "longitude": "-71.51742000"
  },
  {
    "name": "Cevicos",
    "countryCode": "DO",
    "stateCode": "24",
    "latitude": "19.00449000",
    "longitude": "-69.97896000"
  },
  {
    "name": "Ciudad Nueva",
    "countryCode": "DO",
    "stateCode": "01",
    "latitude": "18.46707000",
    "longitude": "-69.89339000"
  },
  {
    "name": "Concepción de La Vega",
    "countryCode": "DO",
    "stateCode": "13",
    "latitude": "19.22207000",
    "longitude": "-70.52956000"
  },
  {
    "name": "Constanza",
    "countryCode": "DO",
    "stateCode": "13",
    "latitude": "18.90919000",
    "longitude": "-70.74499000"
  },
  {
    "name": "Cotuí",
    "countryCode": "DO",
    "stateCode": "24",
    "latitude": "19.05272000",
    "longitude": "-70.14939000"
  },
  {
    "name": "Cristo Rey",
    "countryCode": "DO",
    "stateCode": "01",
    "latitude": "18.50000000",
    "longitude": "-69.93333000"
  },
  {
    "name": "Cristóbal",
    "countryCode": "DO",
    "stateCode": "10",
    "latitude": "18.29405000",
    "longitude": "-71.29298000"
  },
  {
    "name": "Dajabón",
    "countryCode": "DO",
    "stateCode": "05",
    "latitude": "19.54878000",
    "longitude": "-71.70829000"
  },
  {
    "name": "Don Juan",
    "countryCode": "DO",
    "stateCode": "29",
    "latitude": "18.82774000",
    "longitude": "-69.94629000"
  },
  {
    "name": "Duvergé",
    "countryCode": "DO",
    "stateCode": "10",
    "latitude": "18.31634000",
    "longitude": "-71.59451000"
  },
  {
    "name": "El Cacao",
    "countryCode": "DO",
    "stateCode": "21",
    "latitude": "18.52719000",
    "longitude": "-70.29585000"
  },
  {
    "name": "El Carril",
    "countryCode": "DO",
    "stateCode": "21",
    "latitude": "18.44905000",
    "longitude": "-70.02785000"
  },
  {
    "name": "El Cercado",
    "countryCode": "DO",
    "stateCode": "22",
    "latitude": "18.70000000",
    "longitude": "-71.46667000"
  },
  {
    "name": "El Factor",
    "countryCode": "DO",
    "stateCode": "14",
    "latitude": "19.31834000",
    "longitude": "-69.88827000"
  },
  {
    "name": "El Guayabal",
    "countryCode": "DO",
    "stateCode": "02",
    "latitude": "18.74960000",
    "longitude": "-70.83690000"
  },
  {
    "name": "El Palmar",
    "countryCode": "DO",
    "stateCode": "03",
    "latitude": "18.41139000",
    "longitude": "-71.24558000"
  },
  {
    "name": "El Peñón",
    "countryCode": "DO",
    "stateCode": "04",
    "latitude": "18.29643000",
    "longitude": "-71.18410000"
  },
  {
    "name": "El Pino",
    "countryCode": "DO",
    "stateCode": "05",
    "latitude": "19.43537000",
    "longitude": "-71.47540000"
  },
  {
    "name": "El Puerto",
    "countryCode": "DO",
    "stateCode": "23",
    "latitude": "18.78333000",
    "longitude": "-69.46667000"
  },
  {
    "name": "El Valle",
    "countryCode": "DO",
    "stateCode": "30",
    "latitude": "18.93333000",
    "longitude": "-69.38333000"
  },
  {
    "name": "Enriquillo",
    "countryCode": "DO",
    "stateCode": "04",
    "latitude": "17.91667000",
    "longitude": "-71.25000000"
  },
  {
    "name": "Ensanche Luperón",
    "countryCode": "DO",
    "stateCode": "01",
    "latitude": "18.50000000",
    "longitude": "-69.90000000"
  },
  {
    "name": "Esperalvillo",
    "countryCode": "DO",
    "stateCode": "29",
    "latitude": "18.81509000",
    "longitude": "-70.03557000"
  },
  {
    "name": "Esperanza",
    "countryCode": "DO",
    "stateCode": "27",
    "latitude": "19.62379000",
    "longitude": "-70.97141000"
  },
  {
    "name": "Estebanía",
    "countryCode": "DO",
    "stateCode": "02",
    "latitude": "18.45770000",
    "longitude": "-70.64350000"
  },
  {
    "name": "Estero Hondo",
    "countryCode": "DO",
    "stateCode": "18",
    "latitude": "19.82712000",
    "longitude": "-71.17411000"
  },
  {
    "name": "Fantino",
    "countryCode": "DO",
    "stateCode": "24",
    "latitude": "19.11667000",
    "longitude": "-70.30000000"
  },
  {
    "name": "Fundación",
    "countryCode": "DO",
    "stateCode": "04",
    "latitude": "18.28668000",
    "longitude": "-71.18147000"
  },
  {
    "name": "Galván",
    "countryCode": "DO",
    "stateCode": "03",
    "latitude": "18.50228000",
    "longitude": "-71.34271000"
  },
  {
    "name": "Gaspar Hernández",
    "countryCode": "DO",
    "stateCode": "09",
    "latitude": "19.62748000",
    "longitude": "-70.27772000"
  },
  {
    "name": "Gonzalo",
    "countryCode": "DO",
    "stateCode": "29",
    "latitude": "18.95147000",
    "longitude": "-69.75114000"
  },
  {
    "name": "Guananico",
    "countryCode": "DO",
    "stateCode": "18",
    "latitude": "19.72693000",
    "longitude": "-70.92294000"
  },
  {
    "name": "Guatapanal",
    "countryCode": "DO",
    "stateCode": "27",
    "latitude": "19.50705000",
    "longitude": "-70.91713000"
  },
  {
    "name": "Guayabal",
    "countryCode": "DO",
    "stateCode": "10",
    "latitude": "18.59810000",
    "longitude": "-71.64184000"
  },
  {
    "name": "Guayabo Dulce",
    "countryCode": "DO",
    "stateCode": "30",
    "latitude": "18.65000000",
    "longitude": "-69.28333000"
  },
  {
    "name": "Guaymate",
    "countryCode": "DO",
    "stateCode": "12",
    "latitude": "18.58793000",
    "longitude": "-68.97867000"
  },
  {
    "name": "Guayubín",
    "countryCode": "DO",
    "stateCode": "15",
    "latitude": "19.61667000",
    "longitude": "-71.33333000"
  },
  {
    "name": "Hatillo Palma",
    "countryCode": "DO",
    "stateCode": "15",
    "latitude": "19.66256000",
    "longitude": "-71.19406000"
  },
  {
    "name": "Hato Mayor del Rey",
    "countryCode": "DO",
    "stateCode": "30",
    "latitude": "18.76278000",
    "longitude": "-69.25681000"
  },
  {
    "name": "Higüey",
    "countryCode": "DO",
    "stateCode": "11",
    "latitude": "18.70000000",
    "longitude": "-68.66667000"
  },
  {
    "name": "Hostos",
    "countryCode": "DO",
    "stateCode": "06",
    "latitude": "19.18043000",
    "longitude": "-70.02046000"
  },
  {
    "name": "Imbert",
    "countryCode": "DO",
    "stateCode": "18",
    "latitude": "19.75371000",
    "longitude": "-70.82906000"
  },
  {
    "name": "Jaibón",
    "countryCode": "DO",
    "stateCode": "27",
    "latitude": "19.61169000",
    "longitude": "-71.14847000"
  },
  {
    "name": "Jamao al Norte",
    "countryCode": "DO",
    "stateCode": "09",
    "latitude": "19.63552000",
    "longitude": "-70.44664000"
  },
  {
    "name": "Jaquimeyes",
    "countryCode": "DO",
    "stateCode": "04",
    "latitude": "18.31173000",
    "longitude": "-71.16145000"
  },
  {
    "name": "Jarabacoa",
    "countryCode": "DO",
    "stateCode": "13",
    "latitude": "19.11683000",
    "longitude": "-70.63595000"
  },
  {
    "name": "Jicomé",
    "countryCode": "DO",
    "stateCode": "27",
    "latitude": "19.64955000",
    "longitude": "-70.94927000"
  },
  {
    "name": "Jima Abajo",
    "countryCode": "DO",
    "stateCode": "13",
    "latitude": "19.13292000",
    "longitude": "-70.37607000"
  },
  {
    "name": "Jimaní",
    "countryCode": "DO",
    "stateCode": "10",
    "latitude": "18.49169000",
    "longitude": "-71.85022000"
  },
  {
    "name": "Joba Arriba",
    "countryCode": "DO",
    "stateCode": "09",
    "latitude": "19.56667000",
    "longitude": "-70.26667000"
  },
  {
    "name": "Juan Adrián",
    "countryCode": "DO",
    "stateCode": "28",
    "latitude": "18.76365000",
    "longitude": "-70.33732000"
  },
  {
    "name": "Juan López Abajo",
    "countryCode": "DO",
    "stateCode": "09",
    "latitude": "19.43333000",
    "longitude": "-70.50000000"
  },
  {
    "name": "Juan de Herrera",
    "countryCode": "DO",
    "stateCode": "22",
    "latitude": "18.87402000",
    "longitude": "-71.23830000"
  },
  {
    "name": "Juancho",
    "countryCode": "DO",
    "stateCode": "16",
    "latitude": "17.85782000",
    "longitude": "-71.29311000"
  },
  {
    "name": "Juncalito Abajo",
    "countryCode": "DO",
    "stateCode": "25",
    "latitude": "19.21990000",
    "longitude": "-70.81905000"
  },
  {
    "name": "La Agustina",
    "countryCode": "DO",
    "stateCode": "01",
    "latitude": "18.50000000",
    "longitude": "-69.93333000"
  },
  {
    "name": "La Canela",
    "countryCode": "DO",
    "stateCode": "25",
    "latitude": "19.47341000",
    "longitude": "-70.81629000"
  },
  {
    "name": "La Caya",
    "countryCode": "DO",
    "stateCode": "27",
    "latitude": "19.69981000",
    "longitude": "-71.12084000"
  },
  {
    "name": "La Ciénaga",
    "countryCode": "DO",
    "stateCode": "04",
    "latitude": "18.06858000",
    "longitude": "-71.10651000"
  },
  {
    "name": "La Descubierta",
    "countryCode": "DO",
    "stateCode": "10",
    "latitude": "18.57053000",
    "longitude": "-71.72967000"
  },
  {
    "name": "La Entrada",
    "countryCode": "DO",
    "stateCode": "14",
    "latitude": "19.55367000",
    "longitude": "-69.90762000"
  },
  {
    "name": "La Julia",
    "countryCode": "DO",
    "stateCode": "01",
    "latitude": "18.46667000",
    "longitude": "-69.93333000"
  },
  {
    "name": "La Romana",
    "countryCode": "DO",
    "stateCode": "12",
    "latitude": "18.42733000",
    "longitude": "-68.97285000"
  },
  {
    "name": "La Uvilla",
    "countryCode": "DO",
    "stateCode": "03",
    "latitude": "18.36186000",
    "longitude": "-71.21046000"
  },
  {
    "name": "Laguna Salada",
    "countryCode": "DO",
    "stateCode": "27",
    "latitude": "19.70000000",
    "longitude": "-71.13333000"
  },
  {
    "name": "Las Charcas",
    "countryCode": "DO",
    "stateCode": "02",
    "latitude": "18.45026000",
    "longitude": "-70.61724000"
  },
  {
    "name": "Las Guáranas",
    "countryCode": "DO",
    "stateCode": "06",
    "latitude": "19.19310000",
    "longitude": "-70.20835000"
  },
  {
    "name": "Las Matas de Farfán",
    "countryCode": "DO",
    "stateCode": "22",
    "latitude": "18.91667000",
    "longitude": "-71.50000000"
  },
  {
    "name": "Las Matas de Santa Cruz",
    "countryCode": "DO",
    "stateCode": "15",
    "latitude": "19.67119000",
    "longitude": "-71.50471000"
  },
  {
    "name": "Las Salinas",
    "countryCode": "DO",
    "stateCode": "04",
    "latitude": "18.27485000",
    "longitude": "-71.31596000"
  },
  {
    "name": "Las Terrenas",
    "countryCode": "DO",
    "stateCode": "20",
    "latitude": "19.31102000",
    "longitude": "-69.54280000"
  },
  {
    "name": "Licey al Medio",
    "countryCode": "DO",
    "stateCode": "25",
    "latitude": "19.45000000",
    "longitude": "-70.60000000"
  },
  {
    "name": "Loma de Cabrera",
    "countryCode": "DO",
    "stateCode": "05",
    "latitude": "19.41667000",
    "longitude": "-71.58333000"
  },
  {
    "name": "Los Botados",
    "countryCode": "DO",
    "stateCode": "29",
    "latitude": "18.73226000",
    "longitude": "-69.99536000"
  },
  {
    "name": "Los Hidalgos",
    "countryCode": "DO",
    "stateCode": "18",
    "latitude": "19.73333000",
    "longitude": "-71.03333000"
  },
  {
    "name": "Los Llanos",
    "countryCode": "DO",
    "stateCode": "23",
    "latitude": "18.62035000",
    "longitude": "-69.49581000"
  },
  {
    "name": "Los Ríos",
    "countryCode": "DO",
    "stateCode": "03",
    "latitude": "18.52131000",
    "longitude": "-71.59106000"
  },
  {
    "name": "Luperón",
    "countryCode": "DO",
    "stateCode": "18",
    "latitude": "19.89131000",
    "longitude": "-70.96204000"
  },
  {
    "name": "Maimón",
    "countryCode": "DO",
    "stateCode": "28",
    "latitude": "18.88333000",
    "longitude": "-70.30000000"
  },
  {
    "name": "Maizal",
    "countryCode": "DO",
    "stateCode": "27",
    "latitude": "19.63655000",
    "longitude": "-71.02734000"
  },
  {
    "name": "Majagual",
    "countryCode": "DO",
    "stateCode": "29",
    "latitude": "19.04134000",
    "longitude": "-69.83616000"
  },
  {
    "name": "Mao",
    "countryCode": "DO",
    "stateCode": "27",
    "latitude": "19.55186000",
    "longitude": "-71.07813000"
  },
  {
    "name": "Matanzas",
    "countryCode": "DO",
    "stateCode": "17",
    "latitude": "18.24297000",
    "longitude": "-70.41768000"
  },
  {
    "name": "Matayaya",
    "countryCode": "DO",
    "stateCode": "22",
    "latitude": "18.89036000",
    "longitude": "-71.59459000"
  },
  {
    "name": "Mella",
    "countryCode": "DO",
    "stateCode": "10",
    "latitude": "18.35871000",
    "longitude": "-71.41716000"
  },
  {
    "name": "Miches",
    "countryCode": "DO",
    "stateCode": "08",
    "latitude": "18.98364000",
    "longitude": "-69.04760000"
  },
  {
    "name": "Moca",
    "countryCode": "DO",
    "stateCode": "09",
    "latitude": "19.50000000",
    "longitude": "-70.50000000"
  },
  {
    "name": "Monción",
    "countryCode": "DO",
    "stateCode": "26",
    "latitude": "19.46667000",
    "longitude": "-71.16667000"
  },
  {
    "name": "Monte Cristi",
    "countryCode": "DO",
    "stateCode": "15",
    "latitude": "19.83333000",
    "longitude": "-71.61667000"
  },
  {
    "name": "Monte Llano",
    "countryCode": "DO",
    "stateCode": "18",
    "latitude": "19.73460000",
    "longitude": "-70.59915000"
  },
  {
    "name": "Monte Plata",
    "countryCode": "DO",
    "stateCode": "29",
    "latitude": "18.80700000",
    "longitude": "-69.78399000"
  },
  {
    "name": "Nagua",
    "countryCode": "DO",
    "stateCode": "14",
    "latitude": "19.38320000",
    "longitude": "-69.84740000"
  },
  {
    "name": "Neiba",
    "countryCode": "DO",
    "stateCode": "03",
    "latitude": "18.48137000",
    "longitude": "-71.41965000"
  },
  {
    "name": "Nizao",
    "countryCode": "DO",
    "stateCode": "17",
    "latitude": "18.24697000",
    "longitude": "-70.21053000"
  },
  {
    "name": "Otra Banda",
    "countryCode": "DO",
    "stateCode": "11",
    "latitude": "18.65017000",
    "longitude": "-68.66281000"
  },
  {
    "name": "Oviedo",
    "countryCode": "DO",
    "stateCode": "16",
    "latitude": "17.80136000",
    "longitude": "-71.40100000"
  },
  {
    "name": "Padre Las Casas",
    "countryCode": "DO",
    "stateCode": "02",
    "latitude": "18.75000000",
    "longitude": "-70.88333000"
  },
  {
    "name": "Palmar Arriba",
    "countryCode": "DO",
    "stateCode": "25",
    "latitude": "19.53957000",
    "longitude": "-70.73826000"
  },
  {
    "name": "Palmar de Ocoa",
    "countryCode": "DO",
    "stateCode": "02",
    "latitude": "18.29656000",
    "longitude": "-70.58635000"
  },
  {
    "name": "Paraíso",
    "countryCode": "DO",
    "stateCode": "04",
    "latitude": "18.02652000",
    "longitude": "-71.20889000"
  },
  {
    "name": "Partido",
    "countryCode": "DO",
    "stateCode": "05",
    "latitude": "19.48403000",
    "longitude": "-71.54730000"
  },
  {
    "name": "Paya",
    "countryCode": "DO",
    "stateCode": "17",
    "latitude": "18.26196000",
    "longitude": "-70.29560000"
  },
  {
    "name": "Pedernales",
    "countryCode": "DO",
    "stateCode": "16",
    "latitude": "18.08333000",
    "longitude": "-71.60000000"
  },
  {
    "name": "Pedro Corto",
    "countryCode": "DO",
    "stateCode": "22",
    "latitude": "18.84856000",
    "longitude": "-71.41041000"
  },
  {
    "name": "Pedro García",
    "countryCode": "DO",
    "stateCode": "25",
    "latitude": "19.59202000",
    "longitude": "-70.65256000"
  },
  {
    "name": "Pedro Sánchez",
    "countryCode": "DO",
    "stateCode": "08",
    "latitude": "18.86375000",
    "longitude": "-69.10868000"
  },
  {
    "name": "Pepillo Salcedo",
    "countryCode": "DO",
    "stateCode": "15",
    "latitude": "19.66667000",
    "longitude": "-71.66667000"
  },
  {
    "name": "Peralta",
    "countryCode": "DO",
    "stateCode": "02",
    "latitude": "18.58164000",
    "longitude": "-70.77029000"
  },
  {
    "name": "Pescadería",
    "countryCode": "DO",
    "stateCode": "04",
    "latitude": "18.26766000",
    "longitude": "-71.16612000"
  },
  {
    "name": "Piedra Blanca",
    "countryCode": "DO",
    "stateCode": "28",
    "latitude": "18.84431000",
    "longitude": "-70.31688000"
  },
  {
    "name": "Pimentel",
    "countryCode": "DO",
    "stateCode": "06",
    "latitude": "19.21667000",
    "longitude": "-70.16667000"
  },
  {
    "name": "Pizarrete",
    "countryCode": "DO",
    "stateCode": "17",
    "latitude": "18.29935000",
    "longitude": "-70.22648000"
  },
  {
    "name": "Polo",
    "countryCode": "DO",
    "stateCode": "04",
    "latitude": "18.07873000",
    "longitude": "-71.28723000"
  },
  {
    "name": "Postrer Río",
    "countryCode": "DO",
    "stateCode": "10",
    "latitude": "18.54374000",
    "longitude": "-71.63561000"
  },
  {
    "name": "Pueblo Viejo",
    "countryCode": "DO",
    "stateCode": "02",
    "latitude": "18.40000000",
    "longitude": "-70.76765000"
  },
  {
    "name": "Puerto Plata",
    "countryCode": "DO",
    "stateCode": "18",
    "latitude": "19.75119000",
    "longitude": "-70.70251000"
  },
  {
    "name": "Punta Cana",
    "countryCode": "DO",
    "stateCode": "11",
    "latitude": "18.58182000",
    "longitude": "-68.40431000"
  },
  {
    "name": "Quisqueya",
    "countryCode": "DO",
    "stateCode": "23",
    "latitude": "18.55542000",
    "longitude": "-69.40814000"
  },
  {
    "name": "Ramón Santana",
    "countryCode": "DO",
    "stateCode": "23",
    "latitude": "18.54224000",
    "longitude": "-69.17979000"
  },
  {
    "name": "Restauración",
    "countryCode": "DO",
    "stateCode": "05",
    "latitude": "19.31532000",
    "longitude": "-71.69239000"
  },
  {
    "name": "Rincón",
    "countryCode": "DO",
    "stateCode": "13",
    "latitude": "19.11938000",
    "longitude": "-70.40632000"
  },
  {
    "name": "Río Grande",
    "countryCode": "DO",
    "stateCode": "18",
    "latitude": "19.66667000",
    "longitude": "-70.76667000"
  },
  {
    "name": "Río San Juan",
    "countryCode": "DO",
    "stateCode": "14",
    "latitude": "19.55022000",
    "longitude": "-70.07703000"
  },
  {
    "name": "Río Verde Arriba",
    "countryCode": "DO",
    "stateCode": "13",
    "latitude": "19.31583000",
    "longitude": "-70.56643000"
  },
  {
    "name": "Sabana Buey",
    "countryCode": "DO",
    "stateCode": "17",
    "latitude": "18.27351000",
    "longitude": "-70.52352000"
  },
  {
    "name": "Sabana Grande de Boyá",
    "countryCode": "DO",
    "stateCode": "29",
    "latitude": "18.94498000",
    "longitude": "-69.79331000"
  },
  {
    "name": "Sabana Grande de Palenque",
    "countryCode": "DO",
    "stateCode": "21",
    "latitude": "18.26256000",
    "longitude": "-70.14821000"
  },
  {
    "name": "Sabana Iglesia",
    "countryCode": "DO",
    "stateCode": "25",
    "latitude": "19.32114000",
    "longitude": "-70.75992000"
  },
  {
    "name": "Sabana Yegua",
    "countryCode": "DO",
    "stateCode": "02",
    "latitude": "18.71667000",
    "longitude": "-71.01667000"
  },
  {
    "name": "Sabana de la Mar",
    "countryCode": "DO",
    "stateCode": "30",
    "latitude": "19.03333000",
    "longitude": "-69.41667000"
  },
  {
    "name": "Sabana del Puerto",
    "countryCode": "DO",
    "stateCode": "28",
    "latitude": "19.06667000",
    "longitude": "-70.41667000"
  },
  {
    "name": "Sabaneta",
    "countryCode": "DO",
    "stateCode": "26",
    "latitude": "19.47793000",
    "longitude": "-71.34125000"
  },
  {
    "name": "Salcedo",
    "countryCode": "DO",
    "stateCode": "19",
    "latitude": "19.41667000",
    "longitude": "-70.38333000"
  },
  {
    "name": "Salsipuedes",
    "countryCode": "DO",
    "stateCode": "19",
    "latitude": "19.40552000",
    "longitude": "-70.37985000"
  },
  {
    "name": "Salvaleón de Higüey",
    "countryCode": "DO",
    "stateCode": "11",
    "latitude": "18.61501000",
    "longitude": "-68.70798000"
  },
  {
    "name": "Samaná",
    "countryCode": "DO",
    "stateCode": "20",
    "latitude": "19.20561000",
    "longitude": "-69.33685000"
  },
  {
    "name": "San Carlos",
    "countryCode": "DO",
    "stateCode": "01",
    "latitude": "18.48333000",
    "longitude": "-69.90000000"
  },
  {
    "name": "San Cristóbal",
    "countryCode": "DO",
    "stateCode": "21",
    "latitude": "18.41667000",
    "longitude": "-70.13333000"
  },
  {
    "name": "San Fernando de Monte Cristi",
    "countryCode": "DO",
    "stateCode": "15",
    "latitude": "19.84826000",
    "longitude": "-71.64597000"
  },
  {
    "name": "San Francisco de Macorís",
    "countryCode": "DO",
    "stateCode": "06",
    "latitude": "19.30099000",
    "longitude": "-70.25259000"
  },
  {
    "name": "San Gregorio de Nigua",
    "countryCode": "DO",
    "stateCode": "21",
    "latitude": "18.38333000",
    "longitude": "-70.08333000"
  },
  {
    "name": "San Ignacio de Sabaneta",
    "countryCode": "DO",
    "stateCode": "26",
    "latitude": "19.38333000",
    "longitude": "-71.35000000"
  },
  {
    "name": "San José de Las Matas",
    "countryCode": "DO",
    "stateCode": "25",
    "latitude": "19.33915000",
    "longitude": "-70.93819000"
  },
  {
    "name": "San José de Ocoa",
    "countryCode": "DO",
    "stateCode": "31",
    "latitude": "18.54661000",
    "longitude": "-70.50631000"
  },
  {
    "name": "San Juan de la Maguana",
    "countryCode": "DO",
    "stateCode": "22",
    "latitude": "18.80588000",
    "longitude": "-71.22991000"
  },
  {
    "name": "San Pedro de Macorís",
    "countryCode": "DO",
    "stateCode": "23",
    "latitude": "18.45390000",
    "longitude": "-69.30864000"
  },
  {
    "name": "San Rafael del Yuma",
    "countryCode": "DO",
    "stateCode": "11",
    "latitude": "18.42993000",
    "longitude": "-68.67390000"
  },
  {
    "name": "San Víctor Arriba",
    "countryCode": "DO",
    "stateCode": "09",
    "latitude": "19.47741000",
    "longitude": "-70.53585000"
  },
  {
    "name": "Santa Cruz de Barahona",
    "countryCode": "DO",
    "stateCode": "04",
    "latitude": "18.20854000",
    "longitude": "-71.10077000"
  },
  {
    "name": "Santa Cruz de El Seibo",
    "countryCode": "DO",
    "stateCode": "08",
    "latitude": "18.76559000",
    "longitude": "-69.03886000"
  },
  {
    "name": "Santiago de los Caballeros",
    "countryCode": "DO",
    "stateCode": "25",
    "latitude": "19.45170000",
    "longitude": "-70.69703000"
  },
  {
    "name": "Santo Domingo",
    "countryCode": "DO",
    "stateCode": "01",
    "latitude": "18.47186000",
    "longitude": "-69.89232000"
  },
  {
    "name": "Santo Domingo Este",
    "countryCode": "DO",
    "stateCode": "32",
    "latitude": "18.48847000",
    "longitude": "-69.85707000"
  },
  {
    "name": "Santo Domingo Oeste",
    "countryCode": "DO",
    "stateCode": "32",
    "latitude": "18.50000000",
    "longitude": "-70.00000000"
  },
  {
    "name": "Santo Tomás de Jánico",
    "countryCode": "DO",
    "stateCode": "25",
    "latitude": "19.23528000",
    "longitude": "-70.79515000"
  },
  {
    "name": "Sosúa",
    "countryCode": "DO",
    "stateCode": "18",
    "latitude": "19.75220000",
    "longitude": "-70.51995000"
  },
  {
    "name": "Sánchez",
    "countryCode": "DO",
    "stateCode": "20",
    "latitude": "19.22810000",
    "longitude": "-69.61370000"
  },
  {
    "name": "Tamayo",
    "countryCode": "DO",
    "stateCode": "03",
    "latitude": "18.50000000",
    "longitude": "-71.16667000"
  },
  {
    "name": "Tamboril",
    "countryCode": "DO",
    "stateCode": "25",
    "latitude": "19.48538000",
    "longitude": "-70.61104000"
  },
  {
    "name": "Tenares",
    "countryCode": "DO",
    "stateCode": "19",
    "latitude": "19.37439000",
    "longitude": "-70.35087000"
  },
  {
    "name": "Tireo Arriba",
    "countryCode": "DO",
    "stateCode": "13",
    "latitude": "18.93537000",
    "longitude": "-70.68850000"
  },
  {
    "name": "Tábara Arriba",
    "countryCode": "DO",
    "stateCode": "02",
    "latitude": "18.56999000",
    "longitude": "-70.87978000"
  },
  {
    "name": "Vallejuelo",
    "countryCode": "DO",
    "stateCode": "22",
    "latitude": "18.65354000",
    "longitude": "-71.33431000"
  },
  {
    "name": "Veragua Arriba",
    "countryCode": "DO",
    "stateCode": "09",
    "latitude": "19.58333000",
    "longitude": "-70.33333000"
  },
  {
    "name": "Vicente Noble",
    "countryCode": "DO",
    "stateCode": "04",
    "latitude": "18.38443000",
    "longitude": "-71.18009000"
  },
  {
    "name": "Villa Altagracia",
    "countryCode": "DO",
    "stateCode": "21",
    "latitude": "18.63333000",
    "longitude": "-70.25000000"
  },
  {
    "name": "Villa Bisonó",
    "countryCode": "DO",
    "stateCode": "25",
    "latitude": "19.56378000",
    "longitude": "-70.87582000"
  },
  {
    "name": "Villa Consuelo",
    "countryCode": "DO",
    "stateCode": "01",
    "latitude": "18.48333000",
    "longitude": "-69.90000000"
  },
  {
    "name": "Villa Elisa",
    "countryCode": "DO",
    "stateCode": "15",
    "latitude": "19.68560000",
    "longitude": "-71.27007000"
  },
  {
    "name": "Villa Francisca",
    "countryCode": "DO",
    "stateCode": "01",
    "latitude": "18.48278000",
    "longitude": "-69.88914000"
  },
  {
    "name": "Villa González",
    "countryCode": "DO",
    "stateCode": "25",
    "latitude": "19.54057000",
    "longitude": "-70.78853000"
  },
  {
    "name": "Villa Isabela",
    "countryCode": "DO",
    "stateCode": "18",
    "latitude": "19.81564000",
    "longitude": "-71.06056000"
  },
  {
    "name": "Villa Jaragua",
    "countryCode": "DO",
    "stateCode": "03",
    "latitude": "18.49077000",
    "longitude": "-71.48377000"
  },
  {
    "name": "Villa Riva",
    "countryCode": "DO",
    "stateCode": "06",
    "latitude": "19.15051000",
    "longitude": "-69.88370000"
  },
  {
    "name": "Villa Tapia",
    "countryCode": "DO",
    "stateCode": "19",
    "latitude": "19.30084000",
    "longitude": "-70.42199000"
  },
  {
    "name": "Villa Vásquez",
    "countryCode": "DO",
    "stateCode": "15",
    "latitude": "19.80791000",
    "longitude": "-71.44000000"
  },
  {
    "name": "Villarpando",
    "countryCode": "DO",
    "stateCode": "02",
    "latitude": "18.65860000",
    "longitude": "-71.03916000"
  },
  {
    "name": "Yaguate",
    "countryCode": "DO",
    "stateCode": "21",
    "latitude": "18.33333000",
    "longitude": "-70.18333000"
  },
  {
    "name": "Yamasá",
    "countryCode": "DO",
    "stateCode": "29",
    "latitude": "18.77315000",
    "longitude": "-70.02583000"
  },
  {
    "name": "Yayas de Viajama",
    "countryCode": "DO",
    "stateCode": "02",
    "latitude": "18.60710000",
    "longitude": "-70.92753000"
  }
]