[
  {
    "name": "Alausí",
    "countryCode": "EC",
    "stateCode": "H",
    "latitude": "-2.20329000",
    "longitude": "-78.84714000"
  },
  {
    "name": "Alfredo Baquerizo Moreno",
    "countryCode": "EC",
    "stateCode": "G",
    "latitude": "-1.91667000",
    "longitude": "-79.51667000"
  },
  {
    "name": "Ambato",
    "countryCode": "EC",
    "stateCode": "T",
    "latitude": "-1.24908000",
    "longitude": "-78.61675000"
  },
  {
    "name": "Archidona",
    "countryCode": "EC",
    "stateCode": "N",
    "latitude": "-0.90950000",
    "longitude": "-77.80772000"
  },
  {
    "name": "Atuntaqui",
    "countryCode": "EC",
    "stateCode": "I",
    "latitude": "0.33247000",
    "longitude": "-78.21371000"
  },
  {
    "name": "Azogues",
    "countryCode": "EC",
    "stateCode": "F",
    "latitude": "-2.73969000",
    "longitude": "-78.84860000"
  },
  {
    "name": "Babahoyo",
    "countryCode": "EC",
    "stateCode": "R",
    "latitude": "-1.80217000",
    "longitude": "-79.53443000"
  },
  {
    "name": "Bahía de Caráquez",
    "countryCode": "EC",
    "stateCode": "M",
    "latitude": "-0.59792000",
    "longitude": "-80.42367000"
  },
  {
    "name": "Balzar",
    "countryCode": "EC",
    "stateCode": "G",
    "latitude": "-1.36501000",
    "longitude": "-79.90494000"
  },
  {
    "name": "Baláo",
    "countryCode": "EC",
    "stateCode": "G",
    "latitude": "-2.91100000",
    "longitude": "-79.81441000"
  },
  {
    "name": "Baños",
    "countryCode": "EC",
    "stateCode": "T",
    "latitude": "-1.39699000",
    "longitude": "-78.42289000"
  },
  {
    "name": "Boca Suno",
    "countryCode": "EC",
    "stateCode": "D",
    "latitude": "-0.69832000",
    "longitude": "-77.14083000"
  },
  {
    "name": "Calceta",
    "countryCode": "EC",
    "stateCode": "M",
    "latitude": "-0.84582000",
    "longitude": "-80.16389000"
  },
  {
    "name": "Cantón Portoviejo",
    "countryCode": "EC",
    "stateCode": "M",
    "latitude": "-1.05000000",
    "longitude": "-80.45000000"
  },
  {
    "name": "Cantón San Fernando",
    "countryCode": "EC",
    "stateCode": "A",
    "latitude": "-3.13349000",
    "longitude": "-79.26893000"
  },
  {
    "name": "Catarama",
    "countryCode": "EC",
    "stateCode": "R",
    "latitude": "-1.57504000",
    "longitude": "-79.45998000"
  },
  {
    "name": "Cayambe",
    "countryCode": "EC",
    "stateCode": "P",
    "latitude": "0.04084000",
    "longitude": "-78.14524000"
  },
  {
    "name": "Cañar",
    "countryCode": "EC",
    "stateCode": "F",
    "latitude": "-2.56062000",
    "longitude": "-78.93940000"
  },
  {
    "name": "Chone",
    "countryCode": "EC",
    "stateCode": "M",
    "latitude": "-0.69819000",
    "longitude": "-80.09361000"
  },
  {
    "name": "Colimes",
    "countryCode": "EC",
    "stateCode": "G",
    "latitude": "-1.54553000",
    "longitude": "-80.01165000"
  },
  {
    "name": "Coronel Marcelino Maridueña",
    "countryCode": "EC",
    "stateCode": "G",
    "latitude": "-2.20924000",
    "longitude": "-79.43248000"
  },
  {
    "name": "Cotacachi",
    "countryCode": "EC",
    "stateCode": "I",
    "latitude": "0.30107000",
    "longitude": "-78.26428000"
  },
  {
    "name": "Cuenca",
    "countryCode": "EC",
    "stateCode": "A",
    "latitude": "-2.90055000",
    "longitude": "-79.00453000"
  },
  {
    "name": "El Triunfo",
    "countryCode": "EC",
    "stateCode": "G",
    "latitude": "-1.93333000",
    "longitude": "-79.96667000"
  },
  {
    "name": "El Ángel",
    "countryCode": "EC",
    "stateCode": "C",
    "latitude": "0.62279000",
    "longitude": "-77.94003000"
  },
  {
    "name": "Eloy Alfaro",
    "countryCode": "EC",
    "stateCode": "G",
    "latitude": "-2.17579000",
    "longitude": "-79.85519000"
  },
  {
    "name": "Esmeraldas",
    "countryCode": "EC",
    "stateCode": "E",
    "latitude": "0.95920000",
    "longitude": "-79.65397000"
  },
  {
    "name": "Francisco de Orellana Canton",
    "countryCode": "EC",
    "stateCode": "D",
    "latitude": "-0.46667000",
    "longitude": "-76.96667000"
  },
  {
    "name": "Gualaceo",
    "countryCode": "EC",
    "stateCode": "A",
    "latitude": "-2.89264000",
    "longitude": "-78.77814000"
  },
  {
    "name": "Gualaquiza",
    "countryCode": "EC",
    "stateCode": "S",
    "latitude": "-3.40359000",
    "longitude": "-78.58166000"
  },
  {
    "name": "Guano",
    "countryCode": "EC",
    "stateCode": "H",
    "latitude": "-1.60789000",
    "longitude": "-78.63105000"
  },
  {
    "name": "Guaranda",
    "countryCode": "EC",
    "stateCode": "B",
    "latitude": "-1.59263000",
    "longitude": "-79.00098000"
  },
  {
    "name": "Guayaquil",
    "countryCode": "EC",
    "stateCode": "G",
    "latitude": "-2.19616000",
    "longitude": "-79.88621000"
  },
  {
    "name": "Huaquillas",
    "countryCode": "EC",
    "stateCode": "O",
    "latitude": "-3.47523000",
    "longitude": "-80.23084000"
  },
  {
    "name": "Ibarra",
    "countryCode": "EC",
    "stateCode": "I",
    "latitude": "0.35171000",
    "longitude": "-78.12233000"
  },
  {
    "name": "Jipijapa",
    "countryCode": "EC",
    "stateCode": "M",
    "latitude": "-1.34872000",
    "longitude": "-80.57875000"
  },
  {
    "name": "Junín",
    "countryCode": "EC",
    "stateCode": "M",
    "latitude": "-0.92777000",
    "longitude": "-80.20583000"
  },
  {
    "name": "La Libertad",
    "countryCode": "EC",
    "stateCode": "SE",
    "latitude": "-2.23300000",
    "longitude": "-80.91039000"
  },
  {
    "name": "La Maná",
    "countryCode": "EC",
    "stateCode": "X",
    "latitude": "-0.94094000",
    "longitude": "-79.22506000"
  },
  {
    "name": "La Troncal",
    "countryCode": "EC",
    "stateCode": "F",
    "latitude": "-2.42355000",
    "longitude": "-79.33977000"
  },
  {
    "name": "La Unión",
    "countryCode": "EC",
    "stateCode": "A",
    "latitude": "-2.85000000",
    "longitude": "-78.78333000"
  },
  {
    "name": "Latacunga",
    "countryCode": "EC",
    "stateCode": "X",
    "latitude": "-0.93521000",
    "longitude": "-78.61554000"
  },
  {
    "name": "Llacao",
    "countryCode": "EC",
    "stateCode": "A",
    "latitude": "-2.86667000",
    "longitude": "-78.88333000"
  },
  {
    "name": "Loja",
    "countryCode": "EC",
    "stateCode": "L",
    "latitude": "-3.99313000",
    "longitude": "-79.20422000"
  },
  {
    "name": "Lomas de Sargentillo",
    "countryCode": "EC",
    "stateCode": "G",
    "latitude": "-1.88333000",
    "longitude": "-80.08333000"
  },
  {
    "name": "Loreto Canton",
    "countryCode": "EC",
    "stateCode": "D",
    "latitude": "-0.69487000",
    "longitude": "-77.30255000"
  },
  {
    "name": "Macas",
    "countryCode": "EC",
    "stateCode": "S",
    "latitude": "-2.30868000",
    "longitude": "-78.11135000"
  },
  {
    "name": "Machachi",
    "countryCode": "EC",
    "stateCode": "P",
    "latitude": "-0.51011000",
    "longitude": "-78.56712000"
  },
  {
    "name": "Machala",
    "countryCode": "EC",
    "stateCode": "O",
    "latitude": "-3.25861000",
    "longitude": "-79.96053000"
  },
  {
    "name": "Manta",
    "countryCode": "EC",
    "stateCode": "M",
    "latitude": "-0.96212000",
    "longitude": "-80.71271000"
  },
  {
    "name": "Milagro",
    "countryCode": "EC",
    "stateCode": "G",
    "latitude": "-2.13404000",
    "longitude": "-79.59415000"
  },
  {
    "name": "Montalvo",
    "countryCode": "EC",
    "stateCode": "R",
    "latitude": "-1.79008000",
    "longitude": "-79.28759000"
  },
  {
    "name": "Montecristi",
    "countryCode": "EC",
    "stateCode": "M",
    "latitude": "-1.04576000",
    "longitude": "-80.65889000"
  },
  {
    "name": "Muisne",
    "countryCode": "EC",
    "stateCode": "E",
    "latitude": "0.61129000",
    "longitude": "-80.01863000"
  },
  {
    "name": "Naranjal",
    "countryCode": "EC",
    "stateCode": "G",
    "latitude": "-2.67364000",
    "longitude": "-79.61830000"
  },
  {
    "name": "Naranjito",
    "countryCode": "EC",
    "stateCode": "G",
    "latitude": "-2.16671000",
    "longitude": "-79.46540000"
  },
  {
    "name": "Nueva Loja",
    "countryCode": "EC",
    "stateCode": "U",
    "latitude": "0.08600000",
    "longitude": "-76.89528000"
  },
  {
    "name": "Nulti",
    "countryCode": "EC",
    "stateCode": "A",
    "latitude": "-2.91667000",
    "longitude": "-78.85000000"
  },
  {
    "name": "Otavalo",
    "countryCode": "EC",
    "stateCode": "I",
    "latitude": "0.23457000",
    "longitude": "-78.26248000"
  },
  {
    "name": "Paján",
    "countryCode": "EC",
    "stateCode": "M",
    "latitude": "-1.55238000",
    "longitude": "-80.42958000"
  },
  {
    "name": "Palenque",
    "countryCode": "EC",
    "stateCode": "R",
    "latitude": "-1.43795000",
    "longitude": "-79.75647000"
  },
  {
    "name": "Palestina",
    "countryCode": "EC",
    "stateCode": "G",
    "latitude": "-1.93709000",
    "longitude": "-79.71396000"
  },
  {
    "name": "Palora",
    "countryCode": "EC",
    "stateCode": "S",
    "latitude": "-1.70131000",
    "longitude": "-77.96516000"
  },
  {
    "name": "Pampanal de Bolívar",
    "countryCode": "EC",
    "stateCode": "E",
    "latitude": "1.35251000",
    "longitude": "-78.89360000"
  },
  {
    "name": "Pasaje",
    "countryCode": "EC",
    "stateCode": "O",
    "latitude": "-3.32561000",
    "longitude": "-79.80697000"
  },
  {
    "name": "Pedernales",
    "countryCode": "EC",
    "stateCode": "M",
    "latitude": "0.07167000",
    "longitude": "-80.05250000"
  },
  {
    "name": "Pedro Carbo",
    "countryCode": "EC",
    "stateCode": "G",
    "latitude": "-1.81563000",
    "longitude": "-80.23309000"
  },
  {
    "name": "Pelileo",
    "countryCode": "EC",
    "stateCode": "T",
    "latitude": "-1.32990000",
    "longitude": "-78.54341000"
  },
  {
    "name": "Pimampiro",
    "countryCode": "EC",
    "stateCode": "I",
    "latitude": "0.39116000",
    "longitude": "-77.94068000"
  },
  {
    "name": "Piñas",
    "countryCode": "EC",
    "stateCode": "O",
    "latitude": "-3.68107000",
    "longitude": "-79.68083000"
  },
  {
    "name": "Playas",
    "countryCode": "EC",
    "stateCode": "G",
    "latitude": "-2.63199000",
    "longitude": "-80.38808000"
  },
  {
    "name": "Portovelo",
    "countryCode": "EC",
    "stateCode": "O",
    "latitude": "-3.72145000",
    "longitude": "-79.62187000"
  },
  {
    "name": "Portoviejo",
    "countryCode": "EC",
    "stateCode": "M",
    "latitude": "-1.05458000",
    "longitude": "-80.45445000"
  },
  {
    "name": "Puerto Ayora",
    "countryCode": "EC",
    "stateCode": "W",
    "latitude": "-0.74018000",
    "longitude": "-90.31380000"
  },
  {
    "name": "Puerto Baquerizo Moreno",
    "countryCode": "EC",
    "stateCode": "W",
    "latitude": "-0.90172000",
    "longitude": "-89.61021000"
  },
  {
    "name": "Puerto Bolívar",
    "countryCode": "EC",
    "stateCode": "O",
    "latitude": "-3.26649000",
    "longitude": "-79.99749000"
  },
  {
    "name": "Puerto Francisco de Orellana",
    "countryCode": "EC",
    "stateCode": "D",
    "latitude": "-0.46645000",
    "longitude": "-76.98719000"
  },
  {
    "name": "Puerto Villamil",
    "countryCode": "EC",
    "stateCode": "W",
    "latitude": "-0.95542000",
    "longitude": "-90.96654000"
  },
  {
    "name": "Pujilí",
    "countryCode": "EC",
    "stateCode": "X",
    "latitude": "-0.95759000",
    "longitude": "-78.69636000"
  },
  {
    "name": "Puyo",
    "countryCode": "EC",
    "stateCode": "Y",
    "latitude": "-1.48369000",
    "longitude": "-78.00257000"
  },
  {
    "name": "Píllaro",
    "countryCode": "EC",
    "stateCode": "T",
    "latitude": "-1.17414000",
    "longitude": "-78.54676000"
  },
  {
    "name": "Quevedo",
    "countryCode": "EC",
    "stateCode": "R",
    "latitude": "-1.02863000",
    "longitude": "-79.46352000"
  },
  {
    "name": "Quito",
    "countryCode": "EC",
    "stateCode": "P",
    "latitude": "-0.22985000",
    "longitude": "-78.52495000"
  },
  {
    "name": "Rio Verde",
    "countryCode": "EC",
    "stateCode": "E",
    "latitude": "1.06235000",
    "longitude": "-79.39939000"
  },
  {
    "name": "Riobamba",
    "countryCode": "EC",
    "stateCode": "H",
    "latitude": "-1.67098000",
    "longitude": "-78.64712000"
  },
  {
    "name": "Rocafuerte",
    "countryCode": "EC",
    "stateCode": "M",
    "latitude": "-0.92360000",
    "longitude": "-80.44946000"
  },
  {
    "name": "Rosa Zarate",
    "countryCode": "EC",
    "stateCode": "E",
    "latitude": "0.32779000",
    "longitude": "-79.47407000"
  },
  {
    "name": "Salinas",
    "countryCode": "EC",
    "stateCode": "SE",
    "latitude": "-2.21452000",
    "longitude": "-80.95151000"
  },
  {
    "name": "Samborondón",
    "countryCode": "EC",
    "stateCode": "G",
    "latitude": "-1.96276000",
    "longitude": "-79.72402000"
  },
  {
    "name": "San Gabriel",
    "countryCode": "EC",
    "stateCode": "C",
    "latitude": "0.59318000",
    "longitude": "-77.83078000"
  },
  {
    "name": "San Lorenzo de Esmeraldas",
    "countryCode": "EC",
    "stateCode": "E",
    "latitude": "1.28626000",
    "longitude": "-78.83514000"
  },
  {
    "name": "San Miguel",
    "countryCode": "EC",
    "stateCode": "B",
    "latitude": "-1.70884000",
    "longitude": "-79.04311000"
  },
  {
    "name": "San Miguel de Salcedo",
    "countryCode": "EC",
    "stateCode": "X",
    "latitude": "-1.04547000",
    "longitude": "-78.59063000"
  },
  {
    "name": "San Vicente",
    "countryCode": "EC",
    "stateCode": "M",
    "latitude": "-0.60435000",
    "longitude": "-80.40267000"
  },
  {
    "name": "Sangolquí",
    "countryCode": "EC",
    "stateCode": "P",
    "latitude": "-0.33405000",
    "longitude": "-78.45217000"
  },
  {
    "name": "Santa Ana",
    "countryCode": "EC",
    "stateCode": "M",
    "latitude": "-1.20726000",
    "longitude": "-80.37132000"
  },
  {
    "name": "Santa Elena",
    "countryCode": "EC",
    "stateCode": "SE",
    "latitude": "-2.22622000",
    "longitude": "-80.85873000"
  },
  {
    "name": "Santa Lucía",
    "countryCode": "EC",
    "stateCode": "G",
    "latitude": "-2.18333000",
    "longitude": "-80.00000000"
  },
  {
    "name": "Santa Rosa",
    "countryCode": "EC",
    "stateCode": "O",
    "latitude": "-3.44882000",
    "longitude": "-79.95952000"
  },
  {
    "name": "Santo Domingo de los Colorados",
    "countryCode": "EC",
    "stateCode": "SD",
    "latitude": "-0.25305000",
    "longitude": "-79.17536000"
  },
  {
    "name": "Saquisilí",
    "countryCode": "EC",
    "stateCode": "X",
    "latitude": "-0.83990000",
    "longitude": "-78.66700000"
  },
  {
    "name": "Sucre",
    "countryCode": "EC",
    "stateCode": "M",
    "latitude": "-1.27974000",
    "longitude": "-80.41885000"
  },
  {
    "name": "Sucúa",
    "countryCode": "EC",
    "stateCode": "S",
    "latitude": "-2.45866000",
    "longitude": "-78.17171000"
  },
  {
    "name": "Tena",
    "countryCode": "EC",
    "stateCode": "N",
    "latitude": "-0.99380000",
    "longitude": "-77.81286000"
  },
  {
    "name": "Tosagua",
    "countryCode": "EC",
    "stateCode": "M",
    "latitude": "-0.78679000",
    "longitude": "-80.23473000"
  },
  {
    "name": "Tulcán",
    "countryCode": "EC",
    "stateCode": "C",
    "latitude": "0.81187000",
    "longitude": "-77.71727000"
  },
  {
    "name": "Tutamandahostel",
    "countryCode": "EC",
    "stateCode": "P",
    "latitude": "-0.19727000",
    "longitude": "-78.49750000"
  },
  {
    "name": "Valdez",
    "countryCode": "EC",
    "stateCode": "E",
    "latitude": "1.24917000",
    "longitude": "-78.98306000"
  },
  {
    "name": "Velasco Ibarra",
    "countryCode": "EC",
    "stateCode": "G",
    "latitude": "-1.04376000",
    "longitude": "-79.63837000"
  },
  {
    "name": "Ventanas",
    "countryCode": "EC",
    "stateCode": "R",
    "latitude": "-1.44158000",
    "longitude": "-79.45943000"
  },
  {
    "name": "Vinces",
    "countryCode": "EC",
    "stateCode": "R",
    "latitude": "-1.55611000",
    "longitude": "-79.75191000"
  },
  {
    "name": "Yaguachi Nuevo",
    "countryCode": "EC",
    "stateCode": "G",
    "latitude": "-2.09680000",
    "longitude": "-79.69485000"
  },
  {
    "name": "Yantzaza",
    "countryCode": "EC",
    "stateCode": "Z",
    "latitude": "-3.83261000",
    "longitude": "-78.76076000"
  },
  {
    "name": "Zamora",
    "countryCode": "EC",
    "stateCode": "Z",
    "latitude": "-4.06685000",
    "longitude": "-78.95488000"
  },
  {
    "name": "Zaruma",
    "countryCode": "EC",
    "stateCode": "O",
    "latitude": "-3.69132000",
    "longitude": "-79.61174000"
  }
]