[
  {
    "name": "Abomsa",
    "countryCode": "ET",
    "stateCode": "AM",
    "latitude": "9.98333000",
    "longitude": "39.98333000"
  },
  {
    "name": "Addiet Canna",
    "countryCode": "ET",
    "stateCode": "AM",
    "latitude": "11.26667000",
    "longitude": "37.48333000"
  },
  {
    "name": "Addis Ababa",
    "countryCode": "ET",
    "stateCode": "AA",
    "latitude": "9.02497000",
    "longitude": "38.74689000"
  },
  {
    "name": "Administrative Zone 1",
    "countryCode": "ET",
    "stateCode": "GA",
    "latitude": "8.14699000",
    "longitude": "33.97335000"
  },
  {
    "name": "Administrative Zone 2",
    "countryCode": "ET",
    "stateCode": "AF",
    "latitude": "13.68513000",
    "longitude": "40.05615000"
  },
  {
    "name": "Administrative Zone 3",
    "countryCode": "ET",
    "stateCode": "AF",
    "latitude": "10.00902000",
    "longitude": "40.47394000"
  },
  {
    "name": "Afder Zone",
    "countryCode": "ET",
    "stateCode": "SO",
    "latitude": "5.25000000",
    "longitude": "43.00000000"
  },
  {
    "name": "Alaba Special Wereda",
    "countryCode": "ET",
    "stateCode": "SN",
    "latitude": "7.45347000",
    "longitude": "38.21189000"
  },
  {
    "name": "Arba Minch",
    "countryCode": "ET",
    "stateCode": "SN",
    "latitude": "6.03333000",
    "longitude": "37.55000000"
  },
  {
    "name": "Arsi Zone",
    "countryCode": "ET",
    "stateCode": "OR",
    "latitude": "7.50000000",
    "longitude": "39.50000000"
  },
  {
    "name": "Asaita",
    "countryCode": "ET",
    "stateCode": "AF",
    "latitude": "11.56838000",
    "longitude": "41.43869000"
  },
  {
    "name": "Asosa",
    "countryCode": "ET",
    "stateCode": "BE",
    "latitude": "10.00000000",
    "longitude": "34.50000000"
  },
  {
    "name": "Axum",
    "countryCode": "ET",
    "stateCode": "TI",
    "latitude": "14.12109000",
    "longitude": "38.72337000"
  },
  {
    "name": "Bahir Dar",
    "countryCode": "ET",
    "stateCode": "AM",
    "latitude": "11.59364000",
    "longitude": "37.39077000"
  },
  {
    "name": "Bako",
    "countryCode": "ET",
    "stateCode": "SN",
    "latitude": "5.78333000",
    "longitude": "36.56667000"
  },
  {
    "name": "Batī",
    "countryCode": "ET",
    "stateCode": "AM",
    "latitude": "11.19152000",
    "longitude": "40.01675000"
  },
  {
    "name": "Bedelē",
    "countryCode": "ET",
    "stateCode": "OR",
    "latitude": "8.45600000",
    "longitude": "36.35302000"
  },
  {
    "name": "Bedēsa",
    "countryCode": "ET",
    "stateCode": "OR",
    "latitude": "8.90000000",
    "longitude": "40.78333000"
  },
  {
    "name": "Bench Maji Zone",
    "countryCode": "ET",
    "stateCode": "SN",
    "latitude": "6.45994000",
    "longitude": "35.30549000"
  },
  {
    "name": "Bichena",
    "countryCode": "ET",
    "stateCode": "AM",
    "latitude": "10.45000000",
    "longitude": "38.20000000"
  },
  {
    "name": "Bishoftu",
    "countryCode": "ET",
    "stateCode": "OR",
    "latitude": "8.75225000",
    "longitude": "38.97846000"
  },
  {
    "name": "Bodītī",
    "countryCode": "ET",
    "stateCode": "SN",
    "latitude": "6.96667000",
    "longitude": "37.86667000"
  },
  {
    "name": "Bonga",
    "countryCode": "ET",
    "stateCode": "SN",
    "latitude": "7.28333000",
    "longitude": "36.23333000"
  },
  {
    "name": "Burē",
    "countryCode": "ET",
    "stateCode": "AM",
    "latitude": "10.70000000",
    "longitude": "37.06667000"
  },
  {
    "name": "Butajīra",
    "countryCode": "ET",
    "stateCode": "SN",
    "latitude": "8.11667000",
    "longitude": "38.36667000"
  },
  {
    "name": "Dabat",
    "countryCode": "ET",
    "stateCode": "AM",
    "latitude": "12.98417000",
    "longitude": "37.76500000"
  },
  {
    "name": "Debark’",
    "countryCode": "ET",
    "stateCode": "AM",
    "latitude": "13.15611000",
    "longitude": "37.89806000"
  },
  {
    "name": "Debre Birhan",
    "countryCode": "ET",
    "stateCode": "AM",
    "latitude": "9.67954000",
    "longitude": "39.53262000"
  },
  {
    "name": "Debre Mark’os",
    "countryCode": "ET",
    "stateCode": "AM",
    "latitude": "10.35000000",
    "longitude": "37.73333000"
  },
  {
    "name": "Debre Sīna",
    "countryCode": "ET",
    "stateCode": "AM",
    "latitude": "9.84752000",
    "longitude": "39.76027000"
  },
  {
    "name": "Debre Tabor",
    "countryCode": "ET",
    "stateCode": "AM",
    "latitude": "11.85000000",
    "longitude": "38.01667000"
  },
  {
    "name": "Debre Werk’",
    "countryCode": "ET",
    "stateCode": "AM",
    "latitude": "10.66667000",
    "longitude": "38.16667000"
  },
  {
    "name": "Deder",
    "countryCode": "ET",
    "stateCode": "OR",
    "latitude": "9.31168000",
    "longitude": "41.44301000"
  },
  {
    "name": "Degehabur Zone",
    "countryCode": "ET",
    "stateCode": "SO",
    "latitude": "8.25000000",
    "longitude": "43.75000000"
  },
  {
    "name": "Dejen",
    "countryCode": "ET",
    "stateCode": "AM",
    "latitude": "10.16667000",
    "longitude": "38.13333000"
  },
  {
    "name": "Dembī Dolo",
    "countryCode": "ET",
    "stateCode": "OR",
    "latitude": "8.53333000",
    "longitude": "34.80000000"
  },
  {
    "name": "Desē",
    "countryCode": "ET",
    "stateCode": "AM",
    "latitude": "11.13333000",
    "longitude": "39.63333000"
  },
  {
    "name": "Dire Dawa",
    "countryCode": "ET",
    "stateCode": "DD",
    "latitude": "9.59306000",
    "longitude": "41.86611000"
  },
  {
    "name": "Dodola",
    "countryCode": "ET",
    "stateCode": "OR",
    "latitude": "6.98333000",
    "longitude": "39.18333000"
  },
  {
    "name": "Dubti",
    "countryCode": "ET",
    "stateCode": "AF",
    "latitude": "11.73292000",
    "longitude": "41.08200000"
  },
  {
    "name": "Dīla",
    "countryCode": "ET",
    "stateCode": "SN",
    "latitude": "6.41667000",
    "longitude": "38.31667000"
  },
  {
    "name": "East Harerghe Zone",
    "countryCode": "ET",
    "stateCode": "OR",
    "latitude": "8.70114000",
    "longitude": "42.00241000"
  },
  {
    "name": "East Shewa Zone",
    "countryCode": "ET",
    "stateCode": "OR",
    "latitude": "8.21353000",
    "longitude": "38.84809000"
  },
  {
    "name": "East Wellega Zone",
    "countryCode": "ET",
    "stateCode": "OR",
    "latitude": "9.51928000",
    "longitude": "36.75762000"
  },
  {
    "name": "Felege Neway",
    "countryCode": "ET",
    "stateCode": "SN",
    "latitude": "6.30000000",
    "longitude": "36.88333000"
  },
  {
    "name": "Fichē",
    "countryCode": "ET",
    "stateCode": "OR",
    "latitude": "9.80000000",
    "longitude": "38.73333000"
  },
  {
    "name": "Finote Selam",
    "countryCode": "ET",
    "stateCode": "AM",
    "latitude": "10.70000000",
    "longitude": "37.26667000"
  },
  {
    "name": "Gambēla",
    "countryCode": "ET",
    "stateCode": "GA",
    "latitude": "8.25000000",
    "longitude": "34.58333000"
  },
  {
    "name": "Gebre Guracha",
    "countryCode": "ET",
    "stateCode": "OR",
    "latitude": "9.80000000",
    "longitude": "38.40000000"
  },
  {
    "name": "Gedeo Zone",
    "countryCode": "ET",
    "stateCode": "SN",
    "latitude": "6.12727000",
    "longitude": "38.27716000"
  },
  {
    "name": "Gelemso",
    "countryCode": "ET",
    "stateCode": "OR",
    "latitude": "8.81667000",
    "longitude": "40.51667000"
  },
  {
    "name": "Genet",
    "countryCode": "ET",
    "stateCode": "OR",
    "latitude": "9.06667000",
    "longitude": "38.50000000"
  },
  {
    "name": "Gewanē",
    "countryCode": "ET",
    "stateCode": "AF",
    "latitude": "10.16658000",
    "longitude": "40.64689000"
  },
  {
    "name": "Gimbi",
    "countryCode": "ET",
    "stateCode": "OR",
    "latitude": "9.17031000",
    "longitude": "35.83491000"
  },
  {
    "name": "Ginir",
    "countryCode": "ET",
    "stateCode": "OR",
    "latitude": "7.13952000",
    "longitude": "40.71083000"
  },
  {
    "name": "Goba",
    "countryCode": "ET",
    "stateCode": "OR",
    "latitude": "7.01667000",
    "longitude": "39.98333000"
  },
  {
    "name": "Gode Zone",
    "countryCode": "ET",
    "stateCode": "SO",
    "latitude": "6.00000000",
    "longitude": "43.75000000"
  },
  {
    "name": "Gondar",
    "countryCode": "ET",
    "stateCode": "AM",
    "latitude": "12.60000000",
    "longitude": "37.46667000"
  },
  {
    "name": "Gorē",
    "countryCode": "ET",
    "stateCode": "OR",
    "latitude": "8.15000000",
    "longitude": "35.53333000"
  },
  {
    "name": "Guji Zone",
    "countryCode": "ET",
    "stateCode": "OR",
    "latitude": "5.58800000",
    "longitude": "39.06700000"
  },
  {
    "name": "Guraghe Zone",
    "countryCode": "ET",
    "stateCode": "SN",
    "latitude": "8.25000000",
    "longitude": "38.00000000"
  },
  {
    "name": "Gēdo",
    "countryCode": "ET",
    "stateCode": "OR",
    "latitude": "9.01667000",
    "longitude": "37.45000000"
  },
  {
    "name": "Gīdolē",
    "countryCode": "ET",
    "stateCode": "SN",
    "latitude": "5.65000000",
    "longitude": "37.36667000"
  },
  {
    "name": "Hadiya Zone",
    "countryCode": "ET",
    "stateCode": "SN",
    "latitude": "7.50000000",
    "longitude": "37.75000000"
  },
  {
    "name": "Hagere Maryam",
    "countryCode": "ET",
    "stateCode": "OR",
    "latitude": "5.63418000",
    "longitude": "38.23603000"
  },
  {
    "name": "Harar",
    "countryCode": "ET",
    "stateCode": "HA",
    "latitude": "9.31387000",
    "longitude": "42.11815000"
  },
  {
    "name": "Hawassa",
    "countryCode": "ET",
    "stateCode": "SN",
    "latitude": "7.06205000",
    "longitude": "38.47635000"
  },
  {
    "name": "Hosa’ina",
    "countryCode": "ET",
    "stateCode": "SN",
    "latitude": "7.54978000",
    "longitude": "37.85374000"
  },
  {
    "name": "Huruta",
    "countryCode": "ET",
    "stateCode": "OR",
    "latitude": "8.15000000",
    "longitude": "39.35000000"
  },
  {
    "name": "Hāgere Hiywet",
    "countryCode": "ET",
    "stateCode": "OR",
    "latitude": "8.98333000",
    "longitude": "37.85000000"
  },
  {
    "name": "Hāgere Selam",
    "countryCode": "ET",
    "stateCode": "SN",
    "latitude": "6.48333000",
    "longitude": "38.51667000"
  },
  {
    "name": "Hīrna",
    "countryCode": "ET",
    "stateCode": "OR",
    "latitude": "9.21667000",
    "longitude": "41.10000000"
  },
  {
    "name": "Illubabor Zone",
    "countryCode": "ET",
    "stateCode": "OR",
    "latitude": "8.27526000",
    "longitude": "35.75596000"
  },
  {
    "name": "Inda Silasē",
    "countryCode": "ET",
    "stateCode": "TI",
    "latitude": "14.10307000",
    "longitude": "38.28289000"
  },
  {
    "name": "Jijiga",
    "countryCode": "ET",
    "stateCode": "SO",
    "latitude": "9.35000000",
    "longitude": "42.80000000"
  },
  {
    "name": "Jimma",
    "countryCode": "ET",
    "stateCode": "OR",
    "latitude": "7.67344000",
    "longitude": "36.83441000"
  },
  {
    "name": "Jimma Zone",
    "countryCode": "ET",
    "stateCode": "OR",
    "latitude": "7.66667000",
    "longitude": "37.00000000"
  },
  {
    "name": "Jinka",
    "countryCode": "ET",
    "stateCode": "SN",
    "latitude": "5.65000000",
    "longitude": "36.65000000"
  },
  {
    "name": "Kembata Alaba Tembaro Zone",
    "countryCode": "ET",
    "stateCode": "SN",
    "latitude": "7.27039000",
    "longitude": "37.77887000"
  },
  {
    "name": "Kemisē",
    "countryCode": "ET",
    "stateCode": "AM",
    "latitude": "10.71668000",
    "longitude": "39.86997000"
  },
  {
    "name": "Kibre Mengist",
    "countryCode": "ET",
    "stateCode": "OR",
    "latitude": "5.88333000",
    "longitude": "38.98333000"
  },
  {
    "name": "Kofelē",
    "countryCode": "ET",
    "stateCode": "OR",
    "latitude": "7.06667000",
    "longitude": "38.78333000"
  },
  {
    "name": "Kombolcha",
    "countryCode": "ET",
    "stateCode": "AM",
    "latitude": "11.08155000",
    "longitude": "39.74339000"
  },
  {
    "name": "Konso",
    "countryCode": "ET",
    "stateCode": "SN",
    "latitude": "5.25000000",
    "longitude": "37.48333000"
  },
  {
    "name": "Korem",
    "countryCode": "ET",
    "stateCode": "TI",
    "latitude": "12.50583000",
    "longitude": "39.52278000"
  },
  {
    "name": "K’olīto",
    "countryCode": "ET",
    "stateCode": "SN",
    "latitude": "7.31667000",
    "longitude": "38.08333000"
  },
  {
    "name": "Lalībela",
    "countryCode": "ET",
    "stateCode": "AM",
    "latitude": "12.03219000",
    "longitude": "39.04756000"
  },
  {
    "name": "Leku",
    "countryCode": "ET",
    "stateCode": "SN",
    "latitude": "6.87309000",
    "longitude": "38.44425000"
  },
  {
    "name": "Liben zone",
    "countryCode": "ET",
    "stateCode": "SO",
    "latitude": "4.75000000",
    "longitude": "40.50000000"
  },
  {
    "name": "Lobuni",
    "countryCode": "ET",
    "stateCode": "SN",
    "latitude": "4.83333000",
    "longitude": "36.10000000"
  },
  {
    "name": "Maych’ew",
    "countryCode": "ET",
    "stateCode": "TI",
    "latitude": "12.78750000",
    "longitude": "39.54222000"
  },
  {
    "name": "Mek'ele",
    "countryCode": "ET",
    "stateCode": "TI",
    "latitude": "13.49667000",
    "longitude": "39.47528000"
  },
  {
    "name": "Mendī",
    "countryCode": "ET",
    "stateCode": "OR",
    "latitude": "9.80000000",
    "longitude": "35.10000000"
  },
  {
    "name": "Metahāra",
    "countryCode": "ET",
    "stateCode": "OR",
    "latitude": "8.90000000",
    "longitude": "39.91667000"
  },
  {
    "name": "Metekel",
    "countryCode": "ET",
    "stateCode": "BE",
    "latitude": "10.42673000",
    "longitude": "35.71975000"
  },
  {
    "name": "Metu",
    "countryCode": "ET",
    "stateCode": "OR",
    "latitude": "8.30000000",
    "longitude": "35.58333000"
  },
  {
    "name": "Mojo",
    "countryCode": "ET",
    "stateCode": "OR",
    "latitude": "8.58679000",
    "longitude": "39.12111000"
  },
  {
    "name": "Mēga",
    "countryCode": "ET",
    "stateCode": "OR",
    "latitude": "4.05000000",
    "longitude": "38.30000000"
  },
  {
    "name": "Mīzan Teferī",
    "countryCode": "ET",
    "stateCode": "SN",
    "latitude": "6.99865000",
    "longitude": "35.58879000"
  },
  {
    "name": "Nazrēt",
    "countryCode": "ET",
    "stateCode": "OR",
    "latitude": "8.55000000",
    "longitude": "39.26667000"
  },
  {
    "name": "Nejo",
    "countryCode": "ET",
    "stateCode": "OR",
    "latitude": "9.50000000",
    "longitude": "35.50000000"
  },
  {
    "name": "North Shewa Zone",
    "countryCode": "ET",
    "stateCode": "AM",
    "latitude": "9.76900000",
    "longitude": "39.66800000"
  },
  {
    "name": "North Shewa Zone",
    "countryCode": "ET",
    "stateCode": "OR",
    "latitude": "9.66915000",
    "longitude": "38.81240000"
  },
  {
    "name": "North Wollo Zone",
    "countryCode": "ET",
    "stateCode": "AM",
    "latitude": "11.92000000",
    "longitude": "39.10000000"
  },
  {
    "name": "Robīt",
    "countryCode": "ET",
    "stateCode": "AM",
    "latitude": "12.01667000",
    "longitude": "39.63333000"
  },
  {
    "name": "Sebeta",
    "countryCode": "ET",
    "stateCode": "OR",
    "latitude": "8.91667000",
    "longitude": "38.61667000"
  },
  {
    "name": "Semera",
    "countryCode": "ET",
    "stateCode": "AF",
    "latitude": "11.79342000",
    "longitude": "41.00578000"
  },
  {
    "name": "Sendafa",
    "countryCode": "ET",
    "stateCode": "OR",
    "latitude": "9.15203000",
    "longitude": "39.02335000"
  },
  {
    "name": "Shakiso",
    "countryCode": "ET",
    "stateCode": "OR",
    "latitude": "5.76494000",
    "longitude": "38.91006000"
  },
  {
    "name": "Shambu",
    "countryCode": "ET",
    "stateCode": "OR",
    "latitude": "9.56667000",
    "longitude": "37.10000000"
  },
  {
    "name": "Shashemenē",
    "countryCode": "ET",
    "stateCode": "OR",
    "latitude": "7.20000000",
    "longitude": "38.60000000"
  },
  {
    "name": "Sheka Zone",
    "countryCode": "ET",
    "stateCode": "SN",
    "latitude": "7.56166000",
    "longitude": "35.40174000"
  },
  {
    "name": "Shinile Zone",
    "countryCode": "ET",
    "stateCode": "SO",
    "latitude": "10.17097000",
    "longitude": "41.83748000"
  },
  {
    "name": "Sidama Zone",
    "countryCode": "ET",
    "stateCode": "SN",
    "latitude": "6.71800000",
    "longitude": "38.44800000"
  },
  {
    "name": "Sirre",
    "countryCode": "ET",
    "stateCode": "OR",
    "latitude": "8.31667000",
    "longitude": "39.48333000"
  },
  {
    "name": "Sodo",
    "countryCode": "ET",
    "stateCode": "SN",
    "latitude": "6.86000000",
    "longitude": "37.76159000"
  },
  {
    "name": "South Gondar Zone",
    "countryCode": "ET",
    "stateCode": "AM",
    "latitude": "11.83850000",
    "longitude": "38.09954000"
  },
  {
    "name": "South Wollo Zone",
    "countryCode": "ET",
    "stateCode": "AM",
    "latitude": "11.00000000",
    "longitude": "39.25000000"
  },
  {
    "name": "Southeastern Tigray Zone",
    "countryCode": "ET",
    "stateCode": "TI",
    "latitude": "13.24797000",
    "longitude": "39.53156000"
  },
  {
    "name": "Southern Tigray Zone",
    "countryCode": "ET",
    "stateCode": "TI",
    "latitude": "12.96033000",
    "longitude": "39.52831000"
  },
  {
    "name": "Tippi",
    "countryCode": "ET",
    "stateCode": "SN",
    "latitude": "7.20000000",
    "longitude": "35.45000000"
  },
  {
    "name": "Tulu Bolo",
    "countryCode": "ET",
    "stateCode": "OR",
    "latitude": "8.66667000",
    "longitude": "38.21667000"
  },
  {
    "name": "Turmi",
    "countryCode": "ET",
    "stateCode": "SN",
    "latitude": "4.96667000",
    "longitude": "36.48333000"
  },
  {
    "name": "Wag Hemra Zone",
    "countryCode": "ET",
    "stateCode": "AM",
    "latitude": "12.76500000",
    "longitude": "38.84300000"
  },
  {
    "name": "Waliso",
    "countryCode": "ET",
    "stateCode": "OR",
    "latitude": "8.53417000",
    "longitude": "37.96515000"
  },
  {
    "name": "Wendo",
    "countryCode": "ET",
    "stateCode": "SN",
    "latitude": "6.60000000",
    "longitude": "38.41667000"
  },
  {
    "name": "Wenjī",
    "countryCode": "ET",
    "stateCode": "OR",
    "latitude": "8.45000000",
    "longitude": "39.28333000"
  },
  {
    "name": "Were Īlu",
    "countryCode": "ET",
    "stateCode": "AM",
    "latitude": "10.58964000",
    "longitude": "39.43767000"
  },
  {
    "name": "Werota",
    "countryCode": "ET",
    "stateCode": "AM",
    "latitude": "11.91667000",
    "longitude": "37.70000000"
  },
  {
    "name": "West Harerghe Zone",
    "countryCode": "ET",
    "stateCode": "OR",
    "latitude": "8.67245000",
    "longitude": "40.84885000"
  },
  {
    "name": "West Wellega Zone",
    "countryCode": "ET",
    "stateCode": "OR",
    "latitude": "9.17283000",
    "longitude": "35.05279000"
  },
  {
    "name": "Wolayita Zone",
    "countryCode": "ET",
    "stateCode": "SN",
    "latitude": "6.84312000",
    "longitude": "37.70051000"
  },
  {
    "name": "Yabēlo",
    "countryCode": "ET",
    "stateCode": "OR",
    "latitude": "4.88333000",
    "longitude": "38.08333000"
  },
  {
    "name": "Yem",
    "countryCode": "ET",
    "stateCode": "SN",
    "latitude": "7.83333000",
    "longitude": "37.50000000"
  },
  {
    "name": "Yirga ‘Alem",
    "countryCode": "ET",
    "stateCode": "SN",
    "latitude": "6.75000000",
    "longitude": "38.41667000"
  },
  {
    "name": "Ziway",
    "countryCode": "ET",
    "stateCode": "OR",
    "latitude": "7.93333000",
    "longitude": "38.71667000"
  },
  {
    "name": "Ādīgrat",
    "countryCode": "ET",
    "stateCode": "TI",
    "latitude": "14.27700000",
    "longitude": "39.46200000"
  },
  {
    "name": "Ādīs Zemen",
    "countryCode": "ET",
    "stateCode": "AM",
    "latitude": "12.11667000",
    "longitude": "37.78333000"
  },
  {
    "name": "Ādīs ‘Alem",
    "countryCode": "ET",
    "stateCode": "OR",
    "latitude": "9.03333000",
    "longitude": "38.40000000"
  },
  {
    "name": "Āgaro",
    "countryCode": "ET",
    "stateCode": "OR",
    "latitude": "7.85000000",
    "longitude": "36.65000000"
  },
  {
    "name": "Āreka",
    "countryCode": "ET",
    "stateCode": "SN",
    "latitude": "7.06667000",
    "longitude": "37.70000000"
  },
  {
    "name": "Āsasa",
    "countryCode": "ET",
    "stateCode": "OR",
    "latitude": "7.10000000",
    "longitude": "39.20000000"
  },
  {
    "name": "Āsbe Teferī",
    "countryCode": "ET",
    "stateCode": "OR",
    "latitude": "9.08569000",
    "longitude": "40.86708000"
  },
  {
    "name": "Āwash",
    "countryCode": "ET",
    "stateCode": "AF",
    "latitude": "8.98333000",
    "longitude": "40.16667000"
  }
]