[
  {
    "name": "Ba",
    "countryCode": "FJ",
    "stateCode": "W",
    "latitude": "-17.53430000",
    "longitude": "177.67407000"
  },
  {
    "name": "Ba Province",
    "countryCode": "FJ",
    "stateCode": "W",
    "latitude": "-17.66667000",
    "longitude": "177.66667000"
  },
  {
    "name": "Bua Province",
    "countryCode": "FJ",
    "stateCode": "N",
    "latitude": "-16.83333000",
    "longitude": "178.75000000"
  },
  {
    "name": "Cakaudrove Province",
    "countryCode": "FJ",
    "stateCode": "N",
    "latitude": "-16.66667000",
    "longitude": "179.41667000"
  },
  {
    "name": "Kadavu Province",
    "countryCode": "FJ",
    "stateCode": "E",
    "latitude": "-18.99331000",
    "longitude": "178.22021000"
  },
  {
    "name": "Labasa",
    "countryCode": "FJ",
    "stateCode": "N",
    "latitude": "-16.43320000",
    "longitude": "179.36451000"
  },
  {
    "name": "Lau Province",
    "countryCode": "FJ",
    "stateCode": "E",
    "latitude": "-18.20488000",
    "longitude": "-178.79251000"
  },
  {
    "name": "Lautoka",
    "countryCode": "FJ",
    "stateCode": "W",
    "latitude": "-17.61686000",
    "longitude": "177.45049000"
  },
  {
    "name": "Levuka",
    "countryCode": "FJ",
    "stateCode": "E",
    "latitude": "-18.06667000",
    "longitude": "179.31667000"
  },
  {
    "name": "Lomaiviti Province",
    "countryCode": "FJ",
    "stateCode": "E",
    "latitude": "-17.66667000",
    "longitude": "178.80000000"
  },
  {
    "name": "Macuata Province",
    "countryCode": "FJ",
    "stateCode": "N",
    "latitude": "-16.50000000",
    "longitude": "179.25000000"
  },
  {
    "name": "Nadi",
    "countryCode": "FJ",
    "stateCode": "W",
    "latitude": "-17.80309000",
    "longitude": "177.41617000"
  },
  {
    "name": "Naitasiri Province",
    "countryCode": "FJ",
    "stateCode": "C",
    "latitude": "-17.83333000",
    "longitude": "178.25000000"
  },
  {
    "name": "Namosi Province",
    "countryCode": "FJ",
    "stateCode": "C",
    "latitude": "-18.05000000",
    "longitude": "178.13333000"
  },
  {
    "name": "Nandronga and Navosa Province",
    "countryCode": "FJ",
    "stateCode": "W",
    "latitude": "-18.00000000",
    "longitude": "177.66667000"
  },
  {
    "name": "Ra Province",
    "countryCode": "FJ",
    "stateCode": "W",
    "latitude": "-17.50000000",
    "longitude": "178.16667000"
  },
  {
    "name": "Rewa Province",
    "countryCode": "FJ",
    "stateCode": "C",
    "latitude": "-18.08333000",
    "longitude": "178.33333000"
  },
  {
    "name": "Serua Province",
    "countryCode": "FJ",
    "stateCode": "C",
    "latitude": "-18.16667000",
    "longitude": "178.00000000"
  },
  {
    "name": "Suva",
    "countryCode": "FJ",
    "stateCode": "C",
    "latitude": "-18.14161000",
    "longitude": "178.44149000"
  },
  {
    "name": "Tailevu Province",
    "countryCode": "FJ",
    "stateCode": "C",
    "latitude": "-17.83333000",
    "longitude": "178.50000000"
  }
]