[
  {
    "name": "Abasha",
    "countryCode": "GE",
    "stateCode": "SZ",
    "latitude": "42.20000000",
    "longitude": "42.20000000"
  },
  {
    "name": "Adigeni",
    "countryCode": "GE",
    "stateCode": "SJ",
    "latitude": "41.68191000",
    "longitude": "42.69867000"
  },
  {
    "name": "Adigeni Municipality",
    "countryCode": "GE",
    "stateCode": "SJ",
    "latitude": "41.71667000",
    "longitude": "42.73333000"
  },
  {
    "name": "Agara",
    "countryCode": "GE",
    "stateCode": "SK",
    "latitude": "42.03761000",
    "longitude": "43.82382000"
  },
  {
    "name": "Akhaldaba",
    "countryCode": "GE",
    "stateCode": "AJ",
    "latitude": "41.65395000",
    "longitude": "42.15163000"
  },
  {
    "name": "Akhaldaba",
    "countryCode": "GE",
    "stateCode": "SJ",
    "latitude": "41.92945000",
    "longitude": "43.48762000"
  },
  {
    "name": "Akhalgori",
    "countryCode": "GE",
    "stateCode": "MM",
    "latitude": "42.12597000",
    "longitude": "44.48333000"
  },
  {
    "name": "Akhalk’alak’i",
    "countryCode": "GE",
    "stateCode": "SJ",
    "latitude": "41.40514000",
    "longitude": "43.48629000"
  },
  {
    "name": "Akhaltsikhe",
    "countryCode": "GE",
    "stateCode": "SJ",
    "latitude": "41.63901000",
    "longitude": "42.98262000"
  },
  {
    "name": "Akhaltsikhis Munitsip’alit’et’i",
    "countryCode": "GE",
    "stateCode": "SJ",
    "latitude": "41.63333000",
    "longitude": "43.00000000"
  },
  {
    "name": "Akhmet’a",
    "countryCode": "GE",
    "stateCode": "KA",
    "latitude": "42.03111000",
    "longitude": "45.20750000"
  },
  {
    "name": "Akhmet’is Munitsip’alit’et’i",
    "countryCode": "GE",
    "stateCode": "KA",
    "latitude": "42.25000000",
    "longitude": "45.33333000"
  },
  {
    "name": "Ambrolauri",
    "countryCode": "GE",
    "stateCode": "RL",
    "latitude": "42.52111000",
    "longitude": "43.16222000"
  },
  {
    "name": "Ambrolauris Munitsip’alit’et’i",
    "countryCode": "GE",
    "stateCode": "RL",
    "latitude": "42.56667000",
    "longitude": "43.10000000"
  },
  {
    "name": "Aspindza",
    "countryCode": "GE",
    "stateCode": "SJ",
    "latitude": "41.57389000",
    "longitude": "43.24826000"
  },
  {
    "name": "Asp’indzis Munitsip’alit’et’i",
    "countryCode": "GE",
    "stateCode": "SJ",
    "latitude": "41.50000000",
    "longitude": "43.25000000"
  },
  {
    "name": "Baghdatis Munitsip’alit’et’i",
    "countryCode": "GE",
    "stateCode": "IM",
    "latitude": "42.00000000",
    "longitude": "42.90000000"
  },
  {
    "name": "Bakuriani",
    "countryCode": "GE",
    "stateCode": "SJ",
    "latitude": "41.74972000",
    "longitude": "43.53250000"
  },
  {
    "name": "Batumi",
    "countryCode": "GE",
    "stateCode": "AJ",
    "latitude": "41.64228000",
    "longitude": "41.63392000"
  },
  {
    "name": "Bich’vinta",
    "countryCode": "GE",
    "stateCode": "AB",
    "latitude": "43.16197000",
    "longitude": "40.34102000"
  },
  {
    "name": "Bolnisi",
    "countryCode": "GE",
    "stateCode": "KK",
    "latitude": "41.44794000",
    "longitude": "44.53838000"
  },
  {
    "name": "Bolnisis Munitsip’alit’et’i",
    "countryCode": "GE",
    "stateCode": "KK",
    "latitude": "41.36667000",
    "longitude": "44.51667000"
  },
  {
    "name": "Borjomi",
    "countryCode": "GE",
    "stateCode": "SJ",
    "latitude": "41.85272000",
    "longitude": "43.41284000"
  },
  {
    "name": "Chakvi",
    "countryCode": "GE",
    "stateCode": "AJ",
    "latitude": "41.72528000",
    "longitude": "41.73278000"
  },
  {
    "name": "Chiat’ura",
    "countryCode": "GE",
    "stateCode": "IM",
    "latitude": "42.29806000",
    "longitude": "43.29889000"
  },
  {
    "name": "Didi Lilo",
    "countryCode": "GE",
    "stateCode": "KK",
    "latitude": "41.73611000",
    "longitude": "44.96472000"
  },
  {
    "name": "Dioknisi",
    "countryCode": "GE",
    "stateCode": "AJ",
    "latitude": "41.62933000",
    "longitude": "42.39171000"
  },
  {
    "name": "Dmanisis Munitsip’alit’et’i",
    "countryCode": "GE",
    "stateCode": "KK",
    "latitude": "41.35000000",
    "longitude": "44.13333000"
  },
  {
    "name": "Dranda",
    "countryCode": "GE",
    "stateCode": "AB",
    "latitude": "42.87167000",
    "longitude": "41.15333000"
  },
  {
    "name": "Dzegvi",
    "countryCode": "GE",
    "stateCode": "MM",
    "latitude": "41.84569000",
    "longitude": "44.60097000"
  },
  {
    "name": "Gagra",
    "countryCode": "GE",
    "stateCode": "AB",
    "latitude": "43.27858000",
    "longitude": "40.27124000"
  },
  {
    "name": "Gali",
    "countryCode": "GE",
    "stateCode": "AB",
    "latitude": "42.62655000",
    "longitude": "41.73808000"
  },
  {
    "name": "Gantiadi",
    "countryCode": "GE",
    "stateCode": "AB",
    "latitude": "43.38111000",
    "longitude": "40.07944000"
  },
  {
    "name": "Gardabani",
    "countryCode": "GE",
    "stateCode": "KK",
    "latitude": "41.46054000",
    "longitude": "45.09283000"
  },
  {
    "name": "Gardabnis Munitsip’alit’et’i",
    "countryCode": "GE",
    "stateCode": "KK",
    "latitude": "41.61667000",
    "longitude": "45.00000000"
  },
  {
    "name": "Gori",
    "countryCode": "GE",
    "stateCode": "SK",
    "latitude": "41.98422000",
    "longitude": "44.11578000"
  },
  {
    "name": "Goris Munitsip’alit’et’i",
    "countryCode": "GE",
    "stateCode": "SK",
    "latitude": "42.06667000",
    "longitude": "44.11667000"
  },
  {
    "name": "Gudauri",
    "countryCode": "GE",
    "stateCode": "MM",
    "latitude": "42.47797000",
    "longitude": "44.47616000"
  },
  {
    "name": "Gudauta",
    "countryCode": "GE",
    "stateCode": "AB",
    "latitude": "43.10547000",
    "longitude": "40.62067000"
  },
  {
    "name": "Gurjaani",
    "countryCode": "GE",
    "stateCode": "KA",
    "latitude": "41.74292000",
    "longitude": "45.80111000"
  },
  {
    "name": "Java",
    "countryCode": "GE",
    "stateCode": "MM",
    "latitude": "42.39972000",
    "longitude": "43.93667000"
  },
  {
    "name": "Jvari",
    "countryCode": "GE",
    "stateCode": "SZ",
    "latitude": "42.71693000",
    "longitude": "42.05200000"
  },
  {
    "name": "Kaspi",
    "countryCode": "GE",
    "stateCode": "SK",
    "latitude": "41.92520000",
    "longitude": "44.42568000"
  },
  {
    "name": "Kelasuri",
    "countryCode": "GE",
    "stateCode": "AB",
    "latitude": "42.97877000",
    "longitude": "41.07067000"
  },
  {
    "name": "Kharagauli",
    "countryCode": "GE",
    "stateCode": "IM",
    "latitude": "42.02137000",
    "longitude": "43.19773000"
  },
  {
    "name": "Khashuri",
    "countryCode": "GE",
    "stateCode": "SK",
    "latitude": "41.99414000",
    "longitude": "43.59994000"
  },
  {
    "name": "Khelvachauri",
    "countryCode": "GE",
    "stateCode": "AJ",
    "latitude": "41.58556000",
    "longitude": "41.66889000"
  },
  {
    "name": "Khobi",
    "countryCode": "GE",
    "stateCode": "SZ",
    "latitude": "42.31558000",
    "longitude": "41.89871000"
  },
  {
    "name": "Khoni",
    "countryCode": "GE",
    "stateCode": "IM",
    "latitude": "42.32260000",
    "longitude": "42.42061000"
  },
  {
    "name": "Khulo",
    "countryCode": "GE",
    "stateCode": "AJ",
    "latitude": "41.64353000",
    "longitude": "42.30397000"
  },
  {
    "name": "Kobuleti",
    "countryCode": "GE",
    "stateCode": "AJ",
    "latitude": "41.82143000",
    "longitude": "41.77921000"
  },
  {
    "name": "Kutaisi",
    "countryCode": "GE",
    "stateCode": "IM",
    "latitude": "42.26791000",
    "longitude": "42.69459000"
  },
  {
    "name": "Kveda Chkhorots’q’u",
    "countryCode": "GE",
    "stateCode": "SZ",
    "latitude": "42.48103000",
    "longitude": "42.09661000"
  },
  {
    "name": "K’alak’i Chiat’ura",
    "countryCode": "GE",
    "stateCode": "IM",
    "latitude": "42.28333000",
    "longitude": "43.25000000"
  },
  {
    "name": "K’ulashi",
    "countryCode": "GE",
    "stateCode": "IM",
    "latitude": "42.20405000",
    "longitude": "42.34289000"
  },
  {
    "name": "Lagodekhi",
    "countryCode": "GE",
    "stateCode": "KA",
    "latitude": "41.82681000",
    "longitude": "46.27667000"
  },
  {
    "name": "Lanchkhuti",
    "countryCode": "GE",
    "stateCode": "GU",
    "latitude": "42.09027000",
    "longitude": "42.03239000"
  },
  {
    "name": "Lent’ekhi",
    "countryCode": "GE",
    "stateCode": "RL",
    "latitude": "42.78893000",
    "longitude": "42.72226000"
  },
  {
    "name": "Makhinjauri",
    "countryCode": "GE",
    "stateCode": "AJ",
    "latitude": "41.67385000",
    "longitude": "41.69401000"
  },
  {
    "name": "Manglisi",
    "countryCode": "GE",
    "stateCode": "KK",
    "latitude": "41.69698000",
    "longitude": "44.38448000"
  },
  {
    "name": "Marneuli",
    "countryCode": "GE",
    "stateCode": "KK",
    "latitude": "41.47588000",
    "longitude": "44.80895000"
  },
  {
    "name": "Marneulis Munitsip’alit’et’i",
    "countryCode": "GE",
    "stateCode": "KK",
    "latitude": "41.38333000",
    "longitude": "44.85000000"
  },
  {
    "name": "Mart’vili",
    "countryCode": "GE",
    "stateCode": "SZ",
    "latitude": "42.41436000",
    "longitude": "42.37924000"
  },
  {
    "name": "Mest’ia",
    "countryCode": "GE",
    "stateCode": "SZ",
    "latitude": "43.04581000",
    "longitude": "42.72780000"
  },
  {
    "name": "Mest’iis Munitsip’alit’et’i",
    "countryCode": "GE",
    "stateCode": "SZ",
    "latitude": "43.05000000",
    "longitude": "42.55000000"
  },
  {
    "name": "Mtskheta",
    "countryCode": "GE",
    "stateCode": "MM",
    "latitude": "41.84514000",
    "longitude": "44.71875000"
  },
  {
    "name": "Naghvarevi",
    "countryCode": "GE",
    "stateCode": "KK",
    "latitude": "41.35272000",
    "longitude": "44.76178000"
  },
  {
    "name": "Naruja",
    "countryCode": "GE",
    "stateCode": "GU",
    "latitude": "41.90694000",
    "longitude": "41.95417000"
  },
  {
    "name": "Ninotsminda",
    "countryCode": "GE",
    "stateCode": "SJ",
    "latitude": "41.26458000",
    "longitude": "43.59161000"
  },
  {
    "name": "Ochkhamuri",
    "countryCode": "GE",
    "stateCode": "AJ",
    "latitude": "41.85975000",
    "longitude": "41.85309000"
  },
  {
    "name": "Och’amch’ire",
    "countryCode": "GE",
    "stateCode": "AB",
    "latitude": "42.71232000",
    "longitude": "41.46863000"
  },
  {
    "name": "Oni",
    "countryCode": "GE",
    "stateCode": "RL",
    "latitude": "42.57944000",
    "longitude": "43.44250000"
  },
  {
    "name": "Orsant’ia",
    "countryCode": "GE",
    "stateCode": "SZ",
    "latitude": "42.46777000",
    "longitude": "41.67377000"
  },
  {
    "name": "Ozurgeti",
    "countryCode": "GE",
    "stateCode": "GU",
    "latitude": "41.92442000",
    "longitude": "42.00682000"
  },
  {
    "name": "P’asanauri",
    "countryCode": "GE",
    "stateCode": "MM",
    "latitude": "42.35060000",
    "longitude": "44.68912000"
  },
  {
    "name": "P’ot’i",
    "countryCode": "GE",
    "stateCode": "SZ",
    "latitude": "42.14616000",
    "longitude": "41.67197000"
  },
  {
    "name": "P’rimorsk’oe",
    "countryCode": "GE",
    "stateCode": "AB",
    "latitude": "43.09236000",
    "longitude": "40.69650000"
  },
  {
    "name": "Qvareli",
    "countryCode": "GE",
    "stateCode": "KA",
    "latitude": "41.95493000",
    "longitude": "45.81716000"
  },
  {
    "name": "Rust’avi",
    "countryCode": "GE",
    "stateCode": "KK",
    "latitude": "41.54949000",
    "longitude": "44.99323000"
  },
  {
    "name": "Sach’khere",
    "countryCode": "GE",
    "stateCode": "IM",
    "latitude": "42.34528000",
    "longitude": "43.41944000"
  },
  {
    "name": "Sagarejo",
    "countryCode": "GE",
    "stateCode": "KA",
    "latitude": "41.73397000",
    "longitude": "45.33149000"
  },
  {
    "name": "Samtredia",
    "countryCode": "GE",
    "stateCode": "IM",
    "latitude": "42.15370000",
    "longitude": "42.33517000"
  },
  {
    "name": "Senak’i",
    "countryCode": "GE",
    "stateCode": "SZ",
    "latitude": "42.27042000",
    "longitude": "42.06750000"
  },
  {
    "name": "Shorapani",
    "countryCode": "GE",
    "stateCode": "IM",
    "latitude": "42.08980000",
    "longitude": "43.08662000"
  },
  {
    "name": "Shuakhevi",
    "countryCode": "GE",
    "stateCode": "AJ",
    "latitude": "41.63000000",
    "longitude": "42.19083000"
  },
  {
    "name": "Sighnaghi",
    "countryCode": "GE",
    "stateCode": "KA",
    "latitude": "41.62046000",
    "longitude": "45.92198000"
  },
  {
    "name": "Sighnaghis Munitsip’alit’et’i",
    "countryCode": "GE",
    "stateCode": "KA",
    "latitude": "41.56667000",
    "longitude": "45.85000000"
  },
  {
    "name": "Sokhumi",
    "countryCode": "GE",
    "stateCode": "AB",
    "latitude": "43.00697000",
    "longitude": "40.98930000"
  },
  {
    "name": "Stantsiya Novyy Afon",
    "countryCode": "GE",
    "stateCode": "AB",
    "latitude": "43.08056000",
    "longitude": "40.83833000"
  },
  {
    "name": "Step’antsminda",
    "countryCode": "GE",
    "stateCode": "MM",
    "latitude": "42.65667000",
    "longitude": "44.64333000"
  },
  {
    "name": "Surami",
    "countryCode": "GE",
    "stateCode": "SK",
    "latitude": "42.02431000",
    "longitude": "43.55556000"
  },
  {
    "name": "Tbilisi",
    "countryCode": "GE",
    "stateCode": "TB",
    "latitude": "41.69411000",
    "longitude": "44.83368000"
  },
  {
    "name": "Telavi",
    "countryCode": "GE",
    "stateCode": "KA",
    "latitude": "41.91978000",
    "longitude": "45.47315000"
  },
  {
    "name": "Tetrits’q’alos Munitsip’alit’et’i",
    "countryCode": "GE",
    "stateCode": "KK",
    "latitude": "41.60000000",
    "longitude": "44.50000000"
  },
  {
    "name": "Tqibuli",
    "countryCode": "GE",
    "stateCode": "IM",
    "latitude": "42.35121000",
    "longitude": "42.99874000"
  },
  {
    "name": "Tqvarch'eli",
    "countryCode": "GE",
    "stateCode": "AB",
    "latitude": "42.84035000",
    "longitude": "41.68007000"
  },
  {
    "name": "Tsaghveri",
    "countryCode": "GE",
    "stateCode": "SJ",
    "latitude": "41.80365000",
    "longitude": "43.48194000"
  },
  {
    "name": "Tsalenjikha",
    "countryCode": "GE",
    "stateCode": "SZ",
    "latitude": "42.60444000",
    "longitude": "42.06825000"
  },
  {
    "name": "Tsalka",
    "countryCode": "GE",
    "stateCode": "KK",
    "latitude": "41.59460000",
    "longitude": "44.08909000"
  },
  {
    "name": "Tsikhisdziri",
    "countryCode": "GE",
    "stateCode": "AJ",
    "latitude": "41.76659000",
    "longitude": "41.75517000"
  },
  {
    "name": "Tsinandali",
    "countryCode": "GE",
    "stateCode": "KA",
    "latitude": "41.89315000",
    "longitude": "45.57129000"
  },
  {
    "name": "Tsnori",
    "countryCode": "GE",
    "stateCode": "KA",
    "latitude": "41.62088000",
    "longitude": "45.96943000"
  },
  {
    "name": "Tsqaltubo",
    "countryCode": "GE",
    "stateCode": "IM",
    "latitude": "42.34129000",
    "longitude": "42.59760000"
  },
  {
    "name": "Ts’alk’is Munitsip’alit’et’i",
    "countryCode": "GE",
    "stateCode": "KK",
    "latitude": "41.63333000",
    "longitude": "43.96667000"
  },
  {
    "name": "Ts’khinvali",
    "countryCode": "GE",
    "stateCode": "SK",
    "latitude": "42.22764000",
    "longitude": "43.96861000"
  },
  {
    "name": "T’et’ri Tsqaro",
    "countryCode": "GE",
    "stateCode": "KK",
    "latitude": "41.54448000",
    "longitude": "44.46153000"
  },
  {
    "name": "Urek’i",
    "countryCode": "GE",
    "stateCode": "GU",
    "latitude": "41.99556000",
    "longitude": "41.77861000"
  },
  {
    "name": "Vale",
    "countryCode": "GE",
    "stateCode": "SJ",
    "latitude": "41.61558000",
    "longitude": "42.87224000"
  },
  {
    "name": "Vani",
    "countryCode": "GE",
    "stateCode": "IM",
    "latitude": "42.08320000",
    "longitude": "42.52163000"
  },
  {
    "name": "Zestap’oni",
    "countryCode": "GE",
    "stateCode": "IM",
    "latitude": "42.11000000",
    "longitude": "43.05250000"
  },
  {
    "name": "Zhinvali",
    "countryCode": "GE",
    "stateCode": "MM",
    "latitude": "42.13181000",
    "longitude": "44.77264000"
  },
  {
    "name": "Zugdidi",
    "countryCode": "GE",
    "stateCode": "SZ",
    "latitude": "42.50880000",
    "longitude": "41.87088000"
  }
]