[
  {
    "name": "Beyla",
    "countryCode": "GN",
    "stateCode": "N",
    "latitude": "8.69011000",
    "longitude": "-8.64869000"
  },
  {
    "name": "Beyla Prefecture",
    "countryCode": "GN",
    "stateCode": "N",
    "latitude": "8.91667000",
    "longitude": "-8.41667000"
  },
  {
    "name": "Boffa",
    "countryCode": "GN",
    "stateCode": "B",
    "latitude": "10.33333000",
    "longitude": "-14.16667000"
  },
  {
    "name": "Boke Prefecture",
    "countryCode": "GN",
    "stateCode": "B",
    "latitude": "11.08333000",
    "longitude": "-14.41667000"
  },
  {
    "name": "Boké",
    "countryCode": "GN",
    "stateCode": "B",
    "latitude": "10.93217000",
    "longitude": "-14.29055000"
  },
  {
    "name": "Camayenne",
    "countryCode": "GN",
    "stateCode": "C",
    "latitude": "9.53500000",
    "longitude": "-13.68778000"
  },
  {
    "name": "Conakry",
    "countryCode": "GN",
    "stateCode": "C",
    "latitude": "9.53795000",
    "longitude": "-13.67729000"
  },
  {
    "name": "Coyah",
    "countryCode": "GN",
    "stateCode": "D",
    "latitude": "9.75000000",
    "longitude": "-13.41667000"
  },
  {
    "name": "Dalaba",
    "countryCode": "GN",
    "stateCode": "M",
    "latitude": "10.75000000",
    "longitude": "-12.30000000"
  },
  {
    "name": "Dubréka",
    "countryCode": "GN",
    "stateCode": "D",
    "latitude": "9.79111000",
    "longitude": "-13.52333000"
  },
  {
    "name": "Forécariah",
    "countryCode": "GN",
    "stateCode": "D",
    "latitude": "9.43056000",
    "longitude": "-13.08806000"
  },
  {
    "name": "Fria",
    "countryCode": "GN",
    "stateCode": "B",
    "latitude": "10.41667000",
    "longitude": "-13.58333000"
  },
  {
    "name": "Gaoual",
    "countryCode": "GN",
    "stateCode": "B",
    "latitude": "11.75000000",
    "longitude": "-13.20000000"
  },
  {
    "name": "Gaoual Prefecture",
    "countryCode": "GN",
    "stateCode": "B",
    "latitude": "11.75000000",
    "longitude": "-13.20000000"
  },
  {
    "name": "Gueckedou",
    "countryCode": "GN",
    "stateCode": "N",
    "latitude": "8.56744000",
    "longitude": "-10.13360000"
  },
  {
    "name": "Kankan",
    "countryCode": "GN",
    "stateCode": "K",
    "latitude": "10.38542000",
    "longitude": "-9.30568000"
  },
  {
    "name": "Kankan Prefecture",
    "countryCode": "GN",
    "stateCode": "K",
    "latitude": "10.27100000",
    "longitude": "-9.17800000"
  },
  {
    "name": "Kerouane Prefecture",
    "countryCode": "GN",
    "stateCode": "K",
    "latitude": "9.16667000",
    "longitude": "-9.08333000"
  },
  {
    "name": "Kimbo",
    "countryCode": "GN",
    "stateCode": "B",
    "latitude": "10.40000000",
    "longitude": "-13.55000000"
  },
  {
    "name": "Kindia",
    "countryCode": "GN",
    "stateCode": "D",
    "latitude": "10.08333000",
    "longitude": "-12.80000000"
  },
  {
    "name": "Koubia",
    "countryCode": "GN",
    "stateCode": "L",
    "latitude": "11.58333000",
    "longitude": "-11.83333000"
  },
  {
    "name": "Koundara",
    "countryCode": "GN",
    "stateCode": "B",
    "latitude": "12.48333000",
    "longitude": "-13.30000000"
  },
  {
    "name": "Koundara Prefecture",
    "countryCode": "GN",
    "stateCode": "B",
    "latitude": "12.41667000",
    "longitude": "-13.16667000"
  },
  {
    "name": "Kouroussa",
    "countryCode": "GN",
    "stateCode": "K",
    "latitude": "10.66667000",
    "longitude": "-9.91667000"
  },
  {
    "name": "Kérouané",
    "countryCode": "GN",
    "stateCode": "K",
    "latitude": "9.26667000",
    "longitude": "-9.01667000"
  },
  {
    "name": "Labe Prefecture",
    "countryCode": "GN",
    "stateCode": "L",
    "latitude": "11.36600000",
    "longitude": "-12.30000000"
  },
  {
    "name": "Labé",
    "countryCode": "GN",
    "stateCode": "L",
    "latitude": "11.31823000",
    "longitude": "-12.28332000"
  },
  {
    "name": "Lelouma Prefecture",
    "countryCode": "GN",
    "stateCode": "L",
    "latitude": "11.41667000",
    "longitude": "-12.66667000"
  },
  {
    "name": "Lola",
    "countryCode": "GN",
    "stateCode": "N",
    "latitude": "7.83333000",
    "longitude": "-8.33333000"
  },
  {
    "name": "Lélouma",
    "countryCode": "GN",
    "stateCode": "L",
    "latitude": "11.42383000",
    "longitude": "-12.68183000"
  },
  {
    "name": "Macenta",
    "countryCode": "GN",
    "stateCode": "N",
    "latitude": "8.50000000",
    "longitude": "-9.41667000"
  },
  {
    "name": "Mali",
    "countryCode": "GN",
    "stateCode": "L",
    "latitude": "12.07900000",
    "longitude": "-12.29820000"
  },
  {
    "name": "Mali Prefecture",
    "countryCode": "GN",
    "stateCode": "L",
    "latitude": "12.08333000",
    "longitude": "-12.08333000"
  },
  {
    "name": "Mamou",
    "countryCode": "GN",
    "stateCode": "M",
    "latitude": "10.37546000",
    "longitude": "-12.09148000"
  },
  {
    "name": "Mamou Prefecture",
    "countryCode": "GN",
    "stateCode": "M",
    "latitude": "10.45900000",
    "longitude": "-11.81500000"
  },
  {
    "name": "Mandiana",
    "countryCode": "GN",
    "stateCode": "K",
    "latitude": "10.62577000",
    "longitude": "-8.69413000"
  },
  {
    "name": "Mandiana Prefecture",
    "countryCode": "GN",
    "stateCode": "K",
    "latitude": "10.65800000",
    "longitude": "-8.61500000"
  },
  {
    "name": "Nzerekore Prefecture",
    "countryCode": "GN",
    "stateCode": "N",
    "latitude": "7.94500000",
    "longitude": "-8.78300000"
  },
  {
    "name": "Nzérékoré",
    "countryCode": "GN",
    "stateCode": "N",
    "latitude": "7.75624000",
    "longitude": "-8.81790000"
  },
  {
    "name": "Pita",
    "countryCode": "GN",
    "stateCode": "M",
    "latitude": "10.83333000",
    "longitude": "-12.58333000"
  },
  {
    "name": "Préfecture de Dubréka",
    "countryCode": "GN",
    "stateCode": "D",
    "latitude": "10.25000000",
    "longitude": "-13.41667000"
  },
  {
    "name": "Préfecture de Forécariah",
    "countryCode": "GN",
    "stateCode": "D",
    "latitude": "9.43333000",
    "longitude": "-13.10000000"
  },
  {
    "name": "Préfecture de Guékédou",
    "countryCode": "GN",
    "stateCode": "N",
    "latitude": "8.66667000",
    "longitude": "-10.25000000"
  },
  {
    "name": "Sanguéya",
    "countryCode": "GN",
    "stateCode": "B",
    "latitude": "10.70000000",
    "longitude": "-14.36667000"
  },
  {
    "name": "Siguiri",
    "countryCode": "GN",
    "stateCode": "K",
    "latitude": "11.42282000",
    "longitude": "-9.16852000"
  },
  {
    "name": "Siguiri Prefecture",
    "countryCode": "GN",
    "stateCode": "K",
    "latitude": "11.66667000",
    "longitude": "-9.50000000"
  },
  {
    "name": "Telimele Prefecture",
    "countryCode": "GN",
    "stateCode": "D",
    "latitude": "10.91667000",
    "longitude": "-13.33333000"
  },
  {
    "name": "Tokonou",
    "countryCode": "GN",
    "stateCode": "K",
    "latitude": "9.65000000",
    "longitude": "-9.78333000"
  },
  {
    "name": "Tondon",
    "countryCode": "GN",
    "stateCode": "D",
    "latitude": "10.36667000",
    "longitude": "-13.35000000"
  },
  {
    "name": "Tougue Prefecture",
    "countryCode": "GN",
    "stateCode": "L",
    "latitude": "11.46667000",
    "longitude": "-11.60000000"
  },
  {
    "name": "Tougué",
    "countryCode": "GN",
    "stateCode": "L",
    "latitude": "11.44503000",
    "longitude": "-11.66422000"
  },
  {
    "name": "Télimélé",
    "countryCode": "GN",
    "stateCode": "D",
    "latitude": "10.90000000",
    "longitude": "-13.03333000"
  },
  {
    "name": "Yomou",
    "countryCode": "GN",
    "stateCode": "N",
    "latitude": "7.50000000",
    "longitude": "-9.16667000"
  },
  {
    "name": "Youkounkoun",
    "countryCode": "GN",
    "stateCode": "B",
    "latitude": "12.53110000",
    "longitude": "-13.12240000"
  }
]