[
  {
    "name": "Acatenango",
    "countryCode": "GT",
    "stateCode": "CM",
    "latitude": "14.55451000",
    "longitude": "-90.94368000"
  },
  {
    "name": "Agua Blanca",
    "countryCode": "GT",
    "stateCode": "JU",
    "latitude": "14.50000000",
    "longitude": "-89.65000000"
  },
  {
    "name": "Aguacatán",
    "countryCode": "GT",
    "stateCode": "HU",
    "latitude": "15.34222000",
    "longitude": "-91.31141000"
  },
  {
    "name": "Almolonga",
    "countryCode": "GT",
    "stateCode": "QZ",
    "latitude": "14.81591000",
    "longitude": "-91.49464000"
  },
  {
    "name": "Alotenango",
    "countryCode": "GT",
    "stateCode": "SA",
    "latitude": "14.48028000",
    "longitude": "-90.80750000"
  },
  {
    "name": "Amatitlán",
    "countryCode": "GT",
    "stateCode": "GU",
    "latitude": "14.47740000",
    "longitude": "-90.63489000"
  },
  {
    "name": "Antigua Guatemala",
    "countryCode": "GT",
    "stateCode": "SA",
    "latitude": "14.56111000",
    "longitude": "-90.73444000"
  },
  {
    "name": "Asunción Mita",
    "countryCode": "GT",
    "stateCode": "JU",
    "latitude": "14.33083000",
    "longitude": "-89.71083000"
  },
  {
    "name": "Atescatempa",
    "countryCode": "GT",
    "stateCode": "JU",
    "latitude": "14.17444000",
    "longitude": "-89.74250000"
  },
  {
    "name": "Barberena",
    "countryCode": "GT",
    "stateCode": "SR",
    "latitude": "14.30739000",
    "longitude": "-90.36156000"
  },
  {
    "name": "Barillas",
    "countryCode": "GT",
    "stateCode": "HU",
    "latitude": "15.80361000",
    "longitude": "-91.31583000"
  },
  {
    "name": "Cabricán",
    "countryCode": "GT",
    "stateCode": "QZ",
    "latitude": "15.07485000",
    "longitude": "-91.64800000"
  },
  {
    "name": "Cahabón",
    "countryCode": "GT",
    "stateCode": "AV",
    "latitude": "15.56667000",
    "longitude": "-89.81667000"
  },
  {
    "name": "Cajolá",
    "countryCode": "GT",
    "stateCode": "QZ",
    "latitude": "14.92205000",
    "longitude": "-91.61478000"
  },
  {
    "name": "Camotán",
    "countryCode": "GT",
    "stateCode": "CQ",
    "latitude": "14.82017000",
    "longitude": "-89.37224000"
  },
  {
    "name": "Canillá",
    "countryCode": "GT",
    "stateCode": "QC",
    "latitude": "15.16549000",
    "longitude": "-90.85256000"
  },
  {
    "name": "Cantel",
    "countryCode": "GT",
    "stateCode": "QZ",
    "latitude": "14.81154000",
    "longitude": "-91.45536000"
  },
  {
    "name": "Casillas",
    "countryCode": "GT",
    "stateCode": "SR",
    "latitude": "14.42222000",
    "longitude": "-90.24417000"
  },
  {
    "name": "Catarina",
    "countryCode": "GT",
    "stateCode": "SM",
    "latitude": "14.85354000",
    "longitude": "-92.07682000"
  },
  {
    "name": "Chahal Guatemala",
    "countryCode": "GT",
    "stateCode": "AV",
    "latitude": "15.79122000",
    "longitude": "-89.60518000"
  },
  {
    "name": "Chajul",
    "countryCode": "GT",
    "stateCode": "QC",
    "latitude": "15.48523000",
    "longitude": "-91.03520000"
  },
  {
    "name": "Champerico",
    "countryCode": "GT",
    "stateCode": "RE",
    "latitude": "14.29337000",
    "longitude": "-91.91214000"
  },
  {
    "name": "Chiantla",
    "countryCode": "GT",
    "stateCode": "HU",
    "latitude": "15.35484000",
    "longitude": "-91.45807000"
  },
  {
    "name": "Chicacao",
    "countryCode": "GT",
    "stateCode": "SU",
    "latitude": "14.54295000",
    "longitude": "-91.32636000"
  },
  {
    "name": "Chicamán",
    "countryCode": "GT",
    "stateCode": "QC",
    "latitude": "15.34786000",
    "longitude": "-90.79968000"
  },
  {
    "name": "Chichicastenango",
    "countryCode": "GT",
    "stateCode": "QC",
    "latitude": "14.94333000",
    "longitude": "-91.11116000"
  },
  {
    "name": "Chiché",
    "countryCode": "GT",
    "stateCode": "QC",
    "latitude": "15.00885000",
    "longitude": "-91.06379000"
  },
  {
    "name": "Chimaltenango",
    "countryCode": "GT",
    "stateCode": "CM",
    "latitude": "14.66111000",
    "longitude": "-90.81944000"
  },
  {
    "name": "Chinautla",
    "countryCode": "GT",
    "stateCode": "GU",
    "latitude": "14.70289000",
    "longitude": "-90.49983000"
  },
  {
    "name": "Chinique",
    "countryCode": "GT",
    "stateCode": "QC",
    "latitude": "15.04147000",
    "longitude": "-91.02594000"
  },
  {
    "name": "Chiquimula",
    "countryCode": "GT",
    "stateCode": "CQ",
    "latitude": "14.80000000",
    "longitude": "-89.54583000"
  },
  {
    "name": "Chiquimulilla",
    "countryCode": "GT",
    "stateCode": "SR",
    "latitude": "14.08380000",
    "longitude": "-90.38547000"
  },
  {
    "name": "Chisec",
    "countryCode": "GT",
    "stateCode": "AV",
    "latitude": "15.81667000",
    "longitude": "-90.28333000"
  },
  {
    "name": "Chuarrancho",
    "countryCode": "GT",
    "stateCode": "GU",
    "latitude": "14.81794000",
    "longitude": "-90.51568000"
  },
  {
    "name": "Ciudad Tecún Umán",
    "countryCode": "GT",
    "stateCode": "SM",
    "latitude": "14.67737000",
    "longitude": "-92.14039000"
  },
  {
    "name": "Ciudad Vieja",
    "countryCode": "GT",
    "stateCode": "SA",
    "latitude": "14.52396000",
    "longitude": "-90.76308000"
  },
  {
    "name": "Coatepeque",
    "countryCode": "GT",
    "stateCode": "QZ",
    "latitude": "14.70413000",
    "longitude": "-91.86426000"
  },
  {
    "name": "Cobán",
    "countryCode": "GT",
    "stateCode": "AV",
    "latitude": "15.47083000",
    "longitude": "-90.37083000"
  },
  {
    "name": "Colomba",
    "countryCode": "GT",
    "stateCode": "QZ",
    "latitude": "14.70730000",
    "longitude": "-91.73167000"
  },
  {
    "name": "Colotenango",
    "countryCode": "GT",
    "stateCode": "HU",
    "latitude": "15.40602000",
    "longitude": "-91.71267000"
  },
  {
    "name": "Comalapa",
    "countryCode": "GT",
    "stateCode": "CM",
    "latitude": "14.74086000",
    "longitude": "-90.88761000"
  },
  {
    "name": "Comapa",
    "countryCode": "GT",
    "stateCode": "JU",
    "latitude": "14.11667000",
    "longitude": "-89.91667000"
  },
  {
    "name": "Comitancillo",
    "countryCode": "GT",
    "stateCode": "SM",
    "latitude": "15.08937000",
    "longitude": "-91.74971000"
  },
  {
    "name": "Concepción",
    "countryCode": "GT",
    "stateCode": "SO",
    "latitude": "14.78417000",
    "longitude": "-91.14754000"
  },
  {
    "name": "Concepción Chiquirichapa",
    "countryCode": "GT",
    "stateCode": "QZ",
    "latitude": "14.85510000",
    "longitude": "-91.62360000"
  },
  {
    "name": "Concepción Huista",
    "countryCode": "GT",
    "stateCode": "HU",
    "latitude": "15.62378000",
    "longitude": "-91.66521000"
  },
  {
    "name": "Concepción Las Minas",
    "countryCode": "GT",
    "stateCode": "CQ",
    "latitude": "14.52173000",
    "longitude": "-89.45717000"
  },
  {
    "name": "Concepción Tutuapa",
    "countryCode": "GT",
    "stateCode": "SM",
    "latitude": "15.23940000",
    "longitude": "-91.84460000"
  },
  {
    "name": "Conguaco",
    "countryCode": "GT",
    "stateCode": "JU",
    "latitude": "14.04417000",
    "longitude": "-90.03111000"
  },
  {
    "name": "Cubulco",
    "countryCode": "GT",
    "stateCode": "BV",
    "latitude": "15.10452000",
    "longitude": "-90.62871000"
  },
  {
    "name": "Cuilapa",
    "countryCode": "GT",
    "stateCode": "SR",
    "latitude": "14.27639000",
    "longitude": "-90.29889000"
  },
  {
    "name": "Cuilco",
    "countryCode": "GT",
    "stateCode": "HU",
    "latitude": "15.40719000",
    "longitude": "-91.94667000"
  },
  {
    "name": "Cunén",
    "countryCode": "GT",
    "stateCode": "QC",
    "latitude": "15.33626000",
    "longitude": "-91.02776000"
  },
  {
    "name": "Cuyotenango",
    "countryCode": "GT",
    "stateCode": "SU",
    "latitude": "14.54006000",
    "longitude": "-91.57179000"
  },
  {
    "name": "Dolores",
    "countryCode": "GT",
    "stateCode": "PE",
    "latitude": "16.51178000",
    "longitude": "-89.41704000"
  },
  {
    "name": "El Adelanto",
    "countryCode": "GT",
    "stateCode": "JU",
    "latitude": "14.16667000",
    "longitude": "-89.83333000"
  },
  {
    "name": "El Asintal",
    "countryCode": "GT",
    "stateCode": "RE",
    "latitude": "14.59626000",
    "longitude": "-91.72744000"
  },
  {
    "name": "El Chol",
    "countryCode": "GT",
    "stateCode": "BV",
    "latitude": "14.96055000",
    "longitude": "-90.48799000"
  },
  {
    "name": "El Estor",
    "countryCode": "GT",
    "stateCode": "IZ",
    "latitude": "15.53333000",
    "longitude": "-89.35000000"
  },
  {
    "name": "El Jícaro",
    "countryCode": "GT",
    "stateCode": "PR",
    "latitude": "14.91667000",
    "longitude": "-89.90000000"
  },
  {
    "name": "El Palmar",
    "countryCode": "GT",
    "stateCode": "QZ",
    "latitude": "14.65083000",
    "longitude": "-91.57800000"
  },
  {
    "name": "El Progreso",
    "countryCode": "GT",
    "stateCode": "JU",
    "latitude": "14.35000000",
    "longitude": "-89.85000000"
  },
  {
    "name": "El Quetzal",
    "countryCode": "GT",
    "stateCode": "SM",
    "latitude": "14.76865000",
    "longitude": "-91.81757000"
  },
  {
    "name": "El Rodeo",
    "countryCode": "GT",
    "stateCode": "SM",
    "latitude": "14.91447000",
    "longitude": "-91.97631000"
  },
  {
    "name": "El Tejar",
    "countryCode": "GT",
    "stateCode": "CM",
    "latitude": "14.64683000",
    "longitude": "-90.79122000"
  },
  {
    "name": "El Tumbador",
    "countryCode": "GT",
    "stateCode": "SM",
    "latitude": "14.86375000",
    "longitude": "-91.93416000"
  },
  {
    "name": "Escuintla",
    "countryCode": "GT",
    "stateCode": "ES",
    "latitude": "14.30500000",
    "longitude": "-90.78500000"
  },
  {
    "name": "Esquipulas",
    "countryCode": "GT",
    "stateCode": "CQ",
    "latitude": "14.56571000",
    "longitude": "-89.35166000"
  },
  {
    "name": "Esquipulas Palo Gordo",
    "countryCode": "GT",
    "stateCode": "SM",
    "latitude": "14.94135000",
    "longitude": "-91.82564000"
  },
  {
    "name": "Flores",
    "countryCode": "GT",
    "stateCode": "PE",
    "latitude": "16.92258000",
    "longitude": "-89.89941000"
  },
  {
    "name": "Flores Costa Cuca",
    "countryCode": "GT",
    "stateCode": "QZ",
    "latitude": "14.63238000",
    "longitude": "-91.86341000"
  },
  {
    "name": "Fraijanes",
    "countryCode": "GT",
    "stateCode": "GU",
    "latitude": "14.46528000",
    "longitude": "-90.44083000"
  },
  {
    "name": "Granados",
    "countryCode": "GT",
    "stateCode": "BV",
    "latitude": "14.91649000",
    "longitude": "-90.52292000"
  },
  {
    "name": "Guanagazapa",
    "countryCode": "GT",
    "stateCode": "ES",
    "latitude": "14.22528000",
    "longitude": "-90.64333000"
  },
  {
    "name": "Guastatoya",
    "countryCode": "GT",
    "stateCode": "PR",
    "latitude": "14.85417000",
    "longitude": "-90.06944000"
  },
  {
    "name": "Guatemala City",
    "countryCode": "GT",
    "stateCode": "GU",
    "latitude": "14.64072000",
    "longitude": "-90.51327000"
  },
  {
    "name": "Guazacapán",
    "countryCode": "GT",
    "stateCode": "SR",
    "latitude": "14.07417000",
    "longitude": "-90.41667000"
  },
  {
    "name": "Génova",
    "countryCode": "GT",
    "stateCode": "QZ",
    "latitude": "14.61667000",
    "longitude": "-91.83333000"
  },
  {
    "name": "Huehuetenango",
    "countryCode": "GT",
    "stateCode": "HU",
    "latitude": "15.31918000",
    "longitude": "-91.47241000"
  },
  {
    "name": "Huitán",
    "countryCode": "GT",
    "stateCode": "QZ",
    "latitude": "15.04920000",
    "longitude": "-91.63944000"
  },
  {
    "name": "Ipala",
    "countryCode": "GT",
    "stateCode": "CQ",
    "latitude": "14.61667000",
    "longitude": "-89.61667000"
  },
  {
    "name": "Ixchiguán",
    "countryCode": "GT",
    "stateCode": "SM",
    "latitude": "15.16375000",
    "longitude": "-91.93256000"
  },
  {
    "name": "Ixtahuacán",
    "countryCode": "GT",
    "stateCode": "HU",
    "latitude": "15.41688000",
    "longitude": "-91.76927000"
  },
  {
    "name": "Iztapa",
    "countryCode": "GT",
    "stateCode": "ES",
    "latitude": "13.93333000",
    "longitude": "-90.70750000"
  },
  {
    "name": "Jacaltenango",
    "countryCode": "GT",
    "stateCode": "HU",
    "latitude": "15.66662000",
    "longitude": "-91.71177000"
  },
  {
    "name": "Jalapa",
    "countryCode": "GT",
    "stateCode": "JA",
    "latitude": "14.63472000",
    "longitude": "-89.98889000"
  },
  {
    "name": "Jalpatagua",
    "countryCode": "GT",
    "stateCode": "JU",
    "latitude": "14.14167000",
    "longitude": "-90.00861000"
  },
  {
    "name": "Jerez",
    "countryCode": "GT",
    "stateCode": "JU",
    "latitude": "14.10000000",
    "longitude": "-89.75000000"
  },
  {
    "name": "Jocotenango",
    "countryCode": "GT",
    "stateCode": "SA",
    "latitude": "14.57814000",
    "longitude": "-90.73804000"
  },
  {
    "name": "Jocotán",
    "countryCode": "GT",
    "stateCode": "CQ",
    "latitude": "14.82072000",
    "longitude": "-89.38991000"
  },
  {
    "name": "Joyabaj",
    "countryCode": "GT",
    "stateCode": "QC",
    "latitude": "14.99311000",
    "longitude": "-90.80161000"
  },
  {
    "name": "Jutiapa",
    "countryCode": "GT",
    "stateCode": "JU",
    "latitude": "14.29167000",
    "longitude": "-89.89583000"
  },
  {
    "name": "La Democracia",
    "countryCode": "GT",
    "stateCode": "ES",
    "latitude": "14.23083000",
    "longitude": "-90.94722000"
  },
  {
    "name": "La Esperanza",
    "countryCode": "GT",
    "stateCode": "QZ",
    "latitude": "14.87169000",
    "longitude": "-91.56140000"
  },
  {
    "name": "La Gomera",
    "countryCode": "GT",
    "stateCode": "ES",
    "latitude": "14.08213000",
    "longitude": "-91.05383000"
  },
  {
    "name": "La Libertad",
    "countryCode": "GT",
    "stateCode": "HU",
    "latitude": "15.51421000",
    "longitude": "-91.86944000"
  },
  {
    "name": "La Libertad",
    "countryCode": "GT",
    "stateCode": "PE",
    "latitude": "16.78850000",
    "longitude": "-90.11698000"
  },
  {
    "name": "La Reforma",
    "countryCode": "GT",
    "stateCode": "SM",
    "latitude": "14.80104000",
    "longitude": "-91.82233000"
  },
  {
    "name": "La Tinta",
    "countryCode": "GT",
    "stateCode": "AV",
    "latitude": "15.31667000",
    "longitude": "-89.88333000"
  },
  {
    "name": "Lanquín",
    "countryCode": "GT",
    "stateCode": "AV",
    "latitude": "15.56667000",
    "longitude": "-89.96667000"
  },
  {
    "name": "Los Amates",
    "countryCode": "GT",
    "stateCode": "IZ",
    "latitude": "15.25645000",
    "longitude": "-89.09723000"
  },
  {
    "name": "Lívingston",
    "countryCode": "GT",
    "stateCode": "IZ",
    "latitude": "15.82826000",
    "longitude": "-88.75039000"
  },
  {
    "name": "Magdalena Milpas Altas",
    "countryCode": "GT",
    "stateCode": "SA",
    "latitude": "14.54801000",
    "longitude": "-90.67477000"
  },
  {
    "name": "Malacatancito",
    "countryCode": "GT",
    "stateCode": "HU",
    "latitude": "15.24457000",
    "longitude": "-91.49901000"
  },
  {
    "name": "Malacatán",
    "countryCode": "GT",
    "stateCode": "SM",
    "latitude": "14.91132000",
    "longitude": "-92.05788000"
  },
  {
    "name": "Masagua",
    "countryCode": "GT",
    "stateCode": "ES",
    "latitude": "14.20306000",
    "longitude": "-90.84806000"
  },
  {
    "name": "Mataquescuintla",
    "countryCode": "GT",
    "stateCode": "JA",
    "latitude": "14.52917000",
    "longitude": "-90.18417000"
  },
  {
    "name": "Mazatenango",
    "countryCode": "GT",
    "stateCode": "SU",
    "latitude": "14.53417000",
    "longitude": "-91.50333000"
  },
  {
    "name": "Melchor de Mencos",
    "countryCode": "GT",
    "stateCode": "PE",
    "latitude": "17.06606000",
    "longitude": "-89.15229000"
  },
  {
    "name": "Mixco",
    "countryCode": "GT",
    "stateCode": "GU",
    "latitude": "14.63077000",
    "longitude": "-90.60711000"
  },
  {
    "name": "Momostenango",
    "countryCode": "GT",
    "stateCode": "TO",
    "latitude": "15.04437000",
    "longitude": "-91.40864000"
  },
  {
    "name": "Monjas",
    "countryCode": "GT",
    "stateCode": "JA",
    "latitude": "14.50000000",
    "longitude": "-89.86667000"
  },
  {
    "name": "Morales",
    "countryCode": "GT",
    "stateCode": "IZ",
    "latitude": "15.48333000",
    "longitude": "-88.81667000"
  },
  {
    "name": "Morazán",
    "countryCode": "GT",
    "stateCode": "PR",
    "latitude": "14.93278000",
    "longitude": "-90.14306000"
  },
  {
    "name": "Moyuta",
    "countryCode": "GT",
    "stateCode": "JU",
    "latitude": "14.03861000",
    "longitude": "-90.08083000"
  },
  {
    "name": "Municipio de Almolonga",
    "countryCode": "GT",
    "stateCode": "QZ",
    "latitude": "14.81118000",
    "longitude": "-91.48354000"
  },
  {
    "name": "Municipio de Alotenango",
    "countryCode": "GT",
    "stateCode": "SA",
    "latitude": "14.46485000",
    "longitude": "-90.82773000"
  },
  {
    "name": "Municipio de Antigua Guatemala",
    "countryCode": "GT",
    "stateCode": "SA",
    "latitude": "14.54313000",
    "longitude": "-90.72683000"
  },
  {
    "name": "Municipio de Asunción Mita",
    "countryCode": "GT",
    "stateCode": "JU",
    "latitude": "14.30330000",
    "longitude": "-89.67623000"
  },
  {
    "name": "Municipio de Cabricán",
    "countryCode": "GT",
    "stateCode": "QZ",
    "latitude": "15.10305000",
    "longitude": "-91.64918000"
  },
  {
    "name": "Municipio de Canillá",
    "countryCode": "GT",
    "stateCode": "QC",
    "latitude": "15.19546000",
    "longitude": "-90.85970000"
  },
  {
    "name": "Municipio de Cantel",
    "countryCode": "GT",
    "stateCode": "QZ",
    "latitude": "14.81659000",
    "longitude": "-91.43781000"
  },
  {
    "name": "Municipio de Casillas",
    "countryCode": "GT",
    "stateCode": "SR",
    "latitude": "14.37854000",
    "longitude": "-90.17260000"
  },
  {
    "name": "Municipio de Chajul",
    "countryCode": "GT",
    "stateCode": "QC",
    "latitude": "15.48710000",
    "longitude": "-91.03786000"
  },
  {
    "name": "Municipio de Chicaman",
    "countryCode": "GT",
    "stateCode": "QC",
    "latitude": "15.34833000",
    "longitude": "-90.79944000"
  },
  {
    "name": "Municipio de Chichicastenango",
    "countryCode": "GT",
    "stateCode": "QC",
    "latitude": "14.89203000",
    "longitude": "-91.08808000"
  },
  {
    "name": "Municipio de Chiché",
    "countryCode": "GT",
    "stateCode": "QC",
    "latitude": "15.01196000",
    "longitude": "-91.03836000"
  },
  {
    "name": "Municipio de Chinique",
    "countryCode": "GT",
    "stateCode": "QC",
    "latitude": "15.06947000",
    "longitude": "-91.01803000"
  },
  {
    "name": "Municipio de Chiquimulilla",
    "countryCode": "GT",
    "stateCode": "SR",
    "latitude": "14.09716000",
    "longitude": "-90.37903000"
  },
  {
    "name": "Municipio de Ciudad Vieja",
    "countryCode": "GT",
    "stateCode": "SA",
    "latitude": "14.50800000",
    "longitude": "-90.77028000"
  },
  {
    "name": "Municipio de Coatepeque",
    "countryCode": "GT",
    "stateCode": "QZ",
    "latitude": "14.64309000",
    "longitude": "-91.97926000"
  },
  {
    "name": "Municipio de Colomba",
    "countryCode": "GT",
    "stateCode": "QZ",
    "latitude": "14.71002000",
    "longitude": "-91.74691000"
  },
  {
    "name": "Municipio de Concepción Chiquirichapa",
    "countryCode": "GT",
    "stateCode": "QZ",
    "latitude": "14.84624000",
    "longitude": "-91.61854000"
  },
  {
    "name": "Municipio de Concepción Tutuapa",
    "countryCode": "GT",
    "stateCode": "SM",
    "latitude": "15.28795000",
    "longitude": "-91.86738000"
  },
  {
    "name": "Municipio de Cunén",
    "countryCode": "GT",
    "stateCode": "QC",
    "latitude": "15.36312000",
    "longitude": "-91.01889000"
  },
  {
    "name": "Municipio de Flores",
    "countryCode": "GT",
    "stateCode": "PE",
    "latitude": "16.92381000",
    "longitude": "-89.89709000"
  },
  {
    "name": "Municipio de Flores Costa Cuca",
    "countryCode": "GT",
    "stateCode": "QZ",
    "latitude": "14.63238000",
    "longitude": "-91.86341000"
  },
  {
    "name": "Municipio de Guazacapán",
    "countryCode": "GT",
    "stateCode": "SR",
    "latitude": "14.01786000",
    "longitude": "-90.43400000"
  },
  {
    "name": "Municipio de Ixcan",
    "countryCode": "GT",
    "stateCode": "QC",
    "latitude": "15.98333000",
    "longitude": "-90.76667000"
  },
  {
    "name": "Municipio de Jalapa",
    "countryCode": "GT",
    "stateCode": "JA",
    "latitude": "14.63275000",
    "longitude": "-90.03301000"
  },
  {
    "name": "Municipio de Jocotenango",
    "countryCode": "GT",
    "stateCode": "SA",
    "latitude": "14.58658000",
    "longitude": "-90.73579000"
  },
  {
    "name": "Municipio de Joyabaj",
    "countryCode": "GT",
    "stateCode": "QC",
    "latitude": "14.98073000",
    "longitude": "-90.82079000"
  },
  {
    "name": "Municipio de Magdalena Milpas Altas",
    "countryCode": "GT",
    "stateCode": "SA",
    "latitude": "14.54206000",
    "longitude": "-90.67553000"
  },
  {
    "name": "Municipio de Malacatán",
    "countryCode": "GT",
    "stateCode": "SM",
    "latitude": "14.91829000",
    "longitude": "-92.10548000"
  },
  {
    "name": "Municipio de Mataquescuintla",
    "countryCode": "GT",
    "stateCode": "JA",
    "latitude": "14.54777000",
    "longitude": "-90.20008000"
  },
  {
    "name": "Municipio de Momostenango",
    "countryCode": "GT",
    "stateCode": "TO",
    "latitude": "15.04726000",
    "longitude": "-91.40625000"
  },
  {
    "name": "Municipio de Morales",
    "countryCode": "GT",
    "stateCode": "IZ",
    "latitude": "15.44494000",
    "longitude": "-88.76646000"
  },
  {
    "name": "Municipio de Nahualá",
    "countryCode": "GT",
    "stateCode": "SO",
    "latitude": "14.77548000",
    "longitude": "-91.41616000"
  },
  {
    "name": "Municipio de Pachalum",
    "countryCode": "GT",
    "stateCode": "QC",
    "latitude": "14.91798000",
    "longitude": "-90.65443000"
  },
  {
    "name": "Municipio de Panajachel",
    "countryCode": "GT",
    "stateCode": "SO",
    "latitude": "14.74676000",
    "longitude": "-91.14935000"
  },
  {
    "name": "Municipio de Patzité",
    "countryCode": "GT",
    "stateCode": "QC",
    "latitude": "14.97097000",
    "longitude": "-91.19722000"
  },
  {
    "name": "Municipio de Poptún",
    "countryCode": "GT",
    "stateCode": "PE",
    "latitude": "16.35687000",
    "longitude": "-89.58912000"
  },
  {
    "name": "Municipio de Puerto Barrios",
    "countryCode": "GT",
    "stateCode": "IZ",
    "latitude": "15.71754000",
    "longitude": "-88.58517000"
  },
  {
    "name": "Municipio de San Andrés",
    "countryCode": "GT",
    "stateCode": "PE",
    "latitude": "17.49541000",
    "longitude": "-90.39883000"
  },
  {
    "name": "Municipio de San Andrés Sajcabajá",
    "countryCode": "GT",
    "stateCode": "QC",
    "latitude": "15.22527000",
    "longitude": "-90.93018000"
  },
  {
    "name": "Municipio de San Antonio Ilotenango",
    "countryCode": "GT",
    "stateCode": "QC",
    "latitude": "15.04898000",
    "longitude": "-91.20872000"
  },
  {
    "name": "Municipio de San Antonio Suchitepéquez",
    "countryCode": "GT",
    "stateCode": "SU",
    "latitude": "14.51839000",
    "longitude": "-91.40438000"
  },
  {
    "name": "Municipio de San Benito",
    "countryCode": "GT",
    "stateCode": "PE",
    "latitude": "16.91289000",
    "longitude": "-89.90979000"
  },
  {
    "name": "Municipio de San Felipe",
    "countryCode": "GT",
    "stateCode": "RE",
    "latitude": "14.63009000",
    "longitude": "-91.60261000"
  },
  {
    "name": "Municipio de San Francisco",
    "countryCode": "GT",
    "stateCode": "PE",
    "latitude": "16.72425000",
    "longitude": "-89.90877000"
  },
  {
    "name": "Municipio de San Juan Cotzal",
    "countryCode": "GT",
    "stateCode": "QC",
    "latitude": "15.42699000",
    "longitude": "-91.02097000"
  },
  {
    "name": "Municipio de San Juan Ostuncalco",
    "countryCode": "GT",
    "stateCode": "QZ",
    "latitude": "14.87477000",
    "longitude": "-91.68842000"
  },
  {
    "name": "Municipio de San Miguel Panán",
    "countryCode": "GT",
    "stateCode": "SU",
    "latitude": "14.50525000",
    "longitude": "-91.35956000"
  },
  {
    "name": "Municipio de San Pedro Jocopilas",
    "countryCode": "GT",
    "stateCode": "QC",
    "latitude": "15.15472000",
    "longitude": "-91.15610000"
  },
  {
    "name": "Municipio de Santa Ana",
    "countryCode": "GT",
    "stateCode": "PE",
    "latitude": "16.77305000",
    "longitude": "-89.66878000"
  },
  {
    "name": "Municipio de Santa Bárbara",
    "countryCode": "GT",
    "stateCode": "SU",
    "latitude": "14.47317000",
    "longitude": "-91.24688000"
  },
  {
    "name": "Municipio de Santa Catarina Palopó",
    "countryCode": "GT",
    "stateCode": "SO",
    "latitude": "14.71794000",
    "longitude": "-91.13060000"
  },
  {
    "name": "Municipio de Santa Cruz La Laguna",
    "countryCode": "GT",
    "stateCode": "SO",
    "latitude": "14.74324000",
    "longitude": "-91.22178000"
  },
  {
    "name": "Municipio de Santa Lucía Milpas Altas",
    "countryCode": "GT",
    "stateCode": "SA",
    "latitude": "14.56753000",
    "longitude": "-90.67551000"
  },
  {
    "name": "Municipio de Santa María Chiquimula",
    "countryCode": "GT",
    "stateCode": "TO",
    "latitude": "15.02886000",
    "longitude": "-91.32917000"
  },
  {
    "name": "Municipio de Santa María de Jesús",
    "countryCode": "GT",
    "stateCode": "SA",
    "latitude": "14.47849000",
    "longitude": "-90.69989000"
  },
  {
    "name": "Municipio de Sayaxché",
    "countryCode": "GT",
    "stateCode": "PE",
    "latitude": "16.33160000",
    "longitude": "-90.16339000"
  },
  {
    "name": "Municipio de Sipacapa",
    "countryCode": "GT",
    "stateCode": "SM",
    "latitude": "15.19243000",
    "longitude": "-91.65541000"
  },
  {
    "name": "Municipio de Tejutla",
    "countryCode": "GT",
    "stateCode": "SM",
    "latitude": "15.15638000",
    "longitude": "-91.82457000"
  },
  {
    "name": "Municipio de Totonicapán",
    "countryCode": "GT",
    "stateCode": "TO",
    "latitude": "14.90193000",
    "longitude": "-91.31999000"
  },
  {
    "name": "Municipio de Uspantán",
    "countryCode": "GT",
    "stateCode": "QC",
    "latitude": "15.44393000",
    "longitude": "-90.84398000"
  },
  {
    "name": "Municipio de Zacualpa",
    "countryCode": "GT",
    "stateCode": "QC",
    "latitude": "15.09239000",
    "longitude": "-90.88514000"
  },
  {
    "name": "Nahualá",
    "countryCode": "GT",
    "stateCode": "SO",
    "latitude": "14.84290000",
    "longitude": "-91.31799000"
  },
  {
    "name": "Nebaj",
    "countryCode": "GT",
    "stateCode": "QC",
    "latitude": "15.40614000",
    "longitude": "-91.14682000"
  },
  {
    "name": "Nentón",
    "countryCode": "GT",
    "stateCode": "HU",
    "latitude": "15.80070000",
    "longitude": "-91.75464000"
  },
  {
    "name": "Nueva Concepción",
    "countryCode": "GT",
    "stateCode": "ES",
    "latitude": "14.20000000",
    "longitude": "-91.30000000"
  },
  {
    "name": "Nueva Santa Rosa",
    "countryCode": "GT",
    "stateCode": "SR",
    "latitude": "14.38111000",
    "longitude": "-90.27611000"
  },
  {
    "name": "Nuevo Progreso",
    "countryCode": "GT",
    "stateCode": "SM",
    "latitude": "14.79174000",
    "longitude": "-91.91946000"
  },
  {
    "name": "Nuevo San Carlos",
    "countryCode": "GT",
    "stateCode": "RE",
    "latitude": "14.59300000",
    "longitude": "-91.69390000"
  },
  {
    "name": "Ocós",
    "countryCode": "GT",
    "stateCode": "SM",
    "latitude": "14.50998000",
    "longitude": "-92.19298000"
  },
  {
    "name": "Olintepeque",
    "countryCode": "GT",
    "stateCode": "QZ",
    "latitude": "14.88605000",
    "longitude": "-91.51472000"
  },
  {
    "name": "Olopa",
    "countryCode": "GT",
    "stateCode": "CQ",
    "latitude": "14.69229000",
    "longitude": "-89.35003000"
  },
  {
    "name": "Oratorio",
    "countryCode": "GT",
    "stateCode": "SR",
    "latitude": "14.22806000",
    "longitude": "-90.17583000"
  },
  {
    "name": "Ostuncalco",
    "countryCode": "GT",
    "stateCode": "QZ",
    "latitude": "14.86899000",
    "longitude": "-91.62137000"
  },
  {
    "name": "Pachalum",
    "countryCode": "GT",
    "stateCode": "QC",
    "latitude": "14.92472000",
    "longitude": "-90.66278000"
  },
  {
    "name": "Pajapita",
    "countryCode": "GT",
    "stateCode": "SM",
    "latitude": "14.72152000",
    "longitude": "-92.03521000"
  },
  {
    "name": "Palencia",
    "countryCode": "GT",
    "stateCode": "GU",
    "latitude": "14.66715000",
    "longitude": "-90.35721000"
  },
  {
    "name": "Palestina de los Altos",
    "countryCode": "GT",
    "stateCode": "QZ",
    "latitude": "14.93338000",
    "longitude": "-91.69403000"
  },
  {
    "name": "Palín",
    "countryCode": "GT",
    "stateCode": "ES",
    "latitude": "14.40358000",
    "longitude": "-90.69659000"
  },
  {
    "name": "Panajachel",
    "countryCode": "GT",
    "stateCode": "SO",
    "latitude": "14.74185000",
    "longitude": "-91.15676000"
  },
  {
    "name": "Panzós",
    "countryCode": "GT",
    "stateCode": "AV",
    "latitude": "15.40000000",
    "longitude": "-89.66667000"
  },
  {
    "name": "Parramos",
    "countryCode": "GT",
    "stateCode": "CM",
    "latitude": "14.60891000",
    "longitude": "-90.80303000"
  },
  {
    "name": "Pasaco",
    "countryCode": "GT",
    "stateCode": "JU",
    "latitude": "13.97722000",
    "longitude": "-90.20639000"
  },
  {
    "name": "Pastores",
    "countryCode": "GT",
    "stateCode": "SA",
    "latitude": "14.59433000",
    "longitude": "-90.75473000"
  },
  {
    "name": "Patulul",
    "countryCode": "GT",
    "stateCode": "SU",
    "latitude": "14.42321000",
    "longitude": "-91.16049000"
  },
  {
    "name": "Patzicía",
    "countryCode": "GT",
    "stateCode": "CM",
    "latitude": "14.63194000",
    "longitude": "-90.92659000"
  },
  {
    "name": "Patzité",
    "countryCode": "GT",
    "stateCode": "QC",
    "latitude": "14.96426000",
    "longitude": "-91.20788000"
  },
  {
    "name": "Patzún",
    "countryCode": "GT",
    "stateCode": "CM",
    "latitude": "14.68189000",
    "longitude": "-91.01397000"
  },
  {
    "name": "Petapa",
    "countryCode": "GT",
    "stateCode": "GU",
    "latitude": "14.50189000",
    "longitude": "-90.56196000"
  },
  {
    "name": "Playa Grande",
    "countryCode": "GT",
    "stateCode": "QC",
    "latitude": "15.93333000",
    "longitude": "-90.73333000"
  },
  {
    "name": "Pochuta",
    "countryCode": "GT",
    "stateCode": "CM",
    "latitude": "14.54450000",
    "longitude": "-91.08904000"
  },
  {
    "name": "Poptún",
    "countryCode": "GT",
    "stateCode": "PE",
    "latitude": "16.33111000",
    "longitude": "-89.41694000"
  },
  {
    "name": "Pueblo Nuevo",
    "countryCode": "GT",
    "stateCode": "SU",
    "latitude": "14.64709000",
    "longitude": "-91.53946000"
  },
  {
    "name": "Pueblo Nuevo Viñas",
    "countryCode": "GT",
    "stateCode": "SR",
    "latitude": "14.22576000",
    "longitude": "-90.47613000"
  },
  {
    "name": "Puerto Barrios",
    "countryCode": "GT",
    "stateCode": "IZ",
    "latitude": "15.72778000",
    "longitude": "-88.59444000"
  },
  {
    "name": "Puerto San José",
    "countryCode": "GT",
    "stateCode": "ES",
    "latitude": "13.92740000",
    "longitude": "-90.82166000"
  },
  {
    "name": "Purulhá",
    "countryCode": "GT",
    "stateCode": "BV",
    "latitude": "15.26667000",
    "longitude": "-90.20000000"
  },
  {
    "name": "Quesada",
    "countryCode": "GT",
    "stateCode": "JU",
    "latitude": "14.27028000",
    "longitude": "-90.04028000"
  },
  {
    "name": "Quetzaltenango",
    "countryCode": "GT",
    "stateCode": "QZ",
    "latitude": "14.83472000",
    "longitude": "-91.51806000"
  },
  {
    "name": "Quezaltepeque",
    "countryCode": "GT",
    "stateCode": "CQ",
    "latitude": "14.63553000",
    "longitude": "-89.44241000"
  },
  {
    "name": "Rabinal",
    "countryCode": "GT",
    "stateCode": "BV",
    "latitude": "15.08530000",
    "longitude": "-90.49255000"
  },
  {
    "name": "Retalhuleu",
    "countryCode": "GT",
    "stateCode": "RE",
    "latitude": "14.53611000",
    "longitude": "-91.67778000"
  },
  {
    "name": "Río Blanco",
    "countryCode": "GT",
    "stateCode": "SM",
    "latitude": "15.03820000",
    "longitude": "-91.68463000"
  },
  {
    "name": "Río Bravo",
    "countryCode": "GT",
    "stateCode": "SU",
    "latitude": "14.40042000",
    "longitude": "-91.31713000"
  },
  {
    "name": "Sacapulas",
    "countryCode": "GT",
    "stateCode": "QC",
    "latitude": "15.28801000",
    "longitude": "-91.08914000"
  },
  {
    "name": "Salamá",
    "countryCode": "GT",
    "stateCode": "BV",
    "latitude": "15.10278000",
    "longitude": "-90.31806000"
  },
  {
    "name": "Salcajá",
    "countryCode": "GT",
    "stateCode": "QZ",
    "latitude": "14.87964000",
    "longitude": "-91.45699000"
  },
  {
    "name": "Samayac",
    "countryCode": "GT",
    "stateCode": "QZ",
    "latitude": "14.58084000",
    "longitude": "-91.46135000"
  },
  {
    "name": "San Agustín Acasaguastlán",
    "countryCode": "GT",
    "stateCode": "PR",
    "latitude": "14.95000000",
    "longitude": "-89.96667000"
  },
  {
    "name": "San Andrés",
    "countryCode": "GT",
    "stateCode": "PE",
    "latitude": "16.96667000",
    "longitude": "-89.91667000"
  },
  {
    "name": "San Andrés Itzapa",
    "countryCode": "GT",
    "stateCode": "CM",
    "latitude": "14.62222000",
    "longitude": "-90.84314000"
  },
  {
    "name": "San Andrés Sajcabajá",
    "countryCode": "GT",
    "stateCode": "QC",
    "latitude": "15.17603000",
    "longitude": "-90.94220000"
  },
  {
    "name": "San Andrés Semetabaj",
    "countryCode": "GT",
    "stateCode": "SO",
    "latitude": "14.74497000",
    "longitude": "-91.13344000"
  },
  {
    "name": "San Andrés Villa Seca",
    "countryCode": "GT",
    "stateCode": "RE",
    "latitude": "14.57801000",
    "longitude": "-91.58539000"
  },
  {
    "name": "San Andrés Xecul",
    "countryCode": "GT",
    "stateCode": "TO",
    "latitude": "14.90482000",
    "longitude": "-91.48307000"
  },
  {
    "name": "San Antonio Aguas Calientes",
    "countryCode": "GT",
    "stateCode": "SA",
    "latitude": "14.54676000",
    "longitude": "-90.78054000"
  },
  {
    "name": "San Antonio Huista",
    "countryCode": "GT",
    "stateCode": "HU",
    "latitude": "15.65010000",
    "longitude": "-91.77163000"
  },
  {
    "name": "San Antonio Ilotenango",
    "countryCode": "GT",
    "stateCode": "QC",
    "latitude": "15.05472000",
    "longitude": "-91.22986000"
  },
  {
    "name": "San Antonio La Paz",
    "countryCode": "GT",
    "stateCode": "PR",
    "latitude": "14.75888000",
    "longitude": "-90.28485000"
  },
  {
    "name": "San Antonio Palopó",
    "countryCode": "GT",
    "stateCode": "SO",
    "latitude": "14.69232000",
    "longitude": "-91.11638000"
  },
  {
    "name": "San Antonio Sacatepéquez",
    "countryCode": "GT",
    "stateCode": "SM",
    "latitude": "14.96060000",
    "longitude": "-91.73154000"
  },
  {
    "name": "San Antonio Suchitepéquez",
    "countryCode": "GT",
    "stateCode": "SU",
    "latitude": "14.53938000",
    "longitude": "-91.41442000"
  },
  {
    "name": "San Bartolo",
    "countryCode": "GT",
    "stateCode": "TO",
    "latitude": "15.08438000",
    "longitude": "-91.45606000"
  },
  {
    "name": "San Bartolomé Jocotenango",
    "countryCode": "GT",
    "stateCode": "QC",
    "latitude": "15.19153000",
    "longitude": "-91.07806000"
  },
  {
    "name": "San Bartolomé Milpas Altas",
    "countryCode": "GT",
    "stateCode": "SA",
    "latitude": "14.60690000",
    "longitude": "-90.67807000"
  },
  {
    "name": "San Benito",
    "countryCode": "GT",
    "stateCode": "PE",
    "latitude": "16.91675000",
    "longitude": "-89.91898000"
  },
  {
    "name": "San Bernardino",
    "countryCode": "GT",
    "stateCode": "SU",
    "latitude": "14.54240000",
    "longitude": "-91.45811000"
  },
  {
    "name": "San Carlos Sija",
    "countryCode": "GT",
    "stateCode": "QZ",
    "latitude": "14.98436000",
    "longitude": "-91.54912000"
  },
  {
    "name": "San Cristóbal Acasaguastlán",
    "countryCode": "GT",
    "stateCode": "PR",
    "latitude": "14.91667000",
    "longitude": "-89.88333000"
  },
  {
    "name": "San Cristóbal Cucho",
    "countryCode": "GT",
    "stateCode": "SM",
    "latitude": "14.90505000",
    "longitude": "-91.78123000"
  },
  {
    "name": "San Cristóbal Totonicapán",
    "countryCode": "GT",
    "stateCode": "TO",
    "latitude": "14.91682000",
    "longitude": "-91.44060000"
  },
  {
    "name": "San Cristóbal Verapaz",
    "countryCode": "GT",
    "stateCode": "AV",
    "latitude": "15.39632000",
    "longitude": "-90.56513000"
  },
  {
    "name": "San Felipe",
    "countryCode": "GT",
    "stateCode": "RE",
    "latitude": "14.62304000",
    "longitude": "-91.59500000"
  },
  {
    "name": "San Francisco",
    "countryCode": "GT",
    "stateCode": "PE",
    "latitude": "16.80000000",
    "longitude": "-89.93333000"
  },
  {
    "name": "San Francisco El Alto",
    "countryCode": "GT",
    "stateCode": "TO",
    "latitude": "14.94490000",
    "longitude": "-91.44310000"
  },
  {
    "name": "San Francisco Zapotitlán",
    "countryCode": "GT",
    "stateCode": "SU",
    "latitude": "14.58939000",
    "longitude": "-91.52144000"
  },
  {
    "name": "San Francisco la Unión",
    "countryCode": "GT",
    "stateCode": "QZ",
    "latitude": "14.92350000",
    "longitude": "-91.54157000"
  },
  {
    "name": "San Gabriel",
    "countryCode": "GT",
    "stateCode": "SU",
    "latitude": "14.51076000",
    "longitude": "-91.50745000"
  },
  {
    "name": "San Gaspar Ixchil",
    "countryCode": "GT",
    "stateCode": "HU",
    "latitude": "15.38796000",
    "longitude": "-91.72564000"
  },
  {
    "name": "San Jacinto",
    "countryCode": "GT",
    "stateCode": "CQ",
    "latitude": "14.66667000",
    "longitude": "-89.50000000"
  },
  {
    "name": "San Jerónimo",
    "countryCode": "GT",
    "stateCode": "BV",
    "latitude": "15.06032000",
    "longitude": "-90.24050000"
  },
  {
    "name": "San José",
    "countryCode": "GT",
    "stateCode": "PE",
    "latitude": "16.98333000",
    "longitude": "-89.90000000"
  },
  {
    "name": "San José Acatempa",
    "countryCode": "GT",
    "stateCode": "JU",
    "latitude": "14.26528000",
    "longitude": "-90.12694000"
  },
  {
    "name": "San José Chacayá",
    "countryCode": "GT",
    "stateCode": "SO",
    "latitude": "14.77096000",
    "longitude": "-91.21564000"
  },
  {
    "name": "San José El Ídolo",
    "countryCode": "GT",
    "stateCode": "SU",
    "latitude": "14.45016000",
    "longitude": "-91.42222000"
  },
  {
    "name": "San José La Arada",
    "countryCode": "GT",
    "stateCode": "CQ",
    "latitude": "14.71667000",
    "longitude": "-89.58333000"
  },
  {
    "name": "San José Ojetenam",
    "countryCode": "GT",
    "stateCode": "SM",
    "latitude": "15.23443000",
    "longitude": "-91.97317000"
  },
  {
    "name": "San José Ojetenán",
    "countryCode": "GT",
    "stateCode": "SM",
    "latitude": "15.21667000",
    "longitude": "-91.96667000"
  },
  {
    "name": "San José Pinula",
    "countryCode": "GT",
    "stateCode": "GU",
    "latitude": "14.54600000",
    "longitude": "-90.41288000"
  },
  {
    "name": "San José Poaquil",
    "countryCode": "GT",
    "stateCode": "CM",
    "latitude": "14.81808000",
    "longitude": "-90.91248000"
  },
  {
    "name": "San José del Golfo",
    "countryCode": "GT",
    "stateCode": "GU",
    "latitude": "14.76414000",
    "longitude": "-90.37228000"
  },
  {
    "name": "San Juan Atitán",
    "countryCode": "GT",
    "stateCode": "HU",
    "latitude": "15.42886000",
    "longitude": "-91.62398000"
  },
  {
    "name": "San Juan Bautista",
    "countryCode": "GT",
    "stateCode": "SU",
    "latitude": "14.42274000",
    "longitude": "-91.17904000"
  },
  {
    "name": "San Juan Chamelco",
    "countryCode": "GT",
    "stateCode": "AV",
    "latitude": "15.43333000",
    "longitude": "-90.33333000"
  },
  {
    "name": "San Juan Cotzal",
    "countryCode": "GT",
    "stateCode": "QC",
    "latitude": "15.43368000",
    "longitude": "-91.03481000"
  },
  {
    "name": "San Juan Ermita",
    "countryCode": "GT",
    "stateCode": "CQ",
    "latitude": "14.76471000",
    "longitude": "-89.43014000"
  },
  {
    "name": "San Juan Ixcoy",
    "countryCode": "GT",
    "stateCode": "HU",
    "latitude": "15.60022000",
    "longitude": "-91.44639000"
  },
  {
    "name": "San Juan La Laguna",
    "countryCode": "GT",
    "stateCode": "SO",
    "latitude": "14.69453000",
    "longitude": "-91.28666000"
  },
  {
    "name": "San Juan Sacatepéquez",
    "countryCode": "GT",
    "stateCode": "GU",
    "latitude": "14.71889000",
    "longitude": "-90.64417000"
  },
  {
    "name": "San Juan Tecuaco",
    "countryCode": "GT",
    "stateCode": "SR",
    "latitude": "14.08361000",
    "longitude": "-90.26649000"
  },
  {
    "name": "San Lorenzo",
    "countryCode": "GT",
    "stateCode": "SM",
    "latitude": "15.03087000",
    "longitude": "-91.73534000"
  },
  {
    "name": "San Lorenzo",
    "countryCode": "GT",
    "stateCode": "SU",
    "latitude": "14.48606000",
    "longitude": "-91.51263000"
  },
  {
    "name": "San Lucas Sacatepéquez",
    "countryCode": "GT",
    "stateCode": "SA",
    "latitude": "14.61075000",
    "longitude": "-90.65681000"
  },
  {
    "name": "San Lucas Tolimán",
    "countryCode": "GT",
    "stateCode": "SO",
    "latitude": "14.59471000",
    "longitude": "-91.14659000"
  },
  {
    "name": "San Luis",
    "countryCode": "GT",
    "stateCode": "PE",
    "latitude": "16.19889000",
    "longitude": "-89.44028000"
  },
  {
    "name": "San Luis Ixcán",
    "countryCode": "GT",
    "stateCode": "QC",
    "latitude": "15.78722000",
    "longitude": "-91.09500000"
  },
  {
    "name": "San Luis Jilotepeque",
    "countryCode": "GT",
    "stateCode": "JA",
    "latitude": "14.65000000",
    "longitude": "-89.73333000"
  },
  {
    "name": "San Manuel Chaparrón",
    "countryCode": "GT",
    "stateCode": "JA",
    "latitude": "14.51667000",
    "longitude": "-89.76667000"
  },
  {
    "name": "San Marcos",
    "countryCode": "GT",
    "stateCode": "SM",
    "latitude": "14.96389000",
    "longitude": "-91.79444000"
  },
  {
    "name": "San Marcos La Laguna",
    "countryCode": "GT",
    "stateCode": "SO",
    "latitude": "14.72504000",
    "longitude": "-91.25844000"
  },
  {
    "name": "San Martín Jilotepeque",
    "countryCode": "GT",
    "stateCode": "CM",
    "latitude": "14.78008000",
    "longitude": "-90.79259000"
  },
  {
    "name": "San Martín Sacatepéquez",
    "countryCode": "GT",
    "stateCode": "QZ",
    "latitude": "14.82443000",
    "longitude": "-91.64192000"
  },
  {
    "name": "San Martín Zapotitlán",
    "countryCode": "GT",
    "stateCode": "RE",
    "latitude": "14.60794000",
    "longitude": "-91.60613000"
  },
  {
    "name": "San Mateo",
    "countryCode": "GT",
    "stateCode": "QZ",
    "latitude": "14.85800000",
    "longitude": "-91.59004000"
  },
  {
    "name": "San Mateo Ixtatán",
    "countryCode": "GT",
    "stateCode": "HU",
    "latitude": "15.83194000",
    "longitude": "-91.47806000"
  },
  {
    "name": "San Miguel Acatán",
    "countryCode": "GT",
    "stateCode": "HU",
    "latitude": "15.70401000",
    "longitude": "-91.59771000"
  },
  {
    "name": "San Miguel Chicaj",
    "countryCode": "GT",
    "stateCode": "BV",
    "latitude": "15.09472000",
    "longitude": "-90.39442000"
  },
  {
    "name": "San Miguel Dueñas",
    "countryCode": "GT",
    "stateCode": "SA",
    "latitude": "14.52241000",
    "longitude": "-90.79938000"
  },
  {
    "name": "San Miguel Ixtahuacán",
    "countryCode": "GT",
    "stateCode": "SM",
    "latitude": "15.27247000",
    "longitude": "-91.74785000"
  },
  {
    "name": "San Miguel Panán",
    "countryCode": "GT",
    "stateCode": "SU",
    "latitude": "14.52865000",
    "longitude": "-91.36733000"
  },
  {
    "name": "San Miguel Sigüilá",
    "countryCode": "GT",
    "stateCode": "QZ",
    "latitude": "14.89547000",
    "longitude": "-91.61457000"
  },
  {
    "name": "San Pablo",
    "countryCode": "GT",
    "stateCode": "SM",
    "latitude": "14.93269000",
    "longitude": "-92.00415000"
  },
  {
    "name": "San Pablo Jocopilas",
    "countryCode": "GT",
    "stateCode": "SU",
    "latitude": "14.58882000",
    "longitude": "-91.45188000"
  },
  {
    "name": "San Pablo La Laguna",
    "countryCode": "GT",
    "stateCode": "SO",
    "latitude": "14.72092000",
    "longitude": "-91.27242000"
  },
  {
    "name": "San Pedro Ayampuc",
    "countryCode": "GT",
    "stateCode": "GU",
    "latitude": "14.77943000",
    "longitude": "-90.45318000"
  },
  {
    "name": "San Pedro Carchá",
    "countryCode": "GT",
    "stateCode": "AV",
    "latitude": "15.48333000",
    "longitude": "-90.26667000"
  },
  {
    "name": "San Pedro La Laguna",
    "countryCode": "GT",
    "stateCode": "SO",
    "latitude": "14.69297000",
    "longitude": "-91.27201000"
  },
  {
    "name": "San Pedro Necta",
    "countryCode": "GT",
    "stateCode": "HU",
    "latitude": "15.49142000",
    "longitude": "-91.76551000"
  },
  {
    "name": "San Pedro Pinula",
    "countryCode": "GT",
    "stateCode": "JA",
    "latitude": "14.66667000",
    "longitude": "-89.85000000"
  },
  {
    "name": "San Pedro Sacatepéquez",
    "countryCode": "GT",
    "stateCode": "GU",
    "latitude": "14.68612000",
    "longitude": "-90.64253000"
  },
  {
    "name": "San Pedro Sacatepéquez",
    "countryCode": "GT",
    "stateCode": "SM",
    "latitude": "14.96807000",
    "longitude": "-91.76172000"
  },
  {
    "name": "San Pédro Jocopilas",
    "countryCode": "GT",
    "stateCode": "QC",
    "latitude": "15.09525000",
    "longitude": "-91.15135000"
  },
  {
    "name": "San Rafael La Independencia",
    "countryCode": "GT",
    "stateCode": "HU",
    "latitude": "15.70150000",
    "longitude": "-91.53553000"
  },
  {
    "name": "San Rafael Las Flores",
    "countryCode": "GT",
    "stateCode": "SR",
    "latitude": "14.48139000",
    "longitude": "-90.17333000"
  },
  {
    "name": "San Rafael Petzal",
    "countryCode": "GT",
    "stateCode": "HU",
    "latitude": "15.40487000",
    "longitude": "-91.66451000"
  },
  {
    "name": "San Rafael Pie de la Cuesta",
    "countryCode": "GT",
    "stateCode": "SM",
    "latitude": "14.93052000",
    "longitude": "-91.91388000"
  },
  {
    "name": "San Raimundo",
    "countryCode": "GT",
    "stateCode": "GU",
    "latitude": "14.76462000",
    "longitude": "-90.59493000"
  },
  {
    "name": "San Sebastián",
    "countryCode": "GT",
    "stateCode": "RE",
    "latitude": "14.56177000",
    "longitude": "-91.64865000"
  },
  {
    "name": "San Sebastián Coatán",
    "countryCode": "GT",
    "stateCode": "HU",
    "latitude": "15.73584000",
    "longitude": "-91.56285000"
  },
  {
    "name": "San Sebastián Huehuetenango",
    "countryCode": "GT",
    "stateCode": "HU",
    "latitude": "15.38768000",
    "longitude": "-91.61530000"
  },
  {
    "name": "San Vicente Pacaya",
    "countryCode": "GT",
    "stateCode": "ES",
    "latitude": "14.41466000",
    "longitude": "-90.63613000"
  },
  {
    "name": "Sanarate",
    "countryCode": "GT",
    "stateCode": "PR",
    "latitude": "14.78828000",
    "longitude": "-90.19876000"
  },
  {
    "name": "Sansare",
    "countryCode": "GT",
    "stateCode": "PR",
    "latitude": "14.74572000",
    "longitude": "-90.11615000"
  },
  {
    "name": "Santa Ana",
    "countryCode": "GT",
    "stateCode": "PE",
    "latitude": "16.80000000",
    "longitude": "-89.83333000"
  },
  {
    "name": "Santa Ana Huista",
    "countryCode": "GT",
    "stateCode": "HU",
    "latitude": "15.68085000",
    "longitude": "-91.82005000"
  },
  {
    "name": "Santa Apolonia",
    "countryCode": "GT",
    "stateCode": "CM",
    "latitude": "14.79049000",
    "longitude": "-90.97267000"
  },
  {
    "name": "Santa Bárbara",
    "countryCode": "GT",
    "stateCode": "HU",
    "latitude": "15.31617000",
    "longitude": "-91.63279000"
  },
  {
    "name": "Santa Bárbara",
    "countryCode": "GT",
    "stateCode": "SU",
    "latitude": "14.43563000",
    "longitude": "-91.22685000"
  },
  {
    "name": "Santa Catarina Barahona",
    "countryCode": "GT",
    "stateCode": "SA",
    "latitude": "14.55135000",
    "longitude": "-90.78598000"
  },
  {
    "name": "Santa Catarina Ixtahuacán",
    "countryCode": "GT",
    "stateCode": "SO",
    "latitude": "14.79797000",
    "longitude": "-91.35866000"
  },
  {
    "name": "Santa Catarina Mita",
    "countryCode": "GT",
    "stateCode": "JU",
    "latitude": "14.45000000",
    "longitude": "-89.75000000"
  },
  {
    "name": "Santa Catarina Palopó",
    "countryCode": "GT",
    "stateCode": "SO",
    "latitude": "14.72335000",
    "longitude": "-91.13428000"
  },
  {
    "name": "Santa Catarina Pinula",
    "countryCode": "GT",
    "stateCode": "GU",
    "latitude": "14.57047000",
    "longitude": "-90.49925000"
  },
  {
    "name": "Santa Clara La Laguna",
    "countryCode": "GT",
    "stateCode": "SO",
    "latitude": "14.71509000",
    "longitude": "-91.30355000"
  },
  {
    "name": "Santa Cruz Balanyá",
    "countryCode": "GT",
    "stateCode": "CM",
    "latitude": "14.68522000",
    "longitude": "-90.91906000"
  },
  {
    "name": "Santa Cruz La Laguna",
    "countryCode": "GT",
    "stateCode": "SO",
    "latitude": "14.74421000",
    "longitude": "-91.20716000"
  },
  {
    "name": "Santa Cruz Muluá",
    "countryCode": "GT",
    "stateCode": "RE",
    "latitude": "14.58153000",
    "longitude": "-91.62441000"
  },
  {
    "name": "Santa Cruz Naranjo",
    "countryCode": "GT",
    "stateCode": "SR",
    "latitude": "14.38806000",
    "longitude": "-90.36972000"
  },
  {
    "name": "Santa Cruz Verapaz",
    "countryCode": "GT",
    "stateCode": "AV",
    "latitude": "15.36667000",
    "longitude": "-90.43333000"
  },
  {
    "name": "Santa Cruz del Quiché",
    "countryCode": "GT",
    "stateCode": "QC",
    "latitude": "15.03085000",
    "longitude": "-91.14871000"
  },
  {
    "name": "Santa Eulalia",
    "countryCode": "GT",
    "stateCode": "HU",
    "latitude": "15.73060000",
    "longitude": "-91.45846000"
  },
  {
    "name": "Santa Lucia La Reforma",
    "countryCode": "GT",
    "stateCode": "TO",
    "latitude": "15.12819000",
    "longitude": "-91.23619000"
  },
  {
    "name": "Santa Lucía Cotzumalguapa",
    "countryCode": "GT",
    "stateCode": "ES",
    "latitude": "14.33505000",
    "longitude": "-91.02339000"
  },
  {
    "name": "Santa Lucía Milpas Altas",
    "countryCode": "GT",
    "stateCode": "SA",
    "latitude": "14.57655000",
    "longitude": "-90.67632000"
  },
  {
    "name": "Santa Lucía Utatlán",
    "countryCode": "GT",
    "stateCode": "SO",
    "latitude": "14.77135000",
    "longitude": "-91.26700000"
  },
  {
    "name": "Santa María Chiquimula",
    "countryCode": "GT",
    "stateCode": "TO",
    "latitude": "15.02992000",
    "longitude": "-91.32920000"
  },
  {
    "name": "Santa María Ixhuatán",
    "countryCode": "GT",
    "stateCode": "SR",
    "latitude": "14.19000000",
    "longitude": "-90.27472000"
  },
  {
    "name": "Santa María Visitación",
    "countryCode": "GT",
    "stateCode": "SO",
    "latitude": "14.71717000",
    "longitude": "-91.30844000"
  },
  {
    "name": "Santa María de Jesús",
    "countryCode": "GT",
    "stateCode": "SA",
    "latitude": "14.49452000",
    "longitude": "-90.71036000"
  },
  {
    "name": "Santa Rosa de Lima",
    "countryCode": "GT",
    "stateCode": "SR",
    "latitude": "14.38806000",
    "longitude": "-90.29556000"
  },
  {
    "name": "Santiago Atitlán",
    "countryCode": "GT",
    "stateCode": "SO",
    "latitude": "14.63823000",
    "longitude": "-91.22901000"
  },
  {
    "name": "Santiago Chimaltenango",
    "countryCode": "GT",
    "stateCode": "HU",
    "latitude": "15.47658000",
    "longitude": "-91.69656000"
  },
  {
    "name": "Santiago Sacatepéquez",
    "countryCode": "GT",
    "stateCode": "SA",
    "latitude": "14.63510000",
    "longitude": "-90.67654000"
  },
  {
    "name": "Santo Domingo Suchitepéquez",
    "countryCode": "GT",
    "stateCode": "SU",
    "latitude": "14.47901000",
    "longitude": "-91.48327000"
  },
  {
    "name": "Santo Domingo Xenacoj",
    "countryCode": "GT",
    "stateCode": "SA",
    "latitude": "14.68057000",
    "longitude": "-90.70012000"
  },
  {
    "name": "Santo Tomás La Unión",
    "countryCode": "GT",
    "stateCode": "SU",
    "latitude": "14.63219000",
    "longitude": "-91.41075000"
  },
  {
    "name": "Sayaxché",
    "countryCode": "GT",
    "stateCode": "PE",
    "latitude": "16.52446000",
    "longitude": "-90.18801000"
  },
  {
    "name": "Senahú",
    "countryCode": "GT",
    "stateCode": "AV",
    "latitude": "15.40000000",
    "longitude": "-89.83333000"
  },
  {
    "name": "Sibilia",
    "countryCode": "GT",
    "stateCode": "QZ",
    "latitude": "14.99391000",
    "longitude": "-91.62371000"
  },
  {
    "name": "Sibinal",
    "countryCode": "GT",
    "stateCode": "SM",
    "latitude": "15.14963000",
    "longitude": "-92.04892000"
  },
  {
    "name": "Sipacapa",
    "countryCode": "GT",
    "stateCode": "SM",
    "latitude": "15.21246000",
    "longitude": "-91.63416000"
  },
  {
    "name": "Siquinalá",
    "countryCode": "GT",
    "stateCode": "ES",
    "latitude": "14.30611000",
    "longitude": "-90.96500000"
  },
  {
    "name": "Sololá",
    "countryCode": "GT",
    "stateCode": "SO",
    "latitude": "14.77222000",
    "longitude": "-91.18333000"
  },
  {
    "name": "Soloma",
    "countryCode": "GT",
    "stateCode": "HU",
    "latitude": "15.65841000",
    "longitude": "-91.42994000"
  },
  {
    "name": "Sumpango",
    "countryCode": "GT",
    "stateCode": "SA",
    "latitude": "14.64623000",
    "longitude": "-90.73427000"
  },
  {
    "name": "Tacaná",
    "countryCode": "GT",
    "stateCode": "SM",
    "latitude": "15.24058000",
    "longitude": "-92.06721000"
  },
  {
    "name": "Tactic",
    "countryCode": "GT",
    "stateCode": "AV",
    "latitude": "15.32218000",
    "longitude": "-90.35448000"
  },
  {
    "name": "Tajumulco",
    "countryCode": "GT",
    "stateCode": "SM",
    "latitude": "15.08349000",
    "longitude": "-91.92225000"
  },
  {
    "name": "Tamahú",
    "countryCode": "GT",
    "stateCode": "AV",
    "latitude": "15.30890000",
    "longitude": "-90.23599000"
  },
  {
    "name": "Taxisco",
    "countryCode": "GT",
    "stateCode": "SR",
    "latitude": "14.06719000",
    "longitude": "-90.46791000"
  },
  {
    "name": "Tecpán Guatemala",
    "countryCode": "GT",
    "stateCode": "CM",
    "latitude": "14.76181000",
    "longitude": "-90.99247000"
  },
  {
    "name": "Tectitán",
    "countryCode": "GT",
    "stateCode": "HU",
    "latitude": "15.30630000",
    "longitude": "-92.06051000"
  },
  {
    "name": "Tejutla",
    "countryCode": "GT",
    "stateCode": "SM",
    "latitude": "15.12254000",
    "longitude": "-91.80635000"
  },
  {
    "name": "Tiquisate",
    "countryCode": "GT",
    "stateCode": "ES",
    "latitude": "14.28356000",
    "longitude": "-91.36063000"
  },
  {
    "name": "Todos Santos Cuchumatán",
    "countryCode": "GT",
    "stateCode": "HU",
    "latitude": "15.50846000",
    "longitude": "-91.60382000"
  },
  {
    "name": "Totonicapán",
    "countryCode": "GT",
    "stateCode": "TO",
    "latitude": "14.91167000",
    "longitude": "-91.36111000"
  },
  {
    "name": "Tucurú",
    "countryCode": "GT",
    "stateCode": "AV",
    "latitude": "15.30000000",
    "longitude": "-90.06667000"
  },
  {
    "name": "Uspantán",
    "countryCode": "GT",
    "stateCode": "QC",
    "latitude": "15.34672000",
    "longitude": "-90.87050000"
  },
  {
    "name": "Villa Canales",
    "countryCode": "GT",
    "stateCode": "GU",
    "latitude": "14.48285000",
    "longitude": "-90.53425000"
  },
  {
    "name": "Villa Nueva",
    "countryCode": "GT",
    "stateCode": "GU",
    "latitude": "14.52512000",
    "longitude": "-90.58544000"
  },
  {
    "name": "Yepocapa",
    "countryCode": "GT",
    "stateCode": "CM",
    "latitude": "14.50195000",
    "longitude": "-90.95396000"
  },
  {
    "name": "Yupiltepeque",
    "countryCode": "GT",
    "stateCode": "JU",
    "latitude": "14.20000000",
    "longitude": "-89.78333000"
  },
  {
    "name": "Zacualpa",
    "countryCode": "GT",
    "stateCode": "QC",
    "latitude": "15.02681000",
    "longitude": "-90.87815000"
  },
  {
    "name": "Zapotitlán",
    "countryCode": "GT",
    "stateCode": "JU",
    "latitude": "14.13333000",
    "longitude": "-89.83333000"
  },
  {
    "name": "Zaragoza",
    "countryCode": "GT",
    "stateCode": "CM",
    "latitude": "14.64968000",
    "longitude": "-90.89034000"
  },
  {
    "name": "Zunil",
    "countryCode": "GT",
    "stateCode": "QZ",
    "latitude": "14.78463000",
    "longitude": "-91.48345000"
  },
  {
    "name": "Zunilito",
    "countryCode": "GT",
    "stateCode": "SU",
    "latitude": "14.61264000",
    "longitude": "-91.50980000"
  }
]