[
  {
    "name": "Bafatá",
    "countryCode": "GW",
    "stateCode": "BA",
    "latitude": "12.16583000",
    "longitude": "-14.66167000"
  },
  {
    "name": "Bissorã",
    "countryCode": "GW",
    "stateCode": "OI",
    "latitude": "12.22306000",
    "longitude": "-15.44750000"
  },
  {
    "name": "Bolama",
    "countryCode": "GW",
    "stateCode": "BL",
    "latitude": "11.57694000",
    "longitude": "-15.47611000"
  },
  {
    "name": "Buba",
    "countryCode": "GW",
    "stateCode": "QU",
    "latitude": "11.58889000",
    "longitude": "-14.99583000"
  },
  {
    "name": "Bubaque",
    "countryCode": "GW",
    "stateCode": "BL",
    "latitude": "11.28333000",
    "longitude": "-15.83333000"
  },
  {
    "name": "Cacheu",
    "countryCode": "GW",
    "stateCode": "CA",
    "latitude": "12.27444000",
    "longitude": "-16.16528000"
  },
  {
    "name": "Canchungo",
    "countryCode": "GW",
    "stateCode": "CA",
    "latitude": "12.06722000",
    "longitude": "-16.03333000"
  },
  {
    "name": "Catió",
    "countryCode": "GW",
    "stateCode": "TO",
    "latitude": "11.28250000",
    "longitude": "-15.25472000"
  },
  {
    "name": "Contuboel Sector",
    "countryCode": "GW",
    "stateCode": "BA",
    "latitude": "12.55500000",
    "longitude": "-14.64100000"
  },
  {
    "name": "Farim",
    "countryCode": "GW",
    "stateCode": "OI",
    "latitude": "12.48389000",
    "longitude": "-15.22167000"
  },
  {
    "name": "Gabú",
    "countryCode": "GW",
    "stateCode": "GA",
    "latitude": "12.28000000",
    "longitude": "-14.22222000"
  },
  {
    "name": "Mansôa",
    "countryCode": "GW",
    "stateCode": "OI",
    "latitude": "12.07333000",
    "longitude": "-15.31889000"
  },
  {
    "name": "Quebo",
    "countryCode": "GW",
    "stateCode": "TO",
    "latitude": "11.33333000",
    "longitude": "-14.93333000"
  },
  {
    "name": "Quinhámel",
    "countryCode": "GW",
    "stateCode": "BM",
    "latitude": "11.88694000",
    "longitude": "-15.85556000"
  }
]