[
  {
    "name": "Andrijaševci",
    "countryCode": "HR",
    "stateCode": "16",
    "latitude": "45.22472000",
    "longitude": "18.73806000"
  },
  {
    "name": "Antunovac",
    "countryCode": "HR",
    "stateCode": "14",
    "latitude": "45.49083000",
    "longitude": "18.67500000"
  },
  {
    "name": "Babina Greda",
    "countryCode": "HR",
    "stateCode": "16",
    "latitude": "45.11722000",
    "longitude": "18.53694000"
  },
  {
    "name": "Bakar",
    "countryCode": "HR",
    "stateCode": "08",
    "latitude": "45.30861000",
    "longitude": "14.53028000"
  },
  {
    "name": "Bale",
    "countryCode": "HR",
    "stateCode": "18",
    "latitude": "45.04056000",
    "longitude": "13.78361000"
  },
  {
    "name": "Bale-Valle",
    "countryCode": "HR",
    "stateCode": "18",
    "latitude": "45.04089000",
    "longitude": "13.78565000"
  },
  {
    "name": "Banjol",
    "countryCode": "HR",
    "stateCode": "08",
    "latitude": "44.75000000",
    "longitude": "14.78333000"
  },
  {
    "name": "Batrina",
    "countryCode": "HR",
    "stateCode": "12",
    "latitude": "45.18944000",
    "longitude": "17.66639000"
  },
  {
    "name": "Baška",
    "countryCode": "HR",
    "stateCode": "08",
    "latitude": "44.97028000",
    "longitude": "14.75333000"
  },
  {
    "name": "Baška Voda",
    "countryCode": "HR",
    "stateCode": "17",
    "latitude": "43.35694000",
    "longitude": "16.95028000"
  },
  {
    "name": "Bedekovčina",
    "countryCode": "HR",
    "stateCode": "02",
    "latitude": "46.04111000",
    "longitude": "15.99639000"
  },
  {
    "name": "Beli Manastir",
    "countryCode": "HR",
    "stateCode": "14",
    "latitude": "45.77000000",
    "longitude": "18.60361000"
  },
  {
    "name": "Belica",
    "countryCode": "HR",
    "stateCode": "20",
    "latitude": "46.40417000",
    "longitude": "16.51833000"
  },
  {
    "name": "Belišće",
    "countryCode": "HR",
    "stateCode": "14",
    "latitude": "45.68028000",
    "longitude": "18.40583000"
  },
  {
    "name": "Benkovac",
    "countryCode": "HR",
    "stateCode": "13",
    "latitude": "44.03444000",
    "longitude": "15.61278000"
  },
  {
    "name": "Beretinec",
    "countryCode": "HR",
    "stateCode": "05",
    "latitude": "46.25000000",
    "longitude": "16.30000000"
  },
  {
    "name": "Bestovje",
    "countryCode": "HR",
    "stateCode": "01",
    "latitude": "45.80833000",
    "longitude": "15.81667000"
  },
  {
    "name": "Bibinje",
    "countryCode": "HR",
    "stateCode": "13",
    "latitude": "44.07324000",
    "longitude": "15.28288000"
  },
  {
    "name": "Bijelo Brdo",
    "countryCode": "HR",
    "stateCode": "14",
    "latitude": "45.51722000",
    "longitude": "18.87083000"
  },
  {
    "name": "Bilje",
    "countryCode": "HR",
    "stateCode": "14",
    "latitude": "45.60694000",
    "longitude": "18.74389000"
  },
  {
    "name": "Biograd na Moru",
    "countryCode": "HR",
    "stateCode": "13",
    "latitude": "43.94333000",
    "longitude": "15.45194000"
  },
  {
    "name": "Bistra",
    "countryCode": "HR",
    "stateCode": "01",
    "latitude": "45.90657000",
    "longitude": "15.85087000"
  },
  {
    "name": "Bistrinci",
    "countryCode": "HR",
    "stateCode": "14",
    "latitude": "45.69167000",
    "longitude": "18.39861000"
  },
  {
    "name": "Bizovac",
    "countryCode": "HR",
    "stateCode": "14",
    "latitude": "45.59278000",
    "longitude": "18.45889000"
  },
  {
    "name": "Bjelovar",
    "countryCode": "HR",
    "stateCode": "07",
    "latitude": "45.89861000",
    "longitude": "16.84889000"
  },
  {
    "name": "Bobota",
    "countryCode": "HR",
    "stateCode": "16",
    "latitude": "45.42111000",
    "longitude": "18.85389000"
  },
  {
    "name": "Bogdanovci",
    "countryCode": "HR",
    "stateCode": "16",
    "latitude": "45.34083000",
    "longitude": "18.93083000"
  },
  {
    "name": "Bol",
    "countryCode": "HR",
    "stateCode": "17",
    "latitude": "43.26194000",
    "longitude": "16.65500000"
  },
  {
    "name": "Borovo",
    "countryCode": "HR",
    "stateCode": "16",
    "latitude": "45.37639000",
    "longitude": "18.96694000"
  },
  {
    "name": "Borovo Selo",
    "countryCode": "HR",
    "stateCode": "16",
    "latitude": "45.40528000",
    "longitude": "18.97583000"
  },
  {
    "name": "Bošnjaci",
    "countryCode": "HR",
    "stateCode": "16",
    "latitude": "45.05028000",
    "longitude": "18.75556000"
  },
  {
    "name": "Brckovljani",
    "countryCode": "HR",
    "stateCode": "01",
    "latitude": "45.83333000",
    "longitude": "16.30000000"
  },
  {
    "name": "Brdovec",
    "countryCode": "HR",
    "stateCode": "01",
    "latitude": "45.86666000",
    "longitude": "15.77102000"
  },
  {
    "name": "Bregana",
    "countryCode": "HR",
    "stateCode": "01",
    "latitude": "45.84013000",
    "longitude": "15.68792000"
  },
  {
    "name": "Brela",
    "countryCode": "HR",
    "stateCode": "17",
    "latitude": "43.36889000",
    "longitude": "16.93417000"
  },
  {
    "name": "Brestovac",
    "countryCode": "HR",
    "stateCode": "11",
    "latitude": "45.33056000",
    "longitude": "17.59694000"
  },
  {
    "name": "Breznica",
    "countryCode": "HR",
    "stateCode": "05",
    "latitude": "46.07111000",
    "longitude": "16.27111000"
  },
  {
    "name": "Breznički Hum",
    "countryCode": "HR",
    "stateCode": "05",
    "latitude": "46.10722000",
    "longitude": "16.27667000"
  },
  {
    "name": "Brezovac",
    "countryCode": "HR",
    "stateCode": "07",
    "latitude": "45.86750000",
    "longitude": "16.84083000"
  },
  {
    "name": "Brezovica",
    "countryCode": "HR",
    "stateCode": "21",
    "latitude": "45.72919000",
    "longitude": "15.91069000"
  },
  {
    "name": "Bribir",
    "countryCode": "HR",
    "stateCode": "08",
    "latitude": "45.16111000",
    "longitude": "14.76472000"
  },
  {
    "name": "Brijest",
    "countryCode": "HR",
    "stateCode": "14",
    "latitude": "45.52056000",
    "longitude": "18.67194000"
  },
  {
    "name": "Brinje",
    "countryCode": "HR",
    "stateCode": "09",
    "latitude": "45.00250000",
    "longitude": "15.13389000"
  },
  {
    "name": "Brnaze",
    "countryCode": "HR",
    "stateCode": "17",
    "latitude": "43.68000000",
    "longitude": "16.64972000"
  },
  {
    "name": "Brodarica",
    "countryCode": "HR",
    "stateCode": "15",
    "latitude": "43.68000000",
    "longitude": "15.91972000"
  },
  {
    "name": "Brodski Varoš",
    "countryCode": "HR",
    "stateCode": "12",
    "latitude": "45.18111000",
    "longitude": "17.97861000"
  },
  {
    "name": "Brtonigla",
    "countryCode": "HR",
    "stateCode": "18",
    "latitude": "45.38139000",
    "longitude": "13.62944000"
  },
  {
    "name": "Brtonigla-Verteneglio",
    "countryCode": "HR",
    "stateCode": "18",
    "latitude": "45.37918000",
    "longitude": "13.62554000"
  },
  {
    "name": "Bršadin",
    "countryCode": "HR",
    "stateCode": "16",
    "latitude": "45.36278000",
    "longitude": "18.91111000"
  },
  {
    "name": "Budaševo",
    "countryCode": "HR",
    "stateCode": "03",
    "latitude": "45.47472000",
    "longitude": "16.43667000"
  },
  {
    "name": "Budinščina",
    "countryCode": "HR",
    "stateCode": "02",
    "latitude": "46.12785000",
    "longitude": "16.20415000"
  },
  {
    "name": "Budrovci",
    "countryCode": "HR",
    "stateCode": "14",
    "latitude": "45.27111000",
    "longitude": "18.44861000"
  },
  {
    "name": "Buje",
    "countryCode": "HR",
    "stateCode": "18",
    "latitude": "45.41000000",
    "longitude": "13.66194000"
  },
  {
    "name": "Buje-Buie",
    "countryCode": "HR",
    "stateCode": "18",
    "latitude": "45.40790000",
    "longitude": "13.65914000"
  },
  {
    "name": "Bukovlje",
    "countryCode": "HR",
    "stateCode": "12",
    "latitude": "45.18528000",
    "longitude": "18.07000000"
  },
  {
    "name": "Buzdohanj",
    "countryCode": "HR",
    "stateCode": "08",
    "latitude": "45.34528000",
    "longitude": "14.48833000"
  },
  {
    "name": "Buzet",
    "countryCode": "HR",
    "stateCode": "18",
    "latitude": "45.40944000",
    "longitude": "13.96667000"
  },
  {
    "name": "Cavtat",
    "countryCode": "HR",
    "stateCode": "19",
    "latitude": "42.58111000",
    "longitude": "18.21806000"
  },
  {
    "name": "Centar",
    "countryCode": "HR",
    "stateCode": "21",
    "latitude": "45.81313000",
    "longitude": "15.97753000"
  },
  {
    "name": "Cerić",
    "countryCode": "HR",
    "stateCode": "16",
    "latitude": "45.31139000",
    "longitude": "18.85611000"
  },
  {
    "name": "Cerna",
    "countryCode": "HR",
    "stateCode": "16",
    "latitude": "45.18194000",
    "longitude": "18.68944000"
  },
  {
    "name": "Cernik",
    "countryCode": "HR",
    "stateCode": "08",
    "latitude": "45.34361000",
    "longitude": "14.50222000"
  },
  {
    "name": "Cernik",
    "countryCode": "HR",
    "stateCode": "12",
    "latitude": "45.28861000",
    "longitude": "17.38194000"
  },
  {
    "name": "Cestica",
    "countryCode": "HR",
    "stateCode": "05",
    "latitude": "46.37167000",
    "longitude": "16.12528000"
  },
  {
    "name": "Cres",
    "countryCode": "HR",
    "stateCode": "08",
    "latitude": "44.96111000",
    "longitude": "14.40840000"
  },
  {
    "name": "Crikvenica",
    "countryCode": "HR",
    "stateCode": "08",
    "latitude": "45.17722000",
    "longitude": "14.69278000"
  },
  {
    "name": "Crnac",
    "countryCode": "HR",
    "stateCode": "10",
    "latitude": "45.69611000",
    "longitude": "17.93722000"
  },
  {
    "name": "Dalj",
    "countryCode": "HR",
    "stateCode": "14",
    "latitude": "45.48438000",
    "longitude": "18.98610000"
  },
  {
    "name": "Darda",
    "countryCode": "HR",
    "stateCode": "14",
    "latitude": "45.62806000",
    "longitude": "18.69972000"
  },
  {
    "name": "Daruvar",
    "countryCode": "HR",
    "stateCode": "07",
    "latitude": "45.59056000",
    "longitude": "17.22500000"
  },
  {
    "name": "Davor",
    "countryCode": "HR",
    "stateCode": "12",
    "latitude": "45.11528000",
    "longitude": "17.51639000"
  },
  {
    "name": "Dekanovec",
    "countryCode": "HR",
    "stateCode": "20",
    "latitude": "46.44861000",
    "longitude": "16.58472000"
  },
  {
    "name": "Delnice",
    "countryCode": "HR",
    "stateCode": "08",
    "latitude": "45.40083000",
    "longitude": "14.79972000"
  },
  {
    "name": "Dežanovac",
    "countryCode": "HR",
    "stateCode": "07",
    "latitude": "45.57056000",
    "longitude": "17.08667000"
  },
  {
    "name": "Dicmo",
    "countryCode": "HR",
    "stateCode": "17",
    "latitude": "43.63678000",
    "longitude": "16.58978000"
  },
  {
    "name": "Domašinec",
    "countryCode": "HR",
    "stateCode": "20",
    "latitude": "46.43250000",
    "longitude": "16.60000000"
  },
  {
    "name": "Donja Bistra",
    "countryCode": "HR",
    "stateCode": "01",
    "latitude": "45.90778000",
    "longitude": "15.85444000"
  },
  {
    "name": "Donja Lomnica",
    "countryCode": "HR",
    "stateCode": "01",
    "latitude": "45.71194000",
    "longitude": "16.02694000"
  },
  {
    "name": "Donja Zdenčina",
    "countryCode": "HR",
    "stateCode": "01",
    "latitude": "45.66667000",
    "longitude": "15.76667000"
  },
  {
    "name": "Donje Ladanje",
    "countryCode": "HR",
    "stateCode": "05",
    "latitude": "46.30000000",
    "longitude": "16.16667000"
  },
  {
    "name": "Donji Andrijevci",
    "countryCode": "HR",
    "stateCode": "12",
    "latitude": "45.18833000",
    "longitude": "18.29972000"
  },
  {
    "name": "Donji Miholjac",
    "countryCode": "HR",
    "stateCode": "14",
    "latitude": "45.76083000",
    "longitude": "18.16722000"
  },
  {
    "name": "Donji Stupnik",
    "countryCode": "HR",
    "stateCode": "01",
    "latitude": "45.73971000",
    "longitude": "15.85975000"
  },
  {
    "name": "Donji Vinjani",
    "countryCode": "HR",
    "stateCode": "17",
    "latitude": "43.44613000",
    "longitude": "17.24064000"
  },
  {
    "name": "Draž",
    "countryCode": "HR",
    "stateCode": "14",
    "latitude": "45.84222000",
    "longitude": "18.78861000"
  },
  {
    "name": "Dražice",
    "countryCode": "HR",
    "stateCode": "08",
    "latitude": "45.39083000",
    "longitude": "14.47028000"
  },
  {
    "name": "Drenova",
    "countryCode": "HR",
    "stateCode": "08",
    "latitude": "45.35000000",
    "longitude": "14.43028000"
  },
  {
    "name": "Drenovci",
    "countryCode": "HR",
    "stateCode": "16",
    "latitude": "44.91944000",
    "longitude": "18.90284000"
  },
  {
    "name": "Drniš",
    "countryCode": "HR",
    "stateCode": "15",
    "latitude": "43.86250000",
    "longitude": "16.15556000"
  },
  {
    "name": "Drnje",
    "countryCode": "HR",
    "stateCode": "06",
    "latitude": "46.20694000",
    "longitude": "16.91694000"
  },
  {
    "name": "Dubrava",
    "countryCode": "HR",
    "stateCode": "21",
    "latitude": "45.83361000",
    "longitude": "16.06361000"
  },
  {
    "name": "Dubrovačko primorje",
    "countryCode": "HR",
    "stateCode": "19",
    "latitude": "42.78988000",
    "longitude": "17.86240000"
  },
  {
    "name": "Dugi Rat Općina",
    "countryCode": "HR",
    "stateCode": "17",
    "latitude": "43.44923000",
    "longitude": "16.64738000"
  },
  {
    "name": "Dugopolje",
    "countryCode": "HR",
    "stateCode": "17",
    "latitude": "43.58056000",
    "longitude": "16.60278000"
  },
  {
    "name": "Duće",
    "countryCode": "HR",
    "stateCode": "17",
    "latitude": "43.44278000",
    "longitude": "16.66833000"
  },
  {
    "name": "Dvor",
    "countryCode": "HR",
    "stateCode": "03",
    "latitude": "45.07306000",
    "longitude": "16.37083000"
  },
  {
    "name": "Erdut",
    "countryCode": "HR",
    "stateCode": "14",
    "latitude": "45.52639000",
    "longitude": "19.06028000"
  },
  {
    "name": "Ernestinovo",
    "countryCode": "HR",
    "stateCode": "14",
    "latitude": "45.45194000",
    "longitude": "18.65917000"
  },
  {
    "name": "Farkaševac",
    "countryCode": "HR",
    "stateCode": "01",
    "latitude": "45.87899000",
    "longitude": "16.63467000"
  },
  {
    "name": "Fažana",
    "countryCode": "HR",
    "stateCode": "18",
    "latitude": "44.92750000",
    "longitude": "13.80361000"
  },
  {
    "name": "Fažana-Fasana",
    "countryCode": "HR",
    "stateCode": "18",
    "latitude": "44.92822000",
    "longitude": "13.80548000"
  },
  {
    "name": "Ferdinandovac",
    "countryCode": "HR",
    "stateCode": "06",
    "latitude": "46.05000000",
    "longitude": "17.20000000"
  },
  {
    "name": "Feričanci",
    "countryCode": "HR",
    "stateCode": "14",
    "latitude": "45.52889000",
    "longitude": "17.97583000"
  },
  {
    "name": "Funtana",
    "countryCode": "HR",
    "stateCode": "18",
    "latitude": "45.17472000",
    "longitude": "13.60500000"
  },
  {
    "name": "Funtana-Fontane",
    "countryCode": "HR",
    "stateCode": "18",
    "latitude": "45.17483000",
    "longitude": "13.60627000"
  },
  {
    "name": "Fužine",
    "countryCode": "HR",
    "stateCode": "08",
    "latitude": "45.30528000",
    "longitude": "14.71556000"
  },
  {
    "name": "Gala",
    "countryCode": "HR",
    "stateCode": "17",
    "latitude": "43.71500000",
    "longitude": "16.72694000"
  },
  {
    "name": "Galižana",
    "countryCode": "HR",
    "stateCode": "18",
    "latitude": "44.93167000",
    "longitude": "13.86861000"
  },
  {
    "name": "Galovac",
    "countryCode": "HR",
    "stateCode": "13",
    "latitude": "44.07139000",
    "longitude": "15.39333000"
  },
  {
    "name": "Garešnica",
    "countryCode": "HR",
    "stateCode": "07",
    "latitude": "45.57444000",
    "longitude": "16.94139000"
  },
  {
    "name": "Garčin",
    "countryCode": "HR",
    "stateCode": "12",
    "latitude": "45.18278000",
    "longitude": "18.18306000"
  },
  {
    "name": "Glina",
    "countryCode": "HR",
    "stateCode": "03",
    "latitude": "45.33806000",
    "longitude": "16.08806000"
  },
  {
    "name": "Gola",
    "countryCode": "HR",
    "stateCode": "06",
    "latitude": "46.19583000",
    "longitude": "17.05806000"
  },
  {
    "name": "Goričan",
    "countryCode": "HR",
    "stateCode": "20",
    "latitude": "46.38417000",
    "longitude": "16.68083000"
  },
  {
    "name": "Gorjani",
    "countryCode": "HR",
    "stateCode": "14",
    "latitude": "45.39889000",
    "longitude": "18.37222000"
  },
  {
    "name": "Gornja Bistra",
    "countryCode": "HR",
    "stateCode": "01",
    "latitude": "45.91667000",
    "longitude": "15.90000000"
  },
  {
    "name": "Gornja Rijeka",
    "countryCode": "HR",
    "stateCode": "06",
    "latitude": "46.10977000",
    "longitude": "16.39079000"
  },
  {
    "name": "Gornje Vratno",
    "countryCode": "HR",
    "stateCode": "05",
    "latitude": "46.35917000",
    "longitude": "16.15444000"
  },
  {
    "name": "Gornji Bogićevci",
    "countryCode": "HR",
    "stateCode": "12",
    "latitude": "45.25572000",
    "longitude": "17.23454000"
  },
  {
    "name": "Gornji Karin",
    "countryCode": "HR",
    "stateCode": "13",
    "latitude": "44.13598000",
    "longitude": "15.63423000"
  },
  {
    "name": "Gornji Kneginec",
    "countryCode": "HR",
    "stateCode": "05",
    "latitude": "46.25051000",
    "longitude": "16.37555000"
  },
  {
    "name": "Gospić",
    "countryCode": "HR",
    "stateCode": "09",
    "latitude": "44.54611000",
    "longitude": "15.37472000"
  },
  {
    "name": "Grabovci",
    "countryCode": "HR",
    "stateCode": "17",
    "latitude": "43.49278000",
    "longitude": "17.20111000"
  },
  {
    "name": "Grad Beli Manastir",
    "countryCode": "HR",
    "stateCode": "14",
    "latitude": "45.77219000",
    "longitude": "18.61084000"
  },
  {
    "name": "Grad Biograd na Moru",
    "countryCode": "HR",
    "stateCode": "13",
    "latitude": "43.93333000",
    "longitude": "15.43333000"
  },
  {
    "name": "Grad Bjelovar",
    "countryCode": "HR",
    "stateCode": "07",
    "latitude": "45.90172000",
    "longitude": "16.84522000"
  },
  {
    "name": "Grad Buzet",
    "countryCode": "HR",
    "stateCode": "18",
    "latitude": "45.41667000",
    "longitude": "13.96667000"
  },
  {
    "name": "Grad Crikvenica",
    "countryCode": "HR",
    "stateCode": "08",
    "latitude": "45.16667000",
    "longitude": "14.70000000"
  },
  {
    "name": "Grad Daruvar",
    "countryCode": "HR",
    "stateCode": "07",
    "latitude": "45.60000000",
    "longitude": "17.23333000"
  },
  {
    "name": "Grad Delnice",
    "countryCode": "HR",
    "stateCode": "08",
    "latitude": "45.39806000",
    "longitude": "14.80111000"
  },
  {
    "name": "Grad Donja Stubica",
    "countryCode": "HR",
    "stateCode": "02",
    "latitude": "45.97955000",
    "longitude": "15.97069000"
  },
  {
    "name": "Grad Donji Miholjac",
    "countryCode": "HR",
    "stateCode": "14",
    "latitude": "45.75000000",
    "longitude": "18.16667000"
  },
  {
    "name": "Grad Drniš",
    "countryCode": "HR",
    "stateCode": "15",
    "latitude": "43.83333000",
    "longitude": "16.16667000"
  },
  {
    "name": "Grad Dubrovnik",
    "countryCode": "HR",
    "stateCode": "19",
    "latitude": "42.64861000",
    "longitude": "18.09397000"
  },
  {
    "name": "Grad Dugo Selo",
    "countryCode": "HR",
    "stateCode": "01",
    "latitude": "45.80900000",
    "longitude": "16.24123000"
  },
  {
    "name": "Grad Garešnica",
    "countryCode": "HR",
    "stateCode": "07",
    "latitude": "45.56667000",
    "longitude": "16.93333000"
  },
  {
    "name": "Grad Glina",
    "countryCode": "HR",
    "stateCode": "03",
    "latitude": "45.33333000",
    "longitude": "16.10000000"
  },
  {
    "name": "Grad Grubišno Polje",
    "countryCode": "HR",
    "stateCode": "07",
    "latitude": "45.70000000",
    "longitude": "17.16667000"
  },
  {
    "name": "Grad Hrvatska Kostajnica",
    "countryCode": "HR",
    "stateCode": "03",
    "latitude": "45.25000000",
    "longitude": "16.56667000"
  },
  {
    "name": "Grad Hvar",
    "countryCode": "HR",
    "stateCode": "17",
    "latitude": "43.17263000",
    "longitude": "16.44550000"
  },
  {
    "name": "Grad Imotski",
    "countryCode": "HR",
    "stateCode": "17",
    "latitude": "43.43333000",
    "longitude": "17.16667000"
  },
  {
    "name": "Grad Ivanec",
    "countryCode": "HR",
    "stateCode": "05",
    "latitude": "46.23333000",
    "longitude": "16.13333000"
  },
  {
    "name": "Grad Jastrebarsko",
    "countryCode": "HR",
    "stateCode": "01",
    "latitude": "45.66667000",
    "longitude": "15.66667000"
  },
  {
    "name": "Grad Klanjec",
    "countryCode": "HR",
    "stateCode": "02",
    "latitude": "46.04977000",
    "longitude": "15.74615000"
  },
  {
    "name": "Grad Koprivnica",
    "countryCode": "HR",
    "stateCode": "06",
    "latitude": "46.16667000",
    "longitude": "16.83333000"
  },
  {
    "name": "Grad Korčula",
    "countryCode": "HR",
    "stateCode": "19",
    "latitude": "42.95693000",
    "longitude": "17.13181000"
  },
  {
    "name": "Grad Krapina",
    "countryCode": "HR",
    "stateCode": "02",
    "latitude": "46.15968000",
    "longitude": "15.87258000"
  },
  {
    "name": "Grad Križevci",
    "countryCode": "HR",
    "stateCode": "06",
    "latitude": "46.03333000",
    "longitude": "16.56667000"
  },
  {
    "name": "Grad Krk",
    "countryCode": "HR",
    "stateCode": "08",
    "latitude": "45.02829000",
    "longitude": "14.57233000"
  },
  {
    "name": "Grad Kutina",
    "countryCode": "HR",
    "stateCode": "03",
    "latitude": "45.50000000",
    "longitude": "16.75000000"
  },
  {
    "name": "Grad Labin",
    "countryCode": "HR",
    "stateCode": "18",
    "latitude": "45.08333000",
    "longitude": "14.13333000"
  },
  {
    "name": "Grad Ludbreg",
    "countryCode": "HR",
    "stateCode": "05",
    "latitude": "46.25000000",
    "longitude": "16.63333000"
  },
  {
    "name": "Grad Makarska",
    "countryCode": "HR",
    "stateCode": "17",
    "latitude": "43.30000000",
    "longitude": "17.03333000"
  },
  {
    "name": "Grad Našice",
    "countryCode": "HR",
    "stateCode": "14",
    "latitude": "45.50000000",
    "longitude": "18.10000000"
  },
  {
    "name": "Grad Nova Gradiška",
    "countryCode": "HR",
    "stateCode": "12",
    "latitude": "45.26667000",
    "longitude": "17.40000000"
  },
  {
    "name": "Grad Novi Marof",
    "countryCode": "HR",
    "stateCode": "05",
    "latitude": "46.16667000",
    "longitude": "16.33333000"
  },
  {
    "name": "Grad Novska",
    "countryCode": "HR",
    "stateCode": "03",
    "latitude": "45.33333000",
    "longitude": "17.00000000"
  },
  {
    "name": "Grad Omiš",
    "countryCode": "HR",
    "stateCode": "17",
    "latitude": "43.46667000",
    "longitude": "16.70000000"
  },
  {
    "name": "Grad Opatija",
    "countryCode": "HR",
    "stateCode": "08",
    "latitude": "45.33333000",
    "longitude": "14.26667000"
  },
  {
    "name": "Grad Orahovica",
    "countryCode": "HR",
    "stateCode": "10",
    "latitude": "45.53333000",
    "longitude": "17.90000000"
  },
  {
    "name": "Grad Osijek",
    "countryCode": "HR",
    "stateCode": "14",
    "latitude": "45.58333000",
    "longitude": "18.66667000"
  },
  {
    "name": "Grad Pakrac",
    "countryCode": "HR",
    "stateCode": "11",
    "latitude": "45.43333000",
    "longitude": "17.20000000"
  },
  {
    "name": "Grad Pazin",
    "countryCode": "HR",
    "stateCode": "18",
    "latitude": "45.23333000",
    "longitude": "13.93333000"
  },
  {
    "name": "Grad Petrinja",
    "countryCode": "HR",
    "stateCode": "03",
    "latitude": "45.43333000",
    "longitude": "16.26667000"
  },
  {
    "name": "Grad Ploče",
    "countryCode": "HR",
    "stateCode": "19",
    "latitude": "43.06667000",
    "longitude": "17.43333000"
  },
  {
    "name": "Grad Požega",
    "countryCode": "HR",
    "stateCode": "11",
    "latitude": "45.33333000",
    "longitude": "17.66667000"
  },
  {
    "name": "Grad Rijeka",
    "countryCode": "HR",
    "stateCode": "08",
    "latitude": "45.32693000",
    "longitude": "14.43758000"
  },
  {
    "name": "Grad Samobor",
    "countryCode": "HR",
    "stateCode": "01",
    "latitude": "45.80000000",
    "longitude": "15.70000000"
  },
  {
    "name": "Grad Sinj",
    "countryCode": "HR",
    "stateCode": "17",
    "latitude": "43.72285000",
    "longitude": "16.65819000"
  },
  {
    "name": "Grad Sisak",
    "countryCode": "HR",
    "stateCode": "03",
    "latitude": "45.50000000",
    "longitude": "16.36667000"
  },
  {
    "name": "Grad Slatina",
    "countryCode": "HR",
    "stateCode": "10",
    "latitude": "45.70000000",
    "longitude": "17.70000000"
  },
  {
    "name": "Grad Slavonski Brod",
    "countryCode": "HR",
    "stateCode": "12",
    "latitude": "45.16267000",
    "longitude": "18.03062000"
  },
  {
    "name": "Grad Split",
    "countryCode": "HR",
    "stateCode": "17",
    "latitude": "43.50000000",
    "longitude": "16.50000000"
  },
  {
    "name": "Grad Supetar",
    "countryCode": "HR",
    "stateCode": "17",
    "latitude": "43.38444000",
    "longitude": "16.55528000"
  },
  {
    "name": "Grad Sveti Ivan Zelina",
    "countryCode": "HR",
    "stateCode": "01",
    "latitude": "45.96667000",
    "longitude": "16.25000000"
  },
  {
    "name": "Grad Trogir",
    "countryCode": "HR",
    "stateCode": "17",
    "latitude": "43.52061000",
    "longitude": "16.25144000"
  },
  {
    "name": "Grad Valpovo",
    "countryCode": "HR",
    "stateCode": "14",
    "latitude": "45.66667000",
    "longitude": "18.41667000"
  },
  {
    "name": "Grad Varaždin",
    "countryCode": "HR",
    "stateCode": "05",
    "latitude": "46.30354000",
    "longitude": "16.33444000"
  },
  {
    "name": "Grad Velika Gorica",
    "countryCode": "HR",
    "stateCode": "01",
    "latitude": "45.70000000",
    "longitude": "16.08333000"
  },
  {
    "name": "Grad Vinkovci",
    "countryCode": "HR",
    "stateCode": "16",
    "latitude": "45.28044000",
    "longitude": "18.80482000"
  },
  {
    "name": "Grad Virovitica",
    "countryCode": "HR",
    "stateCode": "10",
    "latitude": "45.83167000",
    "longitude": "17.38483000"
  },
  {
    "name": "Grad Vis",
    "countryCode": "HR",
    "stateCode": "17",
    "latitude": "43.05315000",
    "longitude": "16.18698000"
  },
  {
    "name": "Grad Vrbovec",
    "countryCode": "HR",
    "stateCode": "01",
    "latitude": "45.86667000",
    "longitude": "16.43333000"
  },
  {
    "name": "Grad Vrbovsko",
    "countryCode": "HR",
    "stateCode": "08",
    "latitude": "45.37542000",
    "longitude": "15.07856000"
  },
  {
    "name": "Grad Vrgorac",
    "countryCode": "HR",
    "stateCode": "17",
    "latitude": "43.20000000",
    "longitude": "17.36667000"
  },
  {
    "name": "Grad Vukovar",
    "countryCode": "HR",
    "stateCode": "16",
    "latitude": "45.33333000",
    "longitude": "19.00000000"
  },
  {
    "name": "Grad Zabok",
    "countryCode": "HR",
    "stateCode": "02",
    "latitude": "46.02808000",
    "longitude": "15.90855000"
  },
  {
    "name": "Grad Zaprešić",
    "countryCode": "HR",
    "stateCode": "01",
    "latitude": "45.86667000",
    "longitude": "15.80000000"
  },
  {
    "name": "Grad Zlatar",
    "countryCode": "HR",
    "stateCode": "02",
    "latitude": "46.09198000",
    "longitude": "16.07695000"
  },
  {
    "name": "Grad Čabar",
    "countryCode": "HR",
    "stateCode": "08",
    "latitude": "45.58333000",
    "longitude": "14.58333000"
  },
  {
    "name": "Grad Čakovec",
    "countryCode": "HR",
    "stateCode": "20",
    "latitude": "46.38583000",
    "longitude": "16.43333000"
  },
  {
    "name": "Grad Čazma",
    "countryCode": "HR",
    "stateCode": "07",
    "latitude": "45.75000000",
    "longitude": "16.61667000"
  },
  {
    "name": "Grad Šibenik",
    "countryCode": "HR",
    "stateCode": "15",
    "latitude": "43.73576000",
    "longitude": "15.89602000"
  },
  {
    "name": "Grad Županja",
    "countryCode": "HR",
    "stateCode": "16",
    "latitude": "45.07231000",
    "longitude": "18.69513000"
  },
  {
    "name": "Gradac",
    "countryCode": "HR",
    "stateCode": "17",
    "latitude": "43.10583000",
    "longitude": "17.34167000"
  },
  {
    "name": "Gradec",
    "countryCode": "HR",
    "stateCode": "01",
    "latitude": "45.91111000",
    "longitude": "16.48278000"
  },
  {
    "name": "Gradina",
    "countryCode": "HR",
    "stateCode": "10",
    "latitude": "45.85423000",
    "longitude": "17.51109000"
  },
  {
    "name": "Gradići",
    "countryCode": "HR",
    "stateCode": "01",
    "latitude": "45.70000000",
    "longitude": "16.05000000"
  },
  {
    "name": "Gradište",
    "countryCode": "HR",
    "stateCode": "16",
    "latitude": "45.14806000",
    "longitude": "18.70667000"
  },
  {
    "name": "Gradska četvrt Donji grad",
    "countryCode": "HR",
    "stateCode": "21",
    "latitude": "45.80834000",
    "longitude": "15.96949000"
  },
  {
    "name": "Gradska četvrt Gornji Grad - Medvescak",
    "countryCode": "HR",
    "stateCode": "21",
    "latitude": "45.82820000",
    "longitude": "15.97938000"
  },
  {
    "name": "Gradska četvrt Podsljeme",
    "countryCode": "HR",
    "stateCode": "21",
    "latitude": "45.86097000",
    "longitude": "15.97996000"
  },
  {
    "name": "Gračac",
    "countryCode": "HR",
    "stateCode": "13",
    "latitude": "44.29916000",
    "longitude": "15.84752000"
  },
  {
    "name": "Gračec",
    "countryCode": "HR",
    "stateCode": "01",
    "latitude": "45.83333000",
    "longitude": "16.31667000"
  },
  {
    "name": "Greda",
    "countryCode": "HR",
    "stateCode": "17",
    "latitude": "43.61528000",
    "longitude": "16.69361000"
  },
  {
    "name": "Grožnjan",
    "countryCode": "HR",
    "stateCode": "18",
    "latitude": "45.37889000",
    "longitude": "13.72389000"
  },
  {
    "name": "Grožnjan-Grisignana",
    "countryCode": "HR",
    "stateCode": "18",
    "latitude": "45.37728000",
    "longitude": "13.72145000"
  },
  {
    "name": "Grubine",
    "countryCode": "HR",
    "stateCode": "17",
    "latitude": "43.42986000",
    "longitude": "17.16292000"
  },
  {
    "name": "Grubišno Polje",
    "countryCode": "HR",
    "stateCode": "07",
    "latitude": "45.70214000",
    "longitude": "17.17268000"
  },
  {
    "name": "Gudovac",
    "countryCode": "HR",
    "stateCode": "07",
    "latitude": "45.88028000",
    "longitude": "16.78083000"
  },
  {
    "name": "Gundinci",
    "countryCode": "HR",
    "stateCode": "12",
    "latitude": "45.15833000",
    "longitude": "18.49139000"
  },
  {
    "name": "Gunja",
    "countryCode": "HR",
    "stateCode": "16",
    "latitude": "44.88000000",
    "longitude": "18.85333000"
  },
  {
    "name": "Gvozd",
    "countryCode": "HR",
    "stateCode": "03",
    "latitude": "45.35305000",
    "longitude": "15.86563000"
  },
  {
    "name": "Hercegovac",
    "countryCode": "HR",
    "stateCode": "07",
    "latitude": "45.65861000",
    "longitude": "17.01361000"
  },
  {
    "name": "Hlebine",
    "countryCode": "HR",
    "stateCode": "06",
    "latitude": "46.15694000",
    "longitude": "16.96278000"
  },
  {
    "name": "Hodošan",
    "countryCode": "HR",
    "stateCode": "20",
    "latitude": "46.39528000",
    "longitude": "16.64389000"
  },
  {
    "name": "Horvati",
    "countryCode": "HR",
    "stateCode": "21",
    "latitude": "45.70000000",
    "longitude": "15.81667000"
  },
  {
    "name": "Hrašćica",
    "countryCode": "HR",
    "stateCode": "05",
    "latitude": "46.32494000",
    "longitude": "16.29427000"
  },
  {
    "name": "Hreljin",
    "countryCode": "HR",
    "stateCode": "08",
    "latitude": "45.28250000",
    "longitude": "14.59917000"
  },
  {
    "name": "Hrvace",
    "countryCode": "HR",
    "stateCode": "17",
    "latitude": "43.76333000",
    "longitude": "16.61500000"
  },
  {
    "name": "Hrvatska Kostajnica",
    "countryCode": "HR",
    "stateCode": "03",
    "latitude": "45.23167000",
    "longitude": "16.53917000"
  },
  {
    "name": "Hvar",
    "countryCode": "HR",
    "stateCode": "17",
    "latitude": "43.17250000",
    "longitude": "16.44278000"
  },
  {
    "name": "Ilok",
    "countryCode": "HR",
    "stateCode": "16",
    "latitude": "45.22222000",
    "longitude": "19.37694000"
  },
  {
    "name": "Imotski",
    "countryCode": "HR",
    "stateCode": "17",
    "latitude": "43.44667000",
    "longitude": "17.21667000"
  },
  {
    "name": "Ivanec",
    "countryCode": "HR",
    "stateCode": "05",
    "latitude": "46.22306000",
    "longitude": "16.12000000"
  },
  {
    "name": "Ivankovo",
    "countryCode": "HR",
    "stateCode": "16",
    "latitude": "45.28861000",
    "longitude": "18.68389000"
  },
  {
    "name": "Ivanovec",
    "countryCode": "HR",
    "stateCode": "20",
    "latitude": "46.36833000",
    "longitude": "16.47667000"
  },
  {
    "name": "Ivanska",
    "countryCode": "HR",
    "stateCode": "07",
    "latitude": "45.77889000",
    "longitude": "16.81194000"
  },
  {
    "name": "Jablanovec",
    "countryCode": "HR",
    "stateCode": "01",
    "latitude": "45.87583000",
    "longitude": "15.85361000"
  },
  {
    "name": "Jadranovo",
    "countryCode": "HR",
    "stateCode": "08",
    "latitude": "45.23111000",
    "longitude": "14.61833000"
  },
  {
    "name": "Jagodnjak",
    "countryCode": "HR",
    "stateCode": "14",
    "latitude": "45.69917000",
    "longitude": "18.57694000"
  },
  {
    "name": "Jakovlje",
    "countryCode": "HR",
    "stateCode": "01",
    "latitude": "45.93611000",
    "longitude": "15.85559000"
  },
  {
    "name": "Jakšić",
    "countryCode": "HR",
    "stateCode": "11",
    "latitude": "45.35765000",
    "longitude": "17.76502000"
  },
  {
    "name": "Jalkovec",
    "countryCode": "HR",
    "stateCode": "05",
    "latitude": "46.28083000",
    "longitude": "16.31972000"
  },
  {
    "name": "Jalžabet",
    "countryCode": "HR",
    "stateCode": "05",
    "latitude": "46.26083000",
    "longitude": "16.47500000"
  },
  {
    "name": "Jankomir",
    "countryCode": "HR",
    "stateCode": "21",
    "latitude": "45.79167000",
    "longitude": "15.90000000"
  },
  {
    "name": "Jarmina",
    "countryCode": "HR",
    "stateCode": "16",
    "latitude": "45.31806000",
    "longitude": "18.72917000"
  },
  {
    "name": "Jasenice",
    "countryCode": "HR",
    "stateCode": "13",
    "latitude": "44.22969000",
    "longitude": "15.57514000"
  },
  {
    "name": "Jastrebarsko",
    "countryCode": "HR",
    "stateCode": "01",
    "latitude": "45.66833000",
    "longitude": "15.64861000"
  },
  {
    "name": "Jelisavac",
    "countryCode": "HR",
    "stateCode": "14",
    "latitude": "45.52889000",
    "longitude": "18.15611000"
  },
  {
    "name": "Jelsa",
    "countryCode": "HR",
    "stateCode": "17",
    "latitude": "43.16139000",
    "longitude": "16.69306000"
  },
  {
    "name": "Jesenice",
    "countryCode": "HR",
    "stateCode": "17",
    "latitude": "43.46158000",
    "longitude": "16.60197000"
  },
  {
    "name": "Jesenje",
    "countryCode": "HR",
    "stateCode": "02",
    "latitude": "46.20724000",
    "longitude": "15.88194000"
  },
  {
    "name": "Ježdovec",
    "countryCode": "HR",
    "stateCode": "21",
    "latitude": "45.78333000",
    "longitude": "15.85000000"
  },
  {
    "name": "Josipovac",
    "countryCode": "HR",
    "stateCode": "14",
    "latitude": "45.58278000",
    "longitude": "18.58139000"
  },
  {
    "name": "Kali",
    "countryCode": "HR",
    "stateCode": "13",
    "latitude": "44.06278000",
    "longitude": "15.20556000"
  },
  {
    "name": "Kalinovac",
    "countryCode": "HR",
    "stateCode": "06",
    "latitude": "46.02944000",
    "longitude": "17.11556000"
  },
  {
    "name": "Kamen",
    "countryCode": "HR",
    "stateCode": "17",
    "latitude": "43.51417000",
    "longitude": "16.51472000"
  },
  {
    "name": "Kampor",
    "countryCode": "HR",
    "stateCode": "08",
    "latitude": "44.77500000",
    "longitude": "14.71861000"
  },
  {
    "name": "Kanfanar",
    "countryCode": "HR",
    "stateCode": "18",
    "latitude": "45.12194000",
    "longitude": "13.83917000"
  },
  {
    "name": "Kapela",
    "countryCode": "HR",
    "stateCode": "07",
    "latitude": "45.98543000",
    "longitude": "16.85174000"
  },
  {
    "name": "Kaptol",
    "countryCode": "HR",
    "stateCode": "11",
    "latitude": "45.43472000",
    "longitude": "17.72611000"
  },
  {
    "name": "Karanac",
    "countryCode": "HR",
    "stateCode": "14",
    "latitude": "45.76056000",
    "longitude": "18.68444000"
  },
  {
    "name": "Karlobag",
    "countryCode": "HR",
    "stateCode": "09",
    "latitude": "44.52750000",
    "longitude": "15.07389000"
  },
  {
    "name": "Karojba",
    "countryCode": "HR",
    "stateCode": "18",
    "latitude": "45.30083000",
    "longitude": "13.82306000"
  },
  {
    "name": "Kastav",
    "countryCode": "HR",
    "stateCode": "08",
    "latitude": "45.37528000",
    "longitude": "14.34861000"
  },
  {
    "name": "Kašina",
    "countryCode": "HR",
    "stateCode": "21",
    "latitude": "45.91134000",
    "longitude": "16.12436000"
  },
  {
    "name": "Kaštel Gomilica",
    "countryCode": "HR",
    "stateCode": "17",
    "latitude": "43.55000000",
    "longitude": "16.40000000"
  },
  {
    "name": "Kaštel Kambelovac",
    "countryCode": "HR",
    "stateCode": "17",
    "latitude": "43.55000000",
    "longitude": "16.38333000"
  },
  {
    "name": "Kaštel Lukšić",
    "countryCode": "HR",
    "stateCode": "17",
    "latitude": "43.55528000",
    "longitude": "16.36750000"
  },
  {
    "name": "Kaštel Novi",
    "countryCode": "HR",
    "stateCode": "17",
    "latitude": "43.55000000",
    "longitude": "16.33333000"
  },
  {
    "name": "Kaštel Stari",
    "countryCode": "HR",
    "stateCode": "17",
    "latitude": "43.55000000",
    "longitude": "16.35000000"
  },
  {
    "name": "Kaštel Štafilić",
    "countryCode": "HR",
    "stateCode": "17",
    "latitude": "43.55000000",
    "longitude": "16.33333000"
  },
  {
    "name": "Kaštela",
    "countryCode": "HR",
    "stateCode": "17",
    "latitude": "43.53865000",
    "longitude": "16.30740000"
  },
  {
    "name": "Kaštelir-Labinci",
    "countryCode": "HR",
    "stateCode": "18",
    "latitude": "45.30277000",
    "longitude": "13.68841000"
  },
  {
    "name": "Kerestinec",
    "countryCode": "HR",
    "stateCode": "01",
    "latitude": "45.77010000",
    "longitude": "15.80864000"
  },
  {
    "name": "Kistanje",
    "countryCode": "HR",
    "stateCode": "15",
    "latitude": "43.98278000",
    "longitude": "15.96500000"
  },
  {
    "name": "Klana",
    "countryCode": "HR",
    "stateCode": "08",
    "latitude": "45.44694000",
    "longitude": "14.37694000"
  },
  {
    "name": "Klanjec",
    "countryCode": "HR",
    "stateCode": "02",
    "latitude": "46.04982000",
    "longitude": "15.74418000"
  },
  {
    "name": "Klenovnik",
    "countryCode": "HR",
    "stateCode": "05",
    "latitude": "46.27028000",
    "longitude": "16.07000000"
  },
  {
    "name": "Klis",
    "countryCode": "HR",
    "stateCode": "17",
    "latitude": "43.55944000",
    "longitude": "16.51944000"
  },
  {
    "name": "Kneževi Vinogradi",
    "countryCode": "HR",
    "stateCode": "14",
    "latitude": "45.75028000",
    "longitude": "18.73306000"
  },
  {
    "name": "Knin",
    "countryCode": "HR",
    "stateCode": "15",
    "latitude": "44.04063000",
    "longitude": "16.19662000"
  },
  {
    "name": "Komin",
    "countryCode": "HR",
    "stateCode": "19",
    "latitude": "43.04083000",
    "longitude": "17.53694000"
  },
  {
    "name": "Komiža",
    "countryCode": "HR",
    "stateCode": "17",
    "latitude": "43.04306000",
    "longitude": "16.09306000"
  },
  {
    "name": "Komletinci",
    "countryCode": "HR",
    "stateCode": "16",
    "latitude": "45.14972000",
    "longitude": "18.94917000"
  },
  {
    "name": "Konavle",
    "countryCode": "HR",
    "stateCode": "19",
    "latitude": "42.54010000",
    "longitude": "18.33944000"
  },
  {
    "name": "Konjščina",
    "countryCode": "HR",
    "stateCode": "02",
    "latitude": "46.05435000",
    "longitude": "16.17763000"
  },
  {
    "name": "Končanica",
    "countryCode": "HR",
    "stateCode": "07",
    "latitude": "45.63611000",
    "longitude": "17.16639000"
  },
  {
    "name": "Koprivnica",
    "countryCode": "HR",
    "stateCode": "06",
    "latitude": "46.16278000",
    "longitude": "16.82750000"
  },
  {
    "name": "Koprivnički Ivanec",
    "countryCode": "HR",
    "stateCode": "06",
    "latitude": "46.19907000",
    "longitude": "16.81629000"
  },
  {
    "name": "Korenica",
    "countryCode": "HR",
    "stateCode": "12",
    "latitude": "45.22472000",
    "longitude": "18.16556000"
  },
  {
    "name": "Korčula",
    "countryCode": "HR",
    "stateCode": "19",
    "latitude": "42.96038000",
    "longitude": "17.13525000"
  },
  {
    "name": "Kotoriba",
    "countryCode": "HR",
    "stateCode": "20",
    "latitude": "46.35500000",
    "longitude": "16.81806000"
  },
  {
    "name": "Koška",
    "countryCode": "HR",
    "stateCode": "14",
    "latitude": "45.54528000",
    "longitude": "18.28583000"
  },
  {
    "name": "Košute",
    "countryCode": "HR",
    "stateCode": "17",
    "latitude": "43.63083000",
    "longitude": "16.69500000"
  },
  {
    "name": "Kraljevica",
    "countryCode": "HR",
    "stateCode": "08",
    "latitude": "45.27395000",
    "longitude": "14.56830000"
  },
  {
    "name": "Krapina",
    "countryCode": "HR",
    "stateCode": "02",
    "latitude": "46.16083000",
    "longitude": "15.87889000"
  },
  {
    "name": "Krasica",
    "countryCode": "HR",
    "stateCode": "08",
    "latitude": "45.30972000",
    "longitude": "14.55556000"
  },
  {
    "name": "Križ",
    "countryCode": "HR",
    "stateCode": "01",
    "latitude": "45.66500000",
    "longitude": "16.52333000"
  },
  {
    "name": "Križevci",
    "countryCode": "HR",
    "stateCode": "06",
    "latitude": "46.02194000",
    "longitude": "16.54250000"
  },
  {
    "name": "Krk",
    "countryCode": "HR",
    "stateCode": "08",
    "latitude": "45.02744000",
    "longitude": "14.57542000"
  },
  {
    "name": "Kruševica",
    "countryCode": "HR",
    "stateCode": "12",
    "latitude": "45.07750000",
    "longitude": "18.48278000"
  },
  {
    "name": "Kruševo",
    "countryCode": "HR",
    "stateCode": "13",
    "latitude": "44.18333000",
    "longitude": "15.65000000"
  },
  {
    "name": "Kumrovec",
    "countryCode": "HR",
    "stateCode": "02",
    "latitude": "46.07750000",
    "longitude": "15.67556000"
  },
  {
    "name": "Kuršanec",
    "countryCode": "HR",
    "stateCode": "20",
    "latitude": "46.33028000",
    "longitude": "16.40167000"
  },
  {
    "name": "Kutina",
    "countryCode": "HR",
    "stateCode": "03",
    "latitude": "45.47500000",
    "longitude": "16.78194000"
  },
  {
    "name": "Kutjevo",
    "countryCode": "HR",
    "stateCode": "11",
    "latitude": "45.42611000",
    "longitude": "17.88250000"
  },
  {
    "name": "Kućan Marof",
    "countryCode": "HR",
    "stateCode": "05",
    "latitude": "46.28944000",
    "longitude": "16.37222000"
  },
  {
    "name": "Kuče",
    "countryCode": "HR",
    "stateCode": "01",
    "latitude": "45.67694000",
    "longitude": "16.14500000"
  },
  {
    "name": "Kuševac",
    "countryCode": "HR",
    "stateCode": "14",
    "latitude": "45.34778000",
    "longitude": "18.42889000"
  },
  {
    "name": "Labin",
    "countryCode": "HR",
    "stateCode": "18",
    "latitude": "45.09500000",
    "longitude": "14.11972000"
  },
  {
    "name": "Ladimirevci",
    "countryCode": "HR",
    "stateCode": "14",
    "latitude": "45.62556000",
    "longitude": "18.44861000"
  },
  {
    "name": "Laslovo",
    "countryCode": "HR",
    "stateCode": "14",
    "latitude": "45.41500000",
    "longitude": "18.69611000"
  },
  {
    "name": "Lastovo",
    "countryCode": "HR",
    "stateCode": "19",
    "latitude": "42.76757000",
    "longitude": "16.89708000"
  },
  {
    "name": "Legrad",
    "countryCode": "HR",
    "stateCode": "06",
    "latitude": "46.29750000",
    "longitude": "16.85667000"
  },
  {
    "name": "Lekenik",
    "countryCode": "HR",
    "stateCode": "03",
    "latitude": "45.58556000",
    "longitude": "16.21139000"
  },
  {
    "name": "Lepoglava",
    "countryCode": "HR",
    "stateCode": "05",
    "latitude": "46.21056000",
    "longitude": "16.03556000"
  },
  {
    "name": "Lipik",
    "countryCode": "HR",
    "stateCode": "11",
    "latitude": "45.41139000",
    "longitude": "17.15222000"
  },
  {
    "name": "Lipovljani",
    "countryCode": "HR",
    "stateCode": "03",
    "latitude": "45.39667000",
    "longitude": "16.88972000"
  },
  {
    "name": "Lički Osik",
    "countryCode": "HR",
    "stateCode": "09",
    "latitude": "44.60389000",
    "longitude": "15.42472000"
  },
  {
    "name": "Ližnjan",
    "countryCode": "HR",
    "stateCode": "18",
    "latitude": "44.82833000",
    "longitude": "13.95694000"
  },
  {
    "name": "Ližnjan-Lisignano",
    "countryCode": "HR",
    "stateCode": "18",
    "latitude": "44.82765000",
    "longitude": "13.96028000"
  },
  {
    "name": "Ljubešćica",
    "countryCode": "HR",
    "stateCode": "05",
    "latitude": "46.16667000",
    "longitude": "16.38333000"
  },
  {
    "name": "Lokvičići",
    "countryCode": "HR",
    "stateCode": "17",
    "latitude": "43.46428000",
    "longitude": "17.09142000"
  },
  {
    "name": "Lonjica",
    "countryCode": "HR",
    "stateCode": "01",
    "latitude": "45.85500000",
    "longitude": "16.33000000"
  },
  {
    "name": "Lopar",
    "countryCode": "HR",
    "stateCode": "08",
    "latitude": "44.83250000",
    "longitude": "14.73028000"
  },
  {
    "name": "Lopatinec",
    "countryCode": "HR",
    "stateCode": "20",
    "latitude": "46.43333000",
    "longitude": "16.38333000"
  },
  {
    "name": "Lovas",
    "countryCode": "HR",
    "stateCode": "16",
    "latitude": "45.22639000",
    "longitude": "19.17111000"
  },
  {
    "name": "Lovran",
    "countryCode": "HR",
    "stateCode": "08",
    "latitude": "45.29194000",
    "longitude": "14.27417000"
  },
  {
    "name": "Lovreć",
    "countryCode": "HR",
    "stateCode": "17",
    "latitude": "43.48761000",
    "longitude": "16.98632000"
  },
  {
    "name": "Ludbreg",
    "countryCode": "HR",
    "stateCode": "05",
    "latitude": "46.25194000",
    "longitude": "16.61472000"
  },
  {
    "name": "Luka",
    "countryCode": "HR",
    "stateCode": "01",
    "latitude": "45.95795000",
    "longitude": "15.81954000"
  },
  {
    "name": "Lukavec",
    "countryCode": "HR",
    "stateCode": "01",
    "latitude": "45.70444000",
    "longitude": "15.99000000"
  },
  {
    "name": "Lumbarda",
    "countryCode": "HR",
    "stateCode": "19",
    "latitude": "42.92278000",
    "longitude": "17.16722000"
  },
  {
    "name": "Lupoglav",
    "countryCode": "HR",
    "stateCode": "01",
    "latitude": "45.79639000",
    "longitude": "16.34639000"
  },
  {
    "name": "Lupoglav",
    "countryCode": "HR",
    "stateCode": "18",
    "latitude": "45.35204000",
    "longitude": "14.10846000"
  },
  {
    "name": "Lučko",
    "countryCode": "HR",
    "stateCode": "21",
    "latitude": "45.76111000",
    "longitude": "15.87028000"
  },
  {
    "name": "Lužani",
    "countryCode": "HR",
    "stateCode": "12",
    "latitude": "45.16806000",
    "longitude": "17.70694000"
  },
  {
    "name": "Magadenovac",
    "countryCode": "HR",
    "stateCode": "14",
    "latitude": "45.66159000",
    "longitude": "18.18679000"
  },
  {
    "name": "Makarska",
    "countryCode": "HR",
    "stateCode": "17",
    "latitude": "43.29694000",
    "longitude": "17.01778000"
  },
  {
    "name": "Mala Subotica",
    "countryCode": "HR",
    "stateCode": "20",
    "latitude": "46.37616000",
    "longitude": "16.52893000"
  },
  {
    "name": "Mali Lošinj",
    "countryCode": "HR",
    "stateCode": "08",
    "latitude": "44.53056000",
    "longitude": "14.46861000"
  },
  {
    "name": "Malinska-Dubašnica",
    "countryCode": "HR",
    "stateCode": "08",
    "latitude": "45.12277000",
    "longitude": "14.52873000"
  },
  {
    "name": "Marija Bistrica",
    "countryCode": "HR",
    "stateCode": "02",
    "latitude": "46.00611000",
    "longitude": "16.11111000"
  },
  {
    "name": "Marijanci",
    "countryCode": "HR",
    "stateCode": "14",
    "latitude": "45.66645000",
    "longitude": "18.29284000"
  },
  {
    "name": "Marinići",
    "countryCode": "HR",
    "stateCode": "08",
    "latitude": "45.36500000",
    "longitude": "14.39389000"
  },
  {
    "name": "Marjanci",
    "countryCode": "HR",
    "stateCode": "14",
    "latitude": "45.66694000",
    "longitude": "18.29222000"
  },
  {
    "name": "Markovac Našički",
    "countryCode": "HR",
    "stateCode": "14",
    "latitude": "45.49389000",
    "longitude": "18.12556000"
  },
  {
    "name": "Markušica",
    "countryCode": "HR",
    "stateCode": "16",
    "latitude": "45.37389000",
    "longitude": "18.70583000"
  },
  {
    "name": "Martin",
    "countryCode": "HR",
    "stateCode": "14",
    "latitude": "45.49222000",
    "longitude": "18.06667000"
  },
  {
    "name": "Martinska Ves",
    "countryCode": "HR",
    "stateCode": "03",
    "latitude": "45.58670000",
    "longitude": "16.37465000"
  },
  {
    "name": "Marčana",
    "countryCode": "HR",
    "stateCode": "18",
    "latitude": "44.95528000",
    "longitude": "13.95389000"
  },
  {
    "name": "Marčelji",
    "countryCode": "HR",
    "stateCode": "08",
    "latitude": "45.39611000",
    "longitude": "14.38944000"
  },
  {
    "name": "Matulji",
    "countryCode": "HR",
    "stateCode": "08",
    "latitude": "45.36167000",
    "longitude": "14.32500000"
  },
  {
    "name": "Mače",
    "countryCode": "HR",
    "stateCode": "02",
    "latitude": "46.09472000",
    "longitude": "16.03528000"
  },
  {
    "name": "Mačkovec",
    "countryCode": "HR",
    "stateCode": "20",
    "latitude": "46.42417000",
    "longitude": "16.43361000"
  },
  {
    "name": "Medulin",
    "countryCode": "HR",
    "stateCode": "18",
    "latitude": "44.82250000",
    "longitude": "13.93500000"
  },
  {
    "name": "Metković",
    "countryCode": "HR",
    "stateCode": "19",
    "latitude": "43.05417000",
    "longitude": "17.64833000"
  },
  {
    "name": "Mihotići",
    "countryCode": "HR",
    "stateCode": "08",
    "latitude": "45.36125000",
    "longitude": "14.30553000"
  },
  {
    "name": "Mihovljan",
    "countryCode": "HR",
    "stateCode": "02",
    "latitude": "46.13306000",
    "longitude": "15.97222000"
  },
  {
    "name": "Mihovljan",
    "countryCode": "HR",
    "stateCode": "20",
    "latitude": "46.40861000",
    "longitude": "16.44806000"
  },
  {
    "name": "Mikleuš",
    "countryCode": "HR",
    "stateCode": "10",
    "latitude": "45.61861000",
    "longitude": "17.80389000"
  },
  {
    "name": "Milna",
    "countryCode": "HR",
    "stateCode": "17",
    "latitude": "43.32667000",
    "longitude": "16.45083000"
  },
  {
    "name": "Mirkovci",
    "countryCode": "HR",
    "stateCode": "16",
    "latitude": "45.26972000",
    "longitude": "18.85111000"
  },
  {
    "name": "Mičevec",
    "countryCode": "HR",
    "stateCode": "01",
    "latitude": "45.75000000",
    "longitude": "16.06667000"
  },
  {
    "name": "Mljet",
    "countryCode": "HR",
    "stateCode": "19",
    "latitude": "42.74439000",
    "longitude": "17.53645000"
  },
  {
    "name": "Mokošica",
    "countryCode": "HR",
    "stateCode": "19",
    "latitude": "42.67556000",
    "longitude": "18.09028000"
  },
  {
    "name": "Molve",
    "countryCode": "HR",
    "stateCode": "06",
    "latitude": "46.10917000",
    "longitude": "17.03167000"
  },
  {
    "name": "Motovun",
    "countryCode": "HR",
    "stateCode": "18",
    "latitude": "45.33667000",
    "longitude": "13.82861000"
  },
  {
    "name": "Motovun-Montona",
    "countryCode": "HR",
    "stateCode": "18",
    "latitude": "45.33633000",
    "longitude": "13.82977000"
  },
  {
    "name": "Mraclin",
    "countryCode": "HR",
    "stateCode": "01",
    "latitude": "45.66667000",
    "longitude": "16.09556000"
  },
  {
    "name": "Mravince",
    "countryCode": "HR",
    "stateCode": "17",
    "latitude": "43.53333000",
    "longitude": "16.52194000"
  },
  {
    "name": "Mrkopalj",
    "countryCode": "HR",
    "stateCode": "08",
    "latitude": "45.31556000",
    "longitude": "14.85528000"
  },
  {
    "name": "Mursko Središće",
    "countryCode": "HR",
    "stateCode": "20",
    "latitude": "46.50944000",
    "longitude": "16.44111000"
  },
  {
    "name": "Murter",
    "countryCode": "HR",
    "stateCode": "15",
    "latitude": "43.82043000",
    "longitude": "15.58988000"
  },
  {
    "name": "Murter-Kornati",
    "countryCode": "HR",
    "stateCode": "15",
    "latitude": "43.80959000",
    "longitude": "15.60024000"
  },
  {
    "name": "Muć",
    "countryCode": "HR",
    "stateCode": "17",
    "latitude": "43.69328000",
    "longitude": "16.47267000"
  },
  {
    "name": "Našice",
    "countryCode": "HR",
    "stateCode": "14",
    "latitude": "45.48861000",
    "longitude": "18.08778000"
  },
  {
    "name": "Nedelišće",
    "countryCode": "HR",
    "stateCode": "20",
    "latitude": "46.37583000",
    "longitude": "16.38750000"
  },
  {
    "name": "Nedeljanec",
    "countryCode": "HR",
    "stateCode": "05",
    "latitude": "46.28778000",
    "longitude": "16.28333000"
  },
  {
    "name": "Negoslavci",
    "countryCode": "HR",
    "stateCode": "16",
    "latitude": "45.27944000",
    "longitude": "18.99667000"
  },
  {
    "name": "Nerežišća",
    "countryCode": "HR",
    "stateCode": "17",
    "latitude": "43.32959000",
    "longitude": "16.57743000"
  },
  {
    "name": "Nijemci",
    "countryCode": "HR",
    "stateCode": "16",
    "latitude": "45.14028000",
    "longitude": "19.03556000"
  },
  {
    "name": "Nin",
    "countryCode": "HR",
    "stateCode": "13",
    "latitude": "44.24139000",
    "longitude": "15.17833000"
  },
  {
    "name": "Njivice",
    "countryCode": "HR",
    "stateCode": "08",
    "latitude": "45.15806000",
    "longitude": "14.53861000"
  },
  {
    "name": "Nova Bukovica",
    "countryCode": "HR",
    "stateCode": "10",
    "latitude": "45.66472000",
    "longitude": "17.76694000"
  },
  {
    "name": "Nova Gradiška",
    "countryCode": "HR",
    "stateCode": "12",
    "latitude": "45.25500000",
    "longitude": "17.38306000"
  },
  {
    "name": "Novalja",
    "countryCode": "HR",
    "stateCode": "09",
    "latitude": "44.55778000",
    "longitude": "14.88667000"
  },
  {
    "name": "Novi Vinodolski",
    "countryCode": "HR",
    "stateCode": "08",
    "latitude": "45.12806000",
    "longitude": "14.78889000"
  },
  {
    "name": "Novi Zagreb",
    "countryCode": "HR",
    "stateCode": "21",
    "latitude": "45.78333000",
    "longitude": "15.98333000"
  },
  {
    "name": "Novigrad",
    "countryCode": "HR",
    "stateCode": "18",
    "latitude": "45.31500000",
    "longitude": "13.55806000"
  },
  {
    "name": "Novigrad Općina",
    "countryCode": "HR",
    "stateCode": "13",
    "latitude": "44.19417000",
    "longitude": "15.55667000"
  },
  {
    "name": "Novigrad-Cittanova",
    "countryCode": "HR",
    "stateCode": "18",
    "latitude": "45.31669000",
    "longitude": "13.56155000"
  },
  {
    "name": "Novo Selo Rok",
    "countryCode": "HR",
    "stateCode": "20",
    "latitude": "46.42839000",
    "longitude": "16.46215000"
  },
  {
    "name": "Novo Virje",
    "countryCode": "HR",
    "stateCode": "06",
    "latitude": "46.09834000",
    "longitude": "17.15215000"
  },
  {
    "name": "Novo Čiče",
    "countryCode": "HR",
    "stateCode": "01",
    "latitude": "45.70000000",
    "longitude": "16.11667000"
  },
  {
    "name": "Novoselec",
    "countryCode": "HR",
    "stateCode": "01",
    "latitude": "45.65250000",
    "longitude": "16.53639000"
  },
  {
    "name": "Novska",
    "countryCode": "HR",
    "stateCode": "03",
    "latitude": "45.34056000",
    "longitude": "16.97694000"
  },
  {
    "name": "Nuštar",
    "countryCode": "HR",
    "stateCode": "16",
    "latitude": "45.33250000",
    "longitude": "18.84139000"
  },
  {
    "name": "Obrovac",
    "countryCode": "HR",
    "stateCode": "13",
    "latitude": "44.20056000",
    "longitude": "15.68222000"
  },
  {
    "name": "Odra",
    "countryCode": "HR",
    "stateCode": "21",
    "latitude": "45.72979000",
    "longitude": "15.99240000"
  },
  {
    "name": "Okrug",
    "countryCode": "HR",
    "stateCode": "17",
    "latitude": "43.49638000",
    "longitude": "16.26732000"
  },
  {
    "name": "Okrug Gornji",
    "countryCode": "HR",
    "stateCode": "17",
    "latitude": "43.49473000",
    "longitude": "16.26531000"
  },
  {
    "name": "Okučani",
    "countryCode": "HR",
    "stateCode": "12",
    "latitude": "45.26034000",
    "longitude": "17.19925000"
  },
  {
    "name": "Omiš",
    "countryCode": "HR",
    "stateCode": "17",
    "latitude": "43.44472000",
    "longitude": "16.68861000"
  },
  {
    "name": "Omišalj",
    "countryCode": "HR",
    "stateCode": "08",
    "latitude": "45.21134000",
    "longitude": "14.55495000"
  },
  {
    "name": "Opatija",
    "countryCode": "HR",
    "stateCode": "08",
    "latitude": "45.33771000",
    "longitude": "14.30515000"
  },
  {
    "name": "Oprisavci",
    "countryCode": "HR",
    "stateCode": "12",
    "latitude": "45.15111000",
    "longitude": "18.22972000"
  },
  {
    "name": "Oprtalj-Portole",
    "countryCode": "HR",
    "stateCode": "18",
    "latitude": "45.38226000",
    "longitude": "13.82406000"
  },
  {
    "name": "Opuzen",
    "countryCode": "HR",
    "stateCode": "19",
    "latitude": "43.01528000",
    "longitude": "17.56556000"
  },
  {
    "name": "Općina Dubrava",
    "countryCode": "HR",
    "stateCode": "01",
    "latitude": "45.83759000",
    "longitude": "16.53683000"
  },
  {
    "name": "Općina Dvor",
    "countryCode": "HR",
    "stateCode": "03",
    "latitude": "45.10000000",
    "longitude": "16.30000000"
  },
  {
    "name": "Općina Gvozd",
    "countryCode": "HR",
    "stateCode": "03",
    "latitude": "45.33333000",
    "longitude": "15.90000000"
  },
  {
    "name": "Općina Lanišće",
    "countryCode": "HR",
    "stateCode": "18",
    "latitude": "45.43520000",
    "longitude": "14.08196000"
  },
  {
    "name": "Općina Lastovo",
    "countryCode": "HR",
    "stateCode": "19",
    "latitude": "42.75000000",
    "longitude": "16.90000000"
  },
  {
    "name": "Orahovica",
    "countryCode": "HR",
    "stateCode": "10",
    "latitude": "45.54000000",
    "longitude": "17.88472000"
  },
  {
    "name": "Orebić",
    "countryCode": "HR",
    "stateCode": "19",
    "latitude": "42.98556000",
    "longitude": "17.17472000"
  },
  {
    "name": "Orehovica",
    "countryCode": "HR",
    "stateCode": "20",
    "latitude": "46.33167000",
    "longitude": "16.50694000"
  },
  {
    "name": "Orešje",
    "countryCode": "HR",
    "stateCode": "01",
    "latitude": "45.81618000",
    "longitude": "15.80246000"
  },
  {
    "name": "Oriovac",
    "countryCode": "HR",
    "stateCode": "12",
    "latitude": "45.16611000",
    "longitude": "17.76000000"
  },
  {
    "name": "Oroslavje",
    "countryCode": "HR",
    "stateCode": "02",
    "latitude": "45.99672000",
    "longitude": "15.91507000"
  },
  {
    "name": "Osijek",
    "countryCode": "HR",
    "stateCode": "14",
    "latitude": "45.55111000",
    "longitude": "18.69389000"
  },
  {
    "name": "Osljak",
    "countryCode": "HR",
    "stateCode": "13",
    "latitude": "44.07667000",
    "longitude": "15.20722000"
  },
  {
    "name": "Otok",
    "countryCode": "HR",
    "stateCode": "16",
    "latitude": "45.14667000",
    "longitude": "18.88389000"
  },
  {
    "name": "Otok",
    "countryCode": "HR",
    "stateCode": "17",
    "latitude": "43.68661000",
    "longitude": "16.73488000"
  },
  {
    "name": "Otočac",
    "countryCode": "HR",
    "stateCode": "09",
    "latitude": "44.86944000",
    "longitude": "15.23750000"
  },
  {
    "name": "Pag",
    "countryCode": "HR",
    "stateCode": "13",
    "latitude": "44.44500000",
    "longitude": "15.05750000"
  },
  {
    "name": "Pakoštane",
    "countryCode": "HR",
    "stateCode": "13",
    "latitude": "43.91222000",
    "longitude": "15.50889000"
  },
  {
    "name": "Pakrac",
    "countryCode": "HR",
    "stateCode": "11",
    "latitude": "45.43639000",
    "longitude": "17.18889000"
  },
  {
    "name": "Pazin",
    "countryCode": "HR",
    "stateCode": "18",
    "latitude": "45.24028000",
    "longitude": "13.93667000"
  },
  {
    "name": "Peklenica",
    "countryCode": "HR",
    "stateCode": "20",
    "latitude": "46.49528000",
    "longitude": "16.47611000"
  },
  {
    "name": "Perušić",
    "countryCode": "HR",
    "stateCode": "09",
    "latitude": "44.64944000",
    "longitude": "15.38333000"
  },
  {
    "name": "Peteranec",
    "countryCode": "HR",
    "stateCode": "06",
    "latitude": "46.19222000",
    "longitude": "16.89167000"
  },
  {
    "name": "Petlovac",
    "countryCode": "HR",
    "stateCode": "14",
    "latitude": "45.75833000",
    "longitude": "18.52806000"
  },
  {
    "name": "Petrijanec",
    "countryCode": "HR",
    "stateCode": "05",
    "latitude": "46.34917000",
    "longitude": "16.22500000"
  },
  {
    "name": "Petrijevci",
    "countryCode": "HR",
    "stateCode": "14",
    "latitude": "45.61278000",
    "longitude": "18.53528000"
  },
  {
    "name": "Petrinja",
    "countryCode": "HR",
    "stateCode": "03",
    "latitude": "45.43750000",
    "longitude": "16.29000000"
  },
  {
    "name": "Pirovac",
    "countryCode": "HR",
    "stateCode": "15",
    "latitude": "43.81917000",
    "longitude": "15.67278000"
  },
  {
    "name": "Pitomača",
    "countryCode": "HR",
    "stateCode": "10",
    "latitude": "45.95056000",
    "longitude": "17.22944000"
  },
  {
    "name": "Piškorevci",
    "countryCode": "HR",
    "stateCode": "14",
    "latitude": "45.25528000",
    "longitude": "18.40417000"
  },
  {
    "name": "Pleternica",
    "countryCode": "HR",
    "stateCode": "11",
    "latitude": "45.28861000",
    "longitude": "17.80639000"
  },
  {
    "name": "Plitvička Jezera",
    "countryCode": "HR",
    "stateCode": "09",
    "latitude": "44.88053000",
    "longitude": "15.62123000"
  },
  {
    "name": "Podgora",
    "countryCode": "HR",
    "stateCode": "19",
    "latitude": "42.84861000",
    "longitude": "17.83639000"
  },
  {
    "name": "Podgorač",
    "countryCode": "HR",
    "stateCode": "14",
    "latitude": "45.45861000",
    "longitude": "18.22278000"
  },
  {
    "name": "Podhum",
    "countryCode": "HR",
    "stateCode": "08",
    "latitude": "45.38722000",
    "longitude": "14.47944000"
  },
  {
    "name": "Podravska Moslavina",
    "countryCode": "HR",
    "stateCode": "14",
    "latitude": "45.78456000",
    "longitude": "17.98410000"
  },
  {
    "name": "Podstrana",
    "countryCode": "HR",
    "stateCode": "17",
    "latitude": "43.48668000",
    "longitude": "16.55013000"
  },
  {
    "name": "Podturen",
    "countryCode": "HR",
    "stateCode": "20",
    "latitude": "46.46472000",
    "longitude": "16.54306000"
  },
  {
    "name": "Podvinje",
    "countryCode": "HR",
    "stateCode": "12",
    "latitude": "45.19028000",
    "longitude": "18.02694000"
  },
  {
    "name": "Pojatno",
    "countryCode": "HR",
    "stateCode": "01",
    "latitude": "45.90500000",
    "longitude": "15.80056000"
  },
  {
    "name": "Pojezerje",
    "countryCode": "HR",
    "stateCode": "19",
    "latitude": "43.15741000",
    "longitude": "17.45152000"
  },
  {
    "name": "Polača",
    "countryCode": "HR",
    "stateCode": "13",
    "latitude": "44.01833000",
    "longitude": "15.51750000"
  },
  {
    "name": "Poličnik",
    "countryCode": "HR",
    "stateCode": "13",
    "latitude": "44.17806000",
    "longitude": "15.37556000"
  },
  {
    "name": "Popovača",
    "countryCode": "HR",
    "stateCode": "03",
    "latitude": "45.56972000",
    "longitude": "16.62500000"
  },
  {
    "name": "Popovača",
    "countryCode": "HR",
    "stateCode": "09",
    "latitude": "44.63917000",
    "longitude": "15.17917000"
  },
  {
    "name": "Poreč",
    "countryCode": "HR",
    "stateCode": "18",
    "latitude": "45.22567000",
    "longitude": "13.59511000"
  },
  {
    "name": "Poreč-Parenzo",
    "countryCode": "HR",
    "stateCode": "18",
    "latitude": "45.22717000",
    "longitude": "13.59653000"
  },
  {
    "name": "Posedarje",
    "countryCode": "HR",
    "stateCode": "13",
    "latitude": "44.21361000",
    "longitude": "15.47667000"
  },
  {
    "name": "Postira",
    "countryCode": "HR",
    "stateCode": "17",
    "latitude": "43.37551000",
    "longitude": "16.63091000"
  },
  {
    "name": "Požega",
    "countryCode": "HR",
    "stateCode": "11",
    "latitude": "45.34028000",
    "longitude": "17.68528000"
  },
  {
    "name": "Predavac",
    "countryCode": "HR",
    "stateCode": "07",
    "latitude": "45.93583000",
    "longitude": "16.78333000"
  },
  {
    "name": "Pregrada",
    "countryCode": "HR",
    "stateCode": "02",
    "latitude": "46.16417000",
    "longitude": "15.75083000"
  },
  {
    "name": "Preko",
    "countryCode": "HR",
    "stateCode": "13",
    "latitude": "44.08111000",
    "longitude": "15.18750000"
  },
  {
    "name": "Prelog",
    "countryCode": "HR",
    "stateCode": "20",
    "latitude": "46.33500000",
    "longitude": "16.61556000"
  },
  {
    "name": "Preseka",
    "countryCode": "HR",
    "stateCode": "01",
    "latitude": "45.97456000",
    "longitude": "16.38697000"
  },
  {
    "name": "Pribislavec",
    "countryCode": "HR",
    "stateCode": "20",
    "latitude": "46.39250000",
    "longitude": "16.48250000"
  },
  {
    "name": "Pridraga",
    "countryCode": "HR",
    "stateCode": "13",
    "latitude": "44.16667000",
    "longitude": "15.56667000"
  },
  {
    "name": "Prigorje Brdovečko",
    "countryCode": "HR",
    "stateCode": "01",
    "latitude": "45.87944000",
    "longitude": "15.73806000"
  },
  {
    "name": "Primošten",
    "countryCode": "HR",
    "stateCode": "15",
    "latitude": "43.58632000",
    "longitude": "15.92302000"
  },
  {
    "name": "Privlaka",
    "countryCode": "HR",
    "stateCode": "13",
    "latitude": "44.26667000",
    "longitude": "15.13333000"
  },
  {
    "name": "Privlaka",
    "countryCode": "HR",
    "stateCode": "16",
    "latitude": "45.19472000",
    "longitude": "18.83750000"
  },
  {
    "name": "Proložac",
    "countryCode": "HR",
    "stateCode": "17",
    "latitude": "43.46690000",
    "longitude": "17.15507000"
  },
  {
    "name": "Promina",
    "countryCode": "HR",
    "stateCode": "15",
    "latitude": "43.95798000",
    "longitude": "16.09737000"
  },
  {
    "name": "Pula",
    "countryCode": "HR",
    "stateCode": "18",
    "latitude": "44.86833000",
    "longitude": "13.84806000"
  },
  {
    "name": "Pula-Pola",
    "countryCode": "HR",
    "stateCode": "18",
    "latitude": "44.86711000",
    "longitude": "13.84882000"
  },
  {
    "name": "Punat",
    "countryCode": "HR",
    "stateCode": "08",
    "latitude": "45.01472000",
    "longitude": "14.62889000"
  },
  {
    "name": "Pučišća",
    "countryCode": "HR",
    "stateCode": "17",
    "latitude": "43.34778000",
    "longitude": "16.73389000"
  },
  {
    "name": "Pušća",
    "countryCode": "HR",
    "stateCode": "01",
    "latitude": "45.91567000",
    "longitude": "15.78049000"
  },
  {
    "name": "Rab",
    "countryCode": "HR",
    "stateCode": "08",
    "latitude": "44.75769000",
    "longitude": "14.75906000"
  },
  {
    "name": "Rabac",
    "countryCode": "HR",
    "stateCode": "18",
    "latitude": "45.07944000",
    "longitude": "14.15750000"
  },
  {
    "name": "Radoboj",
    "countryCode": "HR",
    "stateCode": "02",
    "latitude": "46.16639000",
    "longitude": "15.92361000"
  },
  {
    "name": "Rakitje",
    "countryCode": "HR",
    "stateCode": "01",
    "latitude": "45.79389000",
    "longitude": "15.82222000"
  },
  {
    "name": "Rakov Potok",
    "countryCode": "HR",
    "stateCode": "01",
    "latitude": "45.73806000",
    "longitude": "15.79722000"
  },
  {
    "name": "Rasinja",
    "countryCode": "HR",
    "stateCode": "06",
    "latitude": "46.18389000",
    "longitude": "16.70667000"
  },
  {
    "name": "Raša",
    "countryCode": "HR",
    "stateCode": "18",
    "latitude": "45.08028000",
    "longitude": "14.07889000"
  },
  {
    "name": "Ražanac",
    "countryCode": "HR",
    "stateCode": "13",
    "latitude": "44.28194000",
    "longitude": "15.34806000"
  },
  {
    "name": "Reka",
    "countryCode": "HR",
    "stateCode": "06",
    "latitude": "46.13028000",
    "longitude": "16.76694000"
  },
  {
    "name": "Remetinec",
    "countryCode": "HR",
    "stateCode": "05",
    "latitude": "46.18528000",
    "longitude": "16.32778000"
  },
  {
    "name": "Repušnica",
    "countryCode": "HR",
    "stateCode": "03",
    "latitude": "45.49278000",
    "longitude": "16.73083000"
  },
  {
    "name": "Retkovci",
    "countryCode": "HR",
    "stateCode": "16",
    "latitude": "45.23333000",
    "longitude": "18.65306000"
  },
  {
    "name": "Rezovac",
    "countryCode": "HR",
    "stateCode": "10",
    "latitude": "45.78333000",
    "longitude": "17.41667000"
  },
  {
    "name": "Rešetari",
    "countryCode": "HR",
    "stateCode": "12",
    "latitude": "45.26232000",
    "longitude": "17.42346000"
  },
  {
    "name": "Rijeka",
    "countryCode": "HR",
    "stateCode": "08",
    "latitude": "45.32673000",
    "longitude": "14.44241000"
  },
  {
    "name": "Rogoznica",
    "countryCode": "HR",
    "stateCode": "15",
    "latitude": "43.52472000",
    "longitude": "15.97000000"
  },
  {
    "name": "Rogoznica Općina",
    "countryCode": "HR",
    "stateCode": "15",
    "latitude": "43.53620000",
    "longitude": "15.97086000"
  },
  {
    "name": "Rokovci",
    "countryCode": "HR",
    "stateCode": "16",
    "latitude": "45.23111000",
    "longitude": "18.74389000"
  },
  {
    "name": "Rovinj",
    "countryCode": "HR",
    "stateCode": "18",
    "latitude": "45.08000000",
    "longitude": "13.64000000"
  },
  {
    "name": "Rovinj-Rovigno",
    "countryCode": "HR",
    "stateCode": "18",
    "latitude": "45.08190000",
    "longitude": "13.63970000"
  },
  {
    "name": "Rovišće",
    "countryCode": "HR",
    "stateCode": "07",
    "latitude": "45.94472000",
    "longitude": "16.73500000"
  },
  {
    "name": "Rubeši",
    "countryCode": "HR",
    "stateCode": "08",
    "latitude": "45.36694000",
    "longitude": "14.34806000"
  },
  {
    "name": "Rude",
    "countryCode": "HR",
    "stateCode": "01",
    "latitude": "45.76667000",
    "longitude": "15.66667000"
  },
  {
    "name": "Runović",
    "countryCode": "HR",
    "stateCode": "17",
    "latitude": "43.37667000",
    "longitude": "17.23667000"
  },
  {
    "name": "Runovići",
    "countryCode": "HR",
    "stateCode": "17",
    "latitude": "43.38704000",
    "longitude": "17.23892000"
  },
  {
    "name": "Ruščica",
    "countryCode": "HR",
    "stateCode": "12",
    "latitude": "45.14667000",
    "longitude": "18.07944000"
  },
  {
    "name": "Sali",
    "countryCode": "HR",
    "stateCode": "13",
    "latitude": "43.93972000",
    "longitude": "15.16333000"
  },
  {
    "name": "Samobor",
    "countryCode": "HR",
    "stateCode": "01",
    "latitude": "45.80306000",
    "longitude": "15.71806000"
  },
  {
    "name": "Sarvaš",
    "countryCode": "HR",
    "stateCode": "14",
    "latitude": "45.52722000",
    "longitude": "18.83750000"
  },
  {
    "name": "Satnica Đakovačka",
    "countryCode": "HR",
    "stateCode": "14",
    "latitude": "45.35367000",
    "longitude": "18.37729000"
  },
  {
    "name": "Seget",
    "countryCode": "HR",
    "stateCode": "17",
    "latitude": "43.54305000",
    "longitude": "16.21222000"
  },
  {
    "name": "Seget Vranjica",
    "countryCode": "HR",
    "stateCode": "17",
    "latitude": "43.50999000",
    "longitude": "16.18704000"
  },
  {
    "name": "Selca",
    "countryCode": "HR",
    "stateCode": "17",
    "latitude": "43.29722000",
    "longitude": "16.85083000"
  },
  {
    "name": "Selce",
    "countryCode": "HR",
    "stateCode": "08",
    "latitude": "45.15639000",
    "longitude": "14.72111000"
  },
  {
    "name": "Semeljci",
    "countryCode": "HR",
    "stateCode": "14",
    "latitude": "45.36056000",
    "longitude": "18.54361000"
  },
  {
    "name": "Senj",
    "countryCode": "HR",
    "stateCode": "09",
    "latitude": "44.98944000",
    "longitude": "14.90583000"
  },
  {
    "name": "Sesvete",
    "countryCode": "HR",
    "stateCode": "21",
    "latitude": "45.83333000",
    "longitude": "16.13333000"
  },
  {
    "name": "Severin",
    "countryCode": "HR",
    "stateCode": "07",
    "latitude": "45.84152000",
    "longitude": "16.96950000"
  },
  {
    "name": "Sibinj",
    "countryCode": "HR",
    "stateCode": "12",
    "latitude": "45.19167000",
    "longitude": "17.90806000"
  },
  {
    "name": "Sigetec",
    "countryCode": "HR",
    "stateCode": "06",
    "latitude": "46.18833000",
    "longitude": "16.93583000"
  },
  {
    "name": "Sikirevci",
    "countryCode": "HR",
    "stateCode": "12",
    "latitude": "45.10889000",
    "longitude": "18.46444000"
  },
  {
    "name": "Sinj",
    "countryCode": "HR",
    "stateCode": "17",
    "latitude": "43.70361000",
    "longitude": "16.63944000"
  },
  {
    "name": "Sirač",
    "countryCode": "HR",
    "stateCode": "07",
    "latitude": "45.52333000",
    "longitude": "17.25500000"
  },
  {
    "name": "Sisak",
    "countryCode": "HR",
    "stateCode": "03",
    "latitude": "45.46611000",
    "longitude": "16.37833000"
  },
  {
    "name": "Skrad",
    "countryCode": "HR",
    "stateCode": "08",
    "latitude": "45.42778000",
    "longitude": "14.91111000"
  },
  {
    "name": "Skradin",
    "countryCode": "HR",
    "stateCode": "15",
    "latitude": "43.82028000",
    "longitude": "15.92361000"
  },
  {
    "name": "Slatina",
    "countryCode": "HR",
    "stateCode": "10",
    "latitude": "45.70333000",
    "longitude": "17.70278000"
  },
  {
    "name": "Slatine",
    "countryCode": "HR",
    "stateCode": "17",
    "latitude": "43.49944000",
    "longitude": "16.33333000"
  },
  {
    "name": "Slavonski Brod",
    "countryCode": "HR",
    "stateCode": "12",
    "latitude": "45.16028000",
    "longitude": "18.01556000"
  },
  {
    "name": "Slivno",
    "countryCode": "HR",
    "stateCode": "19",
    "latitude": "42.95864000",
    "longitude": "17.54431000"
  },
  {
    "name": "Slobodnica",
    "countryCode": "HR",
    "stateCode": "12",
    "latitude": "45.16222000",
    "longitude": "17.93278000"
  },
  {
    "name": "Smokvica",
    "countryCode": "HR",
    "stateCode": "19",
    "latitude": "42.93056000",
    "longitude": "16.89639000"
  },
  {
    "name": "Solin",
    "countryCode": "HR",
    "stateCode": "17",
    "latitude": "43.54320000",
    "longitude": "16.49314000"
  },
  {
    "name": "Soljani",
    "countryCode": "HR",
    "stateCode": "16",
    "latitude": "44.95028000",
    "longitude": "18.97028000"
  },
  {
    "name": "Sopje",
    "countryCode": "HR",
    "stateCode": "10",
    "latitude": "45.80111000",
    "longitude": "17.74250000"
  },
  {
    "name": "Split",
    "countryCode": "HR",
    "stateCode": "17",
    "latitude": "43.50891000",
    "longitude": "16.43915000"
  },
  {
    "name": "Sračinec",
    "countryCode": "HR",
    "stateCode": "05",
    "latitude": "46.32944000",
    "longitude": "16.27889000"
  },
  {
    "name": "Srinjine",
    "countryCode": "HR",
    "stateCode": "17",
    "latitude": "43.48333000",
    "longitude": "16.60000000"
  },
  {
    "name": "Stari Grad",
    "countryCode": "HR",
    "stateCode": "13",
    "latitude": "44.43000000",
    "longitude": "15.06222000"
  },
  {
    "name": "Stari Grad",
    "countryCode": "HR",
    "stateCode": "17",
    "latitude": "43.18472000",
    "longitude": "16.59528000"
  },
  {
    "name": "Stari Jankovci",
    "countryCode": "HR",
    "stateCode": "16",
    "latitude": "45.26194000",
    "longitude": "18.91444000"
  },
  {
    "name": "Stari Perkovci",
    "countryCode": "HR",
    "stateCode": "12",
    "latitude": "45.21750000",
    "longitude": "18.34861000"
  },
  {
    "name": "Starigrad",
    "countryCode": "HR",
    "stateCode": "13",
    "latitude": "44.29601000",
    "longitude": "15.43865000"
  },
  {
    "name": "Stenjevec",
    "countryCode": "HR",
    "stateCode": "21",
    "latitude": "45.80846000",
    "longitude": "15.88245000"
  },
  {
    "name": "Stobreč",
    "countryCode": "HR",
    "stateCode": "17",
    "latitude": "43.50250000",
    "longitude": "16.52222000"
  },
  {
    "name": "Ston",
    "countryCode": "HR",
    "stateCode": "19",
    "latitude": "42.83861000",
    "longitude": "17.69639000"
  },
  {
    "name": "Strahoninec",
    "countryCode": "HR",
    "stateCode": "20",
    "latitude": "46.36889000",
    "longitude": "16.41500000"
  },
  {
    "name": "Strizivojna",
    "countryCode": "HR",
    "stateCode": "14",
    "latitude": "45.22611000",
    "longitude": "18.42389000"
  },
  {
    "name": "Strmec",
    "countryCode": "HR",
    "stateCode": "21",
    "latitude": "45.70843000",
    "longitude": "15.91674000"
  },
  {
    "name": "Stubičke Toplice",
    "countryCode": "HR",
    "stateCode": "02",
    "latitude": "45.97585000",
    "longitude": "15.93238000"
  },
  {
    "name": "Stupnik",
    "countryCode": "HR",
    "stateCode": "01",
    "latitude": "45.75314000",
    "longitude": "15.84078000"
  },
  {
    "name": "Suhopolje",
    "countryCode": "HR",
    "stateCode": "10",
    "latitude": "45.79972000",
    "longitude": "17.49917000"
  },
  {
    "name": "Sukošan",
    "countryCode": "HR",
    "stateCode": "13",
    "latitude": "44.04696000",
    "longitude": "15.31391000"
  },
  {
    "name": "Sunja",
    "countryCode": "HR",
    "stateCode": "03",
    "latitude": "45.36850000",
    "longitude": "16.56702000"
  },
  {
    "name": "Supetar",
    "countryCode": "HR",
    "stateCode": "17",
    "latitude": "43.38417000",
    "longitude": "16.55083000"
  },
  {
    "name": "Supetarska Draga",
    "countryCode": "HR",
    "stateCode": "08",
    "latitude": "44.79750000",
    "longitude": "14.72472000"
  },
  {
    "name": "Sveta Nedelja",
    "countryCode": "HR",
    "stateCode": "01",
    "latitude": "45.79617000",
    "longitude": "15.77971000"
  },
  {
    "name": "Sveta Nedelja",
    "countryCode": "HR",
    "stateCode": "18",
    "latitude": "45.14932000",
    "longitude": "14.09889000"
  },
  {
    "name": "Sveta Nedjelja",
    "countryCode": "HR",
    "stateCode": "01",
    "latitude": "45.79833000",
    "longitude": "15.78056000"
  },
  {
    "name": "Sveti Filip i Jakov",
    "countryCode": "HR",
    "stateCode": "13",
    "latitude": "43.96472000",
    "longitude": "15.43000000"
  },
  {
    "name": "Sveti Juraj na Bregu",
    "countryCode": "HR",
    "stateCode": "20",
    "latitude": "46.42853000",
    "longitude": "16.38525000"
  },
  {
    "name": "Sveti Križ Začretje",
    "countryCode": "HR",
    "stateCode": "02",
    "latitude": "46.08224000",
    "longitude": "15.90704000"
  },
  {
    "name": "Sveti Lovreč",
    "countryCode": "HR",
    "stateCode": "18",
    "latitude": "45.17770000",
    "longitude": "13.74317000"
  },
  {
    "name": "Sveti Đurđ",
    "countryCode": "HR",
    "stateCode": "05",
    "latitude": "46.28331000",
    "longitude": "16.60438000"
  },
  {
    "name": "Tar",
    "countryCode": "HR",
    "stateCode": "18",
    "latitude": "45.30083000",
    "longitude": "13.62528000"
  },
  {
    "name": "Tar-Vabriga-Torre Abrega",
    "countryCode": "HR",
    "stateCode": "18",
    "latitude": "45.29946000",
    "longitude": "13.62489000"
  },
  {
    "name": "Tenja",
    "countryCode": "HR",
    "stateCode": "14",
    "latitude": "45.49806000",
    "longitude": "18.74722000"
  },
  {
    "name": "Tisno",
    "countryCode": "HR",
    "stateCode": "15",
    "latitude": "43.80417000",
    "longitude": "15.64333000"
  },
  {
    "name": "Tkon",
    "countryCode": "HR",
    "stateCode": "13",
    "latitude": "43.91996000",
    "longitude": "15.41639000"
  },
  {
    "name": "Tordinci",
    "countryCode": "HR",
    "stateCode": "16",
    "latitude": "45.37028000",
    "longitude": "18.79500000"
  },
  {
    "name": "Tovarnik",
    "countryCode": "HR",
    "stateCode": "16",
    "latitude": "45.16500000",
    "longitude": "19.15194000"
  },
  {
    "name": "Tribunj",
    "countryCode": "HR",
    "stateCode": "15",
    "latitude": "43.75547000",
    "longitude": "15.74444000"
  },
  {
    "name": "Trilj",
    "countryCode": "HR",
    "stateCode": "17",
    "latitude": "43.61833000",
    "longitude": "16.72417000"
  },
  {
    "name": "Trogir",
    "countryCode": "HR",
    "stateCode": "17",
    "latitude": "43.51250000",
    "longitude": "16.25167000"
  },
  {
    "name": "Trpinja",
    "countryCode": "HR",
    "stateCode": "16",
    "latitude": "45.41917000",
    "longitude": "18.89917000"
  },
  {
    "name": "Turanj",
    "countryCode": "HR",
    "stateCode": "13",
    "latitude": "43.97111000",
    "longitude": "15.41139000"
  },
  {
    "name": "Turjaci",
    "countryCode": "HR",
    "stateCode": "17",
    "latitude": "43.65000000",
    "longitude": "16.66917000"
  },
  {
    "name": "Tučepi",
    "countryCode": "HR",
    "stateCode": "17",
    "latitude": "43.27222000",
    "longitude": "17.05444000"
  },
  {
    "name": "Tužno",
    "countryCode": "HR",
    "stateCode": "05",
    "latitude": "46.25667000",
    "longitude": "16.23500000"
  },
  {
    "name": "Ugljan",
    "countryCode": "HR",
    "stateCode": "13",
    "latitude": "44.13083000",
    "longitude": "15.10306000"
  },
  {
    "name": "Umag",
    "countryCode": "HR",
    "stateCode": "18",
    "latitude": "45.43139000",
    "longitude": "13.52389000"
  },
  {
    "name": "Umag-Umago",
    "countryCode": "HR",
    "stateCode": "18",
    "latitude": "45.43462000",
    "longitude": "13.52589000"
  },
  {
    "name": "Valbandon",
    "countryCode": "HR",
    "stateCode": "18",
    "latitude": "44.91879000",
    "longitude": "13.81344000"
  },
  {
    "name": "Valpovo",
    "countryCode": "HR",
    "stateCode": "14",
    "latitude": "45.66083000",
    "longitude": "18.41861000"
  },
  {
    "name": "Varaždin",
    "countryCode": "HR",
    "stateCode": "05",
    "latitude": "46.30444000",
    "longitude": "16.33778000"
  },
  {
    "name": "Vela Luka",
    "countryCode": "HR",
    "stateCode": "19",
    "latitude": "42.96333000",
    "longitude": "16.72250000"
  },
  {
    "name": "Velika",
    "countryCode": "HR",
    "stateCode": "11",
    "latitude": "45.45444000",
    "longitude": "17.66139000"
  },
  {
    "name": "Velika Gorica",
    "countryCode": "HR",
    "stateCode": "01",
    "latitude": "45.71250000",
    "longitude": "16.07556000"
  },
  {
    "name": "Velika Kopanica",
    "countryCode": "HR",
    "stateCode": "12",
    "latitude": "45.15611000",
    "longitude": "18.39306000"
  },
  {
    "name": "Velika Mlaka",
    "countryCode": "HR",
    "stateCode": "01",
    "latitude": "45.73639000",
    "longitude": "16.03111000"
  },
  {
    "name": "Velika Ostrna",
    "countryCode": "HR",
    "stateCode": "01",
    "latitude": "45.78752000",
    "longitude": "16.28139000"
  },
  {
    "name": "Velika Pisanica",
    "countryCode": "HR",
    "stateCode": "07",
    "latitude": "45.80160000",
    "longitude": "17.06551000"
  },
  {
    "name": "Veliki Drvenik",
    "countryCode": "HR",
    "stateCode": "17",
    "latitude": "43.45000000",
    "longitude": "16.15000000"
  },
  {
    "name": "Veliki Grđevac",
    "countryCode": "HR",
    "stateCode": "07",
    "latitude": "45.75028000",
    "longitude": "17.04750000"
  },
  {
    "name": "Velimirovac",
    "countryCode": "HR",
    "stateCode": "14",
    "latitude": "45.52361000",
    "longitude": "18.10944000"
  },
  {
    "name": "Vidovci",
    "countryCode": "HR",
    "stateCode": "11",
    "latitude": "45.33250000",
    "longitude": "17.71472000"
  },
  {
    "name": "Vidovec",
    "countryCode": "HR",
    "stateCode": "05",
    "latitude": "46.28333000",
    "longitude": "16.24111000"
  },
  {
    "name": "Viljevo",
    "countryCode": "HR",
    "stateCode": "14",
    "latitude": "45.75139000",
    "longitude": "18.06306000"
  },
  {
    "name": "Vinež",
    "countryCode": "HR",
    "stateCode": "18",
    "latitude": "45.09806000",
    "longitude": "14.10694000"
  },
  {
    "name": "Vinica",
    "countryCode": "HR",
    "stateCode": "05",
    "latitude": "46.33611000",
    "longitude": "16.14944000"
  },
  {
    "name": "Vinkovci",
    "countryCode": "HR",
    "stateCode": "16",
    "latitude": "45.28833000",
    "longitude": "18.80472000"
  },
  {
    "name": "Vinodolska općina",
    "countryCode": "HR",
    "stateCode": "08",
    "latitude": "45.22219000",
    "longitude": "14.68941000"
  },
  {
    "name": "Vir",
    "countryCode": "HR",
    "stateCode": "13",
    "latitude": "44.29995000",
    "longitude": "15.08663000"
  },
  {
    "name": "Virje",
    "countryCode": "HR",
    "stateCode": "06",
    "latitude": "46.06722000",
    "longitude": "16.99000000"
  },
  {
    "name": "Virovitica",
    "countryCode": "HR",
    "stateCode": "10",
    "latitude": "45.83194000",
    "longitude": "17.38389000"
  },
  {
    "name": "Vis",
    "countryCode": "HR",
    "stateCode": "17",
    "latitude": "43.06194000",
    "longitude": "16.18306000"
  },
  {
    "name": "Viškovci",
    "countryCode": "HR",
    "stateCode": "14",
    "latitude": "45.34500000",
    "longitude": "18.46222000"
  },
  {
    "name": "Viškovo",
    "countryCode": "HR",
    "stateCode": "08",
    "latitude": "45.37572000",
    "longitude": "14.38400000"
  },
  {
    "name": "Višnjan-Visignano",
    "countryCode": "HR",
    "stateCode": "18",
    "latitude": "45.27614000",
    "longitude": "13.72128000"
  },
  {
    "name": "Višnjevac",
    "countryCode": "HR",
    "stateCode": "14",
    "latitude": "45.56861000",
    "longitude": "18.61389000"
  },
  {
    "name": "Vižinada-Visinada",
    "countryCode": "HR",
    "stateCode": "18",
    "latitude": "45.33126000",
    "longitude": "13.75943000"
  },
  {
    "name": "Vladislavci",
    "countryCode": "HR",
    "stateCode": "14",
    "latitude": "45.45944000",
    "longitude": "18.57417000"
  },
  {
    "name": "Vodice",
    "countryCode": "HR",
    "stateCode": "15",
    "latitude": "43.76083000",
    "longitude": "15.78278000"
  },
  {
    "name": "Vodnjan",
    "countryCode": "HR",
    "stateCode": "18",
    "latitude": "44.95944000",
    "longitude": "13.85167000"
  },
  {
    "name": "Vodnjan-Dignano",
    "countryCode": "HR",
    "stateCode": "18",
    "latitude": "44.96187000",
    "longitude": "13.85041000"
  },
  {
    "name": "Voloder",
    "countryCode": "HR",
    "stateCode": "03",
    "latitude": "45.54806000",
    "longitude": "16.67889000"
  },
  {
    "name": "Voćin",
    "countryCode": "HR",
    "stateCode": "10",
    "latitude": "45.61778000",
    "longitude": "17.54778000"
  },
  {
    "name": "Vođinci",
    "countryCode": "HR",
    "stateCode": "16",
    "latitude": "45.27556000",
    "longitude": "18.60972000"
  },
  {
    "name": "Vranjic",
    "countryCode": "HR",
    "stateCode": "17",
    "latitude": "43.53333000",
    "longitude": "16.46667000"
  },
  {
    "name": "Vratišinec",
    "countryCode": "HR",
    "stateCode": "20",
    "latitude": "46.47806000",
    "longitude": "16.45778000"
  },
  {
    "name": "Vrbanja",
    "countryCode": "HR",
    "stateCode": "16",
    "latitude": "44.98079000",
    "longitude": "18.92717000"
  },
  {
    "name": "Vrbnik",
    "countryCode": "HR",
    "stateCode": "08",
    "latitude": "45.07583000",
    "longitude": "14.67250000"
  },
  {
    "name": "Vrbovec",
    "countryCode": "HR",
    "stateCode": "01",
    "latitude": "45.88333000",
    "longitude": "16.42167000"
  },
  {
    "name": "Vrbovsko",
    "countryCode": "HR",
    "stateCode": "08",
    "latitude": "45.36861000",
    "longitude": "15.07833000"
  },
  {
    "name": "Vrgorac",
    "countryCode": "HR",
    "stateCode": "17",
    "latitude": "43.20583000",
    "longitude": "17.37111000"
  },
  {
    "name": "Vrlika",
    "countryCode": "HR",
    "stateCode": "17",
    "latitude": "43.91098000",
    "longitude": "16.39933000"
  },
  {
    "name": "Vrpolje",
    "countryCode": "HR",
    "stateCode": "12",
    "latitude": "45.21056000",
    "longitude": "18.40556000"
  },
  {
    "name": "Vrsar",
    "countryCode": "HR",
    "stateCode": "18",
    "latitude": "45.14917000",
    "longitude": "13.60528000"
  },
  {
    "name": "Vrsar-Orsera",
    "countryCode": "HR",
    "stateCode": "18",
    "latitude": "45.15074000",
    "longitude": "13.60558000"
  },
  {
    "name": "Vrsi",
    "countryCode": "HR",
    "stateCode": "13",
    "latitude": "44.26472000",
    "longitude": "15.23250000"
  },
  {
    "name": "Vuka",
    "countryCode": "HR",
    "stateCode": "14",
    "latitude": "45.43389000",
    "longitude": "18.50500000"
  },
  {
    "name": "Vukovar",
    "countryCode": "HR",
    "stateCode": "16",
    "latitude": "45.35161000",
    "longitude": "19.00225000"
  },
  {
    "name": "Zabok",
    "countryCode": "HR",
    "stateCode": "02",
    "latitude": "46.02944000",
    "longitude": "15.91500000"
  },
  {
    "name": "Zadar",
    "countryCode": "HR",
    "stateCode": "13",
    "latitude": "44.11972000",
    "longitude": "15.24222000"
  },
  {
    "name": "Zadvorsko",
    "countryCode": "HR",
    "stateCode": "21",
    "latitude": "45.71978000",
    "longitude": "15.90880000"
  },
  {
    "name": "Zagreb",
    "countryCode": "HR",
    "stateCode": "21",
    "latitude": "45.81444000",
    "longitude": "15.97798000"
  },
  {
    "name": "Zagvozd",
    "countryCode": "HR",
    "stateCode": "17",
    "latitude": "43.39750000",
    "longitude": "17.05694000"
  },
  {
    "name": "Zaprešić",
    "countryCode": "HR",
    "stateCode": "01",
    "latitude": "45.85639000",
    "longitude": "15.80778000"
  },
  {
    "name": "Zažablje",
    "countryCode": "HR",
    "stateCode": "19",
    "latitude": "43.01113000",
    "longitude": "17.65683000"
  },
  {
    "name": "Zdenci",
    "countryCode": "HR",
    "stateCode": "10",
    "latitude": "45.58917000",
    "longitude": "17.95028000"
  },
  {
    "name": "Zdenci Brdovečki",
    "countryCode": "HR",
    "stateCode": "01",
    "latitude": "45.86667000",
    "longitude": "15.75000000"
  },
  {
    "name": "Zlatar",
    "countryCode": "HR",
    "stateCode": "02",
    "latitude": "46.09417000",
    "longitude": "16.07083000"
  },
  {
    "name": "Zlatar Bistrica",
    "countryCode": "HR",
    "stateCode": "02",
    "latitude": "46.04788000",
    "longitude": "16.08527000"
  },
  {
    "name": "Zmijavci",
    "countryCode": "HR",
    "stateCode": "17",
    "latitude": "43.41083000",
    "longitude": "17.20556000"
  },
  {
    "name": "Zrinski Topolovac",
    "countryCode": "HR",
    "stateCode": "07",
    "latitude": "46.02120000",
    "longitude": "16.75509000"
  },
  {
    "name": "Čakovec",
    "countryCode": "HR",
    "stateCode": "20",
    "latitude": "46.38444000",
    "longitude": "16.43389000"
  },
  {
    "name": "Čavle",
    "countryCode": "HR",
    "stateCode": "08",
    "latitude": "45.35194000",
    "longitude": "14.48389000"
  },
  {
    "name": "Čazma",
    "countryCode": "HR",
    "stateCode": "07",
    "latitude": "45.74818000",
    "longitude": "16.61390000"
  },
  {
    "name": "Čačinci",
    "countryCode": "HR",
    "stateCode": "10",
    "latitude": "45.60389000",
    "longitude": "17.87028000"
  },
  {
    "name": "Čađavica",
    "countryCode": "HR",
    "stateCode": "10",
    "latitude": "45.74417000",
    "longitude": "17.85472000"
  },
  {
    "name": "Čeminac",
    "countryCode": "HR",
    "stateCode": "14",
    "latitude": "45.68639000",
    "longitude": "18.66750000"
  },
  {
    "name": "Čepin",
    "countryCode": "HR",
    "stateCode": "14",
    "latitude": "45.52361000",
    "longitude": "18.56333000"
  },
  {
    "name": "Čibača",
    "countryCode": "HR",
    "stateCode": "19",
    "latitude": "42.62889000",
    "longitude": "18.17111000"
  },
  {
    "name": "Đakovo",
    "countryCode": "HR",
    "stateCode": "14",
    "latitude": "45.30833000",
    "longitude": "18.41056000"
  },
  {
    "name": "Đelekovec",
    "countryCode": "HR",
    "stateCode": "06",
    "latitude": "46.24989000",
    "longitude": "16.87011000"
  },
  {
    "name": "Đulovac",
    "countryCode": "HR",
    "stateCode": "07",
    "latitude": "45.66588000",
    "longitude": "17.42981000"
  },
  {
    "name": "Đurmanec",
    "countryCode": "HR",
    "stateCode": "02",
    "latitude": "46.19708000",
    "longitude": "15.83786000"
  },
  {
    "name": "Đurđenovac",
    "countryCode": "HR",
    "stateCode": "14",
    "latitude": "45.54333000",
    "longitude": "18.04583000"
  },
  {
    "name": "Đurđevac",
    "countryCode": "HR",
    "stateCode": "06",
    "latitude": "46.03972000",
    "longitude": "17.07168000"
  },
  {
    "name": "Šandrovac",
    "countryCode": "HR",
    "stateCode": "07",
    "latitude": "45.90556000",
    "longitude": "17.02111000"
  },
  {
    "name": "Šenkovec",
    "countryCode": "HR",
    "stateCode": "20",
    "latitude": "46.40889000",
    "longitude": "16.42167000"
  },
  {
    "name": "Šibenik",
    "countryCode": "HR",
    "stateCode": "15",
    "latitude": "43.72722000",
    "longitude": "15.90583000"
  },
  {
    "name": "Široko Polje",
    "countryCode": "HR",
    "stateCode": "14",
    "latitude": "45.40528000",
    "longitude": "18.47250000"
  },
  {
    "name": "Škabrnja",
    "countryCode": "HR",
    "stateCode": "13",
    "latitude": "44.08949000",
    "longitude": "15.45146000"
  },
  {
    "name": "Škrljevo",
    "countryCode": "HR",
    "stateCode": "08",
    "latitude": "45.32053000",
    "longitude": "14.53268000"
  },
  {
    "name": "Šodolovci",
    "countryCode": "HR",
    "stateCode": "14",
    "latitude": "45.40000000",
    "longitude": "18.62028000"
  },
  {
    "name": "Šolta",
    "countryCode": "HR",
    "stateCode": "17",
    "latitude": "43.38714000",
    "longitude": "16.28865000"
  },
  {
    "name": "Špišić Bukovica",
    "countryCode": "HR",
    "stateCode": "10",
    "latitude": "45.85740000",
    "longitude": "17.30089000"
  },
  {
    "name": "Štitar",
    "countryCode": "HR",
    "stateCode": "16",
    "latitude": "45.09556000",
    "longitude": "18.64028000"
  },
  {
    "name": "Ždralovi",
    "countryCode": "HR",
    "stateCode": "07",
    "latitude": "45.87639000",
    "longitude": "16.87500000"
  },
  {
    "name": "Žminj",
    "countryCode": "HR",
    "stateCode": "18",
    "latitude": "45.14278000",
    "longitude": "13.90889000"
  },
  {
    "name": "Žrnovnica",
    "countryCode": "HR",
    "stateCode": "17",
    "latitude": "43.52111000",
    "longitude": "16.55917000"
  },
  {
    "name": "Žrnovo",
    "countryCode": "HR",
    "stateCode": "19",
    "latitude": "42.95111000",
    "longitude": "17.11417000"
  },
  {
    "name": "Župa dubrovačka",
    "countryCode": "HR",
    "stateCode": "19",
    "latitude": "42.62683000",
    "longitude": "18.19475000"
  },
  {
    "name": "Županja",
    "countryCode": "HR",
    "stateCode": "16",
    "latitude": "45.07750000",
    "longitude": "18.69750000"
  }
]