[
  {
    "name": "Abu Ghraib District",
    "countryCode": "IQ",
    "stateCode": "BG",
    "latitude": "33.29194000",
    "longitude": "44.06919000"
  },
  {
    "name": "Abū Ghurayb",
    "countryCode": "IQ",
    "stateCode": "BG",
    "latitude": "33.30563000",
    "longitude": "44.18477000"
  },
  {
    "name": "Ad Dujayl",
    "countryCode": "IQ",
    "stateCode": "SD",
    "latitude": "33.84667000",
    "longitude": "44.23444000"
  },
  {
    "name": "Ad Dīwānīyah",
    "countryCode": "IQ",
    "stateCode": "QA",
    "latitude": "31.99289000",
    "longitude": "44.92552000"
  },
  {
    "name": "Al Başrah al Qadīmah",
    "countryCode": "IQ",
    "stateCode": "BA",
    "latitude": "30.50316000",
    "longitude": "47.81507000"
  },
  {
    "name": "Al Fallūjah",
    "countryCode": "IQ",
    "stateCode": "AN",
    "latitude": "33.34913000",
    "longitude": "43.78599000"
  },
  {
    "name": "Al Fāw",
    "countryCode": "IQ",
    "stateCode": "BA",
    "latitude": "29.97421000",
    "longitude": "48.47309000"
  },
  {
    "name": "Al Hindīyah",
    "countryCode": "IQ",
    "stateCode": "KA",
    "latitude": "32.54671000",
    "longitude": "44.22765000"
  },
  {
    "name": "Al Hārithah",
    "countryCode": "IQ",
    "stateCode": "BA",
    "latitude": "30.58481000",
    "longitude": "47.76114000"
  },
  {
    "name": "Al Kūt",
    "countryCode": "IQ",
    "stateCode": "WA",
    "latitude": "32.51280000",
    "longitude": "45.81817000"
  },
  {
    "name": "Al Mawşil al Jadīdah",
    "countryCode": "IQ",
    "stateCode": "NI",
    "latitude": "36.33271000",
    "longitude": "43.10555000"
  },
  {
    "name": "Al Miqdādīyah",
    "countryCode": "IQ",
    "stateCode": "DI",
    "latitude": "33.97861000",
    "longitude": "44.93694000"
  },
  {
    "name": "Al Mishkhāb",
    "countryCode": "IQ",
    "stateCode": "NA",
    "latitude": "31.80437000",
    "longitude": "44.48930000"
  },
  {
    "name": "Al Musayyib",
    "countryCode": "IQ",
    "stateCode": "BB",
    "latitude": "32.77872000",
    "longitude": "44.29005000"
  },
  {
    "name": "Al Ḩayy",
    "countryCode": "IQ",
    "stateCode": "WA",
    "latitude": "32.17419000",
    "longitude": "46.04345000"
  },
  {
    "name": "Al Ḩillah",
    "countryCode": "IQ",
    "stateCode": "BB",
    "latitude": "32.46367000",
    "longitude": "44.41963000"
  },
  {
    "name": "Al ‘Amādīyah",
    "countryCode": "IQ",
    "stateCode": "DA",
    "latitude": "37.09214000",
    "longitude": "43.48769000"
  },
  {
    "name": "Al ‘Amārah",
    "countryCode": "IQ",
    "stateCode": "MA",
    "latitude": "31.83561000",
    "longitude": "47.14483000"
  },
  {
    "name": "Al ‘Azīzīyah",
    "countryCode": "IQ",
    "stateCode": "WA",
    "latitude": "32.90941000",
    "longitude": "45.06359000"
  },
  {
    "name": "Al-Hamdaniya",
    "countryCode": "IQ",
    "stateCode": "NI",
    "latitude": "36.27093000",
    "longitude": "43.37758000"
  },
  {
    "name": "Al-Mejar Al-Kabi District",
    "countryCode": "IQ",
    "stateCode": "MA",
    "latitude": "31.42940000",
    "longitude": "47.20355000"
  },
  {
    "name": "Ar Rumaythah",
    "countryCode": "IQ",
    "stateCode": "MU",
    "latitude": "31.52845000",
    "longitude": "45.20377000"
  },
  {
    "name": "Ar Ruţbah",
    "countryCode": "IQ",
    "stateCode": "AN",
    "latitude": "33.03718000",
    "longitude": "40.28586000"
  },
  {
    "name": "Arbil",
    "countryCode": "IQ",
    "stateCode": "AR",
    "latitude": "36.19070000",
    "longitude": "44.00947000"
  },
  {
    "name": "As Samawah",
    "countryCode": "IQ",
    "stateCode": "MU",
    "latitude": "31.33198000",
    "longitude": "45.29440000"
  },
  {
    "name": "As Sulaymānīyah",
    "countryCode": "IQ",
    "stateCode": "SU",
    "latitude": "35.56496000",
    "longitude": "45.43290000"
  },
  {
    "name": "Ash Shaykhān",
    "countryCode": "IQ",
    "stateCode": "NI",
    "latitude": "36.69595000",
    "longitude": "43.35202000"
  },
  {
    "name": "Ash Shaţrah",
    "countryCode": "IQ",
    "stateCode": "DQ",
    "latitude": "31.40906000",
    "longitude": "46.17270000"
  },
  {
    "name": "Ash Shāmīyah",
    "countryCode": "IQ",
    "stateCode": "QA",
    "latitude": "31.96257000",
    "longitude": "44.60075000"
  },
  {
    "name": "Az Zubayr",
    "countryCode": "IQ",
    "stateCode": "BA",
    "latitude": "30.39213000",
    "longitude": "47.70175000"
  },
  {
    "name": "Aş Şuwayrah",
    "countryCode": "IQ",
    "stateCode": "WA",
    "latitude": "32.92556000",
    "longitude": "44.77583000"
  },
  {
    "name": "Baghdad",
    "countryCode": "IQ",
    "stateCode": "BG",
    "latitude": "33.34058000",
    "longitude": "44.40088000"
  },
  {
    "name": "Balad",
    "countryCode": "IQ",
    "stateCode": "SD",
    "latitude": "34.01485000",
    "longitude": "44.14574000"
  },
  {
    "name": "Baladrūz",
    "countryCode": "IQ",
    "stateCode": "DI",
    "latitude": "33.69631000",
    "longitude": "45.07782000"
  },
  {
    "name": "Baqubah",
    "countryCode": "IQ",
    "stateCode": "DI",
    "latitude": "33.75403000",
    "longitude": "44.60518000"
  },
  {
    "name": "Basrah",
    "countryCode": "IQ",
    "stateCode": "BA",
    "latitude": "30.50852000",
    "longitude": "47.78040000"
  },
  {
    "name": "Batifa",
    "countryCode": "IQ",
    "stateCode": "DA",
    "latitude": "37.17454000",
    "longitude": "43.01233000"
  },
  {
    "name": "Bayjī",
    "countryCode": "IQ",
    "stateCode": "SD",
    "latitude": "34.92915000",
    "longitude": "43.48878000"
  },
  {
    "name": "Baynjiwayn",
    "countryCode": "IQ",
    "stateCode": "SU",
    "latitude": "35.62054000",
    "longitude": "45.94908000"
  },
  {
    "name": "Dihok",
    "countryCode": "IQ",
    "stateCode": "DA",
    "latitude": "36.86709000",
    "longitude": "42.98845000"
  },
  {
    "name": "Erbil",
    "countryCode": "IQ",
    "stateCode": "AR",
    "latitude": "36.18333000",
    "longitude": "44.01193000"
  },
  {
    "name": "Hīt",
    "countryCode": "IQ",
    "stateCode": "AN",
    "latitude": "33.63664000",
    "longitude": "42.82768000"
  },
  {
    "name": "Hīt District",
    "countryCode": "IQ",
    "stateCode": "AN",
    "latitude": "33.73482000",
    "longitude": "42.68228000"
  },
  {
    "name": "Imam Qasim",
    "countryCode": "IQ",
    "stateCode": "BB",
    "latitude": "32.29799000",
    "longitude": "44.68282000"
  },
  {
    "name": "Jamjamāl",
    "countryCode": "IQ",
    "stateCode": "SU",
    "latitude": "35.53356000",
    "longitude": "44.83430000"
  },
  {
    "name": "Karbala",
    "countryCode": "IQ",
    "stateCode": "KA",
    "latitude": "32.61603000",
    "longitude": "44.02488000"
  },
  {
    "name": "Khāliş",
    "countryCode": "IQ",
    "stateCode": "DI",
    "latitude": "33.80809000",
    "longitude": "44.53343000"
  },
  {
    "name": "Kifrī",
    "countryCode": "IQ",
    "stateCode": "DI",
    "latitude": "34.68963000",
    "longitude": "44.96057000"
  },
  {
    "name": "Kirkuk",
    "countryCode": "IQ",
    "stateCode": "KI",
    "latitude": "35.46806000",
    "longitude": "44.39222000"
  },
  {
    "name": "Koysinceq",
    "countryCode": "IQ",
    "stateCode": "AR",
    "latitude": "36.08289000",
    "longitude": "44.62873000"
  },
  {
    "name": "Kufa",
    "countryCode": "IQ",
    "stateCode": "NA",
    "latitude": "32.05114000",
    "longitude": "44.44017000"
  },
  {
    "name": "Mandalī",
    "countryCode": "IQ",
    "stateCode": "DI",
    "latitude": "33.74810000",
    "longitude": "45.55503000"
  },
  {
    "name": "Mosul",
    "countryCode": "IQ",
    "stateCode": "NI",
    "latitude": "36.33500000",
    "longitude": "43.11889000"
  },
  {
    "name": "Nahiyat Ghammas",
    "countryCode": "IQ",
    "stateCode": "QA",
    "latitude": "31.74311000",
    "longitude": "44.61960000"
  },
  {
    "name": "Najaf",
    "countryCode": "IQ",
    "stateCode": "NA",
    "latitude": "32.02594000",
    "longitude": "44.34625000"
  },
  {
    "name": "Nasiriyah",
    "countryCode": "IQ",
    "stateCode": "DQ",
    "latitude": "31.05799000",
    "longitude": "46.25726000"
  },
  {
    "name": "Nāḩiyat al Fuhūd",
    "countryCode": "IQ",
    "stateCode": "DQ",
    "latitude": "30.96972000",
    "longitude": "46.72278000"
  },
  {
    "name": "Nāḩiyat ash Shināfīyah",
    "countryCode": "IQ",
    "stateCode": "QA",
    "latitude": "31.58376000",
    "longitude": "44.64675000"
  },
  {
    "name": "Nāḩīyat Saddat al Hindīyah",
    "countryCode": "IQ",
    "stateCode": "BB",
    "latitude": "32.71557000",
    "longitude": "44.27857000"
  },
  {
    "name": "Qaḑā’ Kifrī",
    "countryCode": "IQ",
    "stateCode": "DI",
    "latitude": "34.52289000",
    "longitude": "44.85821000"
  },
  {
    "name": "Ramadi",
    "countryCode": "IQ",
    "stateCode": "AN",
    "latitude": "33.42056000",
    "longitude": "43.30778000"
  },
  {
    "name": "Ruwāndiz",
    "countryCode": "IQ",
    "stateCode": "AR",
    "latitude": "36.61207000",
    "longitude": "44.52372000"
  },
  {
    "name": "Rāwah",
    "countryCode": "IQ",
    "stateCode": "AN",
    "latitude": "34.48229000",
    "longitude": "41.91898000"
  },
  {
    "name": "Shaqlāwah",
    "countryCode": "IQ",
    "stateCode": "AR",
    "latitude": "36.40422000",
    "longitude": "44.32563000"
  },
  {
    "name": "Sinjar",
    "countryCode": "IQ",
    "stateCode": "NI",
    "latitude": "36.29548000",
    "longitude": "41.89315000"
  },
  {
    "name": "Soran",
    "countryCode": "IQ",
    "stateCode": "AR",
    "latitude": "36.65320000",
    "longitude": "44.54407000"
  },
  {
    "name": "Sāmarrā’",
    "countryCode": "IQ",
    "stateCode": "SD",
    "latitude": "34.19590000",
    "longitude": "43.88568000"
  },
  {
    "name": "Sīnah",
    "countryCode": "IQ",
    "stateCode": "DA",
    "latitude": "36.80851000",
    "longitude": "43.03935000"
  },
  {
    "name": "Tall ‘Afar",
    "countryCode": "IQ",
    "stateCode": "NI",
    "latitude": "36.37913000",
    "longitude": "42.44806000"
  },
  {
    "name": "Tallkayf",
    "countryCode": "IQ",
    "stateCode": "NI",
    "latitude": "36.49118000",
    "longitude": "43.12114000"
  },
  {
    "name": "Tikrīt",
    "countryCode": "IQ",
    "stateCode": "SD",
    "latitude": "34.61581000",
    "longitude": "43.67861000"
  },
  {
    "name": "Tozkhurmato",
    "countryCode": "IQ",
    "stateCode": "SD",
    "latitude": "34.88808000",
    "longitude": "44.63256000"
  },
  {
    "name": "Umm Qaşr",
    "countryCode": "IQ",
    "stateCode": "BA",
    "latitude": "30.03620000",
    "longitude": "47.91951000"
  },
  {
    "name": "Zaxo",
    "countryCode": "IQ",
    "stateCode": "DA",
    "latitude": "37.14871000",
    "longitude": "42.68591000"
  },
  {
    "name": "Ḩadīthah",
    "countryCode": "IQ",
    "stateCode": "AN",
    "latitude": "34.13661000",
    "longitude": "42.37727000"
  },
  {
    "name": "Ḩalabjah",
    "countryCode": "IQ",
    "stateCode": "SU",
    "latitude": "35.17778000",
    "longitude": "45.98611000"
  },
  {
    "name": "‘Afak",
    "countryCode": "IQ",
    "stateCode": "QA",
    "latitude": "32.06430000",
    "longitude": "45.24743000"
  },
  {
    "name": "‘Alī al Gharbī",
    "countryCode": "IQ",
    "stateCode": "MA",
    "latitude": "32.46186000",
    "longitude": "46.68794000"
  },
  {
    "name": "‘Anah",
    "countryCode": "IQ",
    "stateCode": "AN",
    "latitude": "34.36857000",
    "longitude": "41.98194000"
  },
  {
    "name": "‘Anat al Qadīmah",
    "countryCode": "IQ",
    "stateCode": "AN",
    "latitude": "34.46934000",
    "longitude": "41.94223000"
  },
  {
    "name": "‘Aqrah",
    "countryCode": "IQ",
    "stateCode": "NI",
    "latitude": "36.76038000",
    "longitude": "43.89428000"
  }
]