[
  {
    "name": "Ab Meshkin",
    "countryCode": "IR",
    "stateCode": "13",
    "latitude": "35.61305556",
    "longitude": "48.26916667"
  },
  {
    "name": "Abadan",
    "countryCode": "IR",
    "stateCode": "06",
    "latitude": "30.33920000",
    "longitude": "48.30430000"
  },
  {
    "name": "Abarlaq-e Sofla",
    "countryCode": "IR",
    "stateCode": "13",
    "latitude": "34.67138889",
    "longitude": "48.22833333"
  },
  {
    "name": "Abdalan",
    "countryCode": "IR",
    "stateCode": "13",
    "latitude": "34.65277778",
    "longitude": "48.24555556"
  },
  {
    "name": "Abdol Rahim",
    "countryCode": "IR",
    "stateCode": "13",
    "latitude": "34.62638889",
    "longitude": "49.01750000"
  },
  {
    "name": "Abhar",
    "countryCode": "IR",
    "stateCode": "19",
    "latitude": "36.14680000",
    "longitude": "49.21800000"
  },
  {
    "name": "Abrumand",
    "countryCode": "IR",
    "stateCode": "13",
    "latitude": "34.90277778",
    "longitude": "48.32027778"
  },
  {
    "name": "Abrīsham",
    "countryCode": "IR",
    "stateCode": "10",
    "latitude": "32.55613000",
    "longitude": "51.57325000"
  },
  {
    "name": "Abshineh",
    "countryCode": "IR",
    "stateCode": "13",
    "latitude": "34.78194400",
    "longitude": "48.61472200"
  },
  {
    "name": "Abu ol Fathabad",
    "countryCode": "IR",
    "stateCode": "13",
    "latitude": "34.05666667",
    "longitude": "48.50916667"
  },
  {
    "name": "Aghajari",
    "countryCode": "IR",
    "stateCode": "06",
    "latitude": "30.70060000",
    "longitude": "49.83150000"
  },
  {
    "name": "Aghcheh Qayah",
    "countryCode": "IR",
    "stateCode": "13",
    "latitude": "35.35000000",
    "longitude": "48.34250000"
  },
  {
    "name": "Ahar",
    "countryCode": "IR",
    "stateCode": "03",
    "latitude": "38.47740000",
    "longitude": "47.06990000"
  },
  {
    "name": "Ahmadabad-e Tappeh",
    "countryCode": "IR",
    "stateCode": "13",
    "latitude": "34.61277778",
    "longitude": "48.99277778"
  },
  {
    "name": "Ahram",
    "countryCode": "IR",
    "stateCode": "18",
    "latitude": "28.88260000",
    "longitude": "51.27460000"
  },
  {
    "name": "Ahu Tappeh",
    "countryCode": "IR",
    "stateCode": "13",
    "latitude": "34.93777778",
    "longitude": "48.00111111"
  },
  {
    "name": "Ahvaz",
    "countryCode": "IR",
    "stateCode": "06",
    "latitude": "31.31901000",
    "longitude": "48.68420000"
  },
  {
    "name": "Ajin",
    "countryCode": "IR",
    "stateCode": "13",
    "latitude": "34.73611111",
    "longitude": "47.92416667"
  },
  {
    "name": "Ajorlu",
    "countryCode": "IR",
    "stateCode": "13",
    "latitude": "35.13833333",
    "longitude": "49.22944444"
  },
  {
    "name": "Akanlu",
    "countryCode": "IR",
    "stateCode": "13",
    "latitude": "35.61416667",
    "longitude": "48.18805556"
  },
  {
    "name": "Akbarābād",
    "countryCode": "IR",
    "stateCode": "07",
    "latitude": "29.24640000",
    "longitude": "52.77930000"
  },
  {
    "name": "Akleh",
    "countryCode": "IR",
    "stateCode": "13",
    "latitude": "35.20277778",
    "longitude": "49.08250000"
  },
  {
    "name": "Alan-e Sofla",
    "countryCode": "IR",
    "stateCode": "13",
    "latitude": "35.28416667",
    "longitude": "48.21583333"
  },
  {
    "name": "Alanjeh",
    "countryCode": "IR",
    "stateCode": "13",
    "latitude": "34.75083333",
    "longitude": "47.95972222"
  },
  {
    "name": "Alborz",
    "countryCode": "IR",
    "stateCode": "26",
    "latitude": "36.18861000",
    "longitude": "50.07829000"
  },
  {
    "name": "Aleshtar",
    "countryCode": "IR",
    "stateCode": "15",
    "latitude": "33.86419000",
    "longitude": "48.26258000"
  },
  {
    "name": "Alfavut",
    "countryCode": "IR",
    "stateCode": "13",
    "latitude": "34.64000000",
    "longitude": "48.74972222"
  },
  {
    "name": "Aliabad-e Posht Shahr",
    "countryCode": "IR",
    "stateCode": "13",
    "latitude": "34.83777778",
    "longitude": "48.51111111"
  },
  {
    "name": "Alvand",
    "countryCode": "IR",
    "stateCode": "19",
    "latitude": "36.31885000",
    "longitude": "49.16773000"
  },
  {
    "name": "Alvand",
    "countryCode": "IR",
    "stateCode": "26",
    "latitude": "36.18930000",
    "longitude": "50.06430000"
  },
  {
    "name": "Alīgūdarz",
    "countryCode": "IR",
    "stateCode": "15",
    "latitude": "33.40400000",
    "longitude": "49.69179000"
  },
  {
    "name": "Amirabad-e Kord",
    "countryCode": "IR",
    "stateCode": "13",
    "latitude": "34.97611111",
    "longitude": "49.09166667"
  },
  {
    "name": "Amzajerd",
    "countryCode": "IR",
    "stateCode": "13",
    "latitude": "34.93666667",
    "longitude": "48.53250000"
  },
  {
    "name": "Angoshteh",
    "countryCode": "IR",
    "stateCode": "13",
    "latitude": "34.09138900",
    "longitude": "48.54000000"
  },
  {
    "name": "Anjir Baghi",
    "countryCode": "IR",
    "stateCode": "13",
    "latitude": "35.19250000",
    "longitude": "48.53166667"
  },
  {
    "name": "Ansar ol Emam",
    "countryCode": "IR",
    "stateCode": "13",
    "latitude": "34.85861111",
    "longitude": "48.49083333"
  },
  {
    "name": "Anuch",
    "countryCode": "IR",
    "stateCode": "13",
    "latitude": "34.10805600",
    "longitude": "48.57333300"
  },
  {
    "name": "Aq Bolagh-e Aqdaq",
    "countryCode": "IR",
    "stateCode": "13",
    "latitude": "35.61166667",
    "longitude": "48.44138889"
  },
  {
    "name": "Aq Bolagh-e Latgah",
    "countryCode": "IR",
    "stateCode": "13",
    "latitude": "34.98444400",
    "longitude": "48.55527800"
  },
  {
    "name": "Aq Bolagh-e Morshed",
    "countryCode": "IR",
    "stateCode": "13",
    "latitude": "35.61777778",
    "longitude": "48.02972222"
  },
  {
    "name": "Aq Chay",
    "countryCode": "IR",
    "stateCode": "13",
    "latitude": "35.47916667",
    "longitude": "49.10388889"
  },
  {
    "name": "Aqa Bolaghi",
    "countryCode": "IR",
    "stateCode": "13",
    "latitude": "35.36694444",
    "longitude": "48.24361111"
  },
  {
    "name": "Aqa Jan Bolaghi",
    "countryCode": "IR",
    "stateCode": "13",
    "latitude": "34.84583333",
    "longitude": "48.05305556"
  },
  {
    "name": "Aqaj",
    "countryCode": "IR",
    "stateCode": "13",
    "latitude": "34.95583333",
    "longitude": "49.32416667"
  },
  {
    "name": "Aqcheh Kharabeh",
    "countryCode": "IR",
    "stateCode": "13",
    "latitude": "35.71361111",
    "longitude": "48.77638889"
  },
  {
    "name": "Aqchelu",
    "countryCode": "IR",
    "stateCode": "13",
    "latitude": "35.13138889",
    "longitude": "48.49166667"
  },
  {
    "name": "Ardabīl",
    "countryCode": "IR",
    "stateCode": "24",
    "latitude": "38.24980000",
    "longitude": "48.29330000"
  },
  {
    "name": "Ardakān",
    "countryCode": "IR",
    "stateCode": "21",
    "latitude": "32.31001000",
    "longitude": "54.01747000"
  },
  {
    "name": "Ardestān",
    "countryCode": "IR",
    "stateCode": "10",
    "latitude": "33.37610000",
    "longitude": "52.36940000"
  },
  {
    "name": "Arges-e Sofla",
    "countryCode": "IR",
    "stateCode": "13",
    "latitude": "34.07388889",
    "longitude": "48.86388889"
  },
  {
    "name": "Arikan",
    "countryCode": "IR",
    "stateCode": "13",
    "latitude": "34.53222222",
    "longitude": "48.36055556"
  },
  {
    "name": "Arpa Darreh",
    "countryCode": "IR",
    "stateCode": "13",
    "latitude": "35.69138889",
    "longitude": "48.80500000"
  },
  {
    "name": "Arteh Bolagh",
    "countryCode": "IR",
    "stateCode": "13",
    "latitude": "34.32638889",
    "longitude": "48.54916667"
  },
  {
    "name": "Artiman",
    "countryCode": "IR",
    "stateCode": "13",
    "latitude": "34.57944400",
    "longitude": "48.44777800"
  },
  {
    "name": "Arzan Fud",
    "countryCode": "IR",
    "stateCode": "13",
    "latitude": "34.65527778",
    "longitude": "48.65416667"
  },
  {
    "name": "Arzuvaj",
    "countryCode": "IR",
    "stateCode": "13",
    "latitude": "34.65444444",
    "longitude": "48.37305556"
  },
  {
    "name": "Arāk",
    "countryCode": "IR",
    "stateCode": "00",
    "latitude": "34.09493000",
    "longitude": "49.69809000"
  },
  {
    "name": "Asadabad",
    "countryCode": "IR",
    "stateCode": "13",
    "latitude": "34.78222222",
    "longitude": "48.11833333"
  },
  {
    "name": "Ashmizan",
    "countryCode": "IR",
    "stateCode": "13",
    "latitude": "34.10361111",
    "longitude": "48.88444444"
  },
  {
    "name": "Avaj",
    "countryCode": "IR",
    "stateCode": "26",
    "latitude": "35.57685000",
    "longitude": "49.22241000"
  },
  {
    "name": "Avarzaman",
    "countryCode": "IR",
    "stateCode": "13",
    "latitude": "34.26638889",
    "longitude": "48.51222222"
  },
  {
    "name": "Azandarian",
    "countryCode": "IR",
    "stateCode": "13",
    "latitude": "34.50888889",
    "longitude": "48.68666667"
  },
  {
    "name": "Aznahri",
    "countryCode": "IR",
    "stateCode": "13",
    "latitude": "34.23750000",
    "longitude": "48.14833333"
  },
  {
    "name": "Aznā",
    "countryCode": "IR",
    "stateCode": "15",
    "latitude": "33.45643000",
    "longitude": "49.45646000"
  },
  {
    "name": "Baba Khanjar",
    "countryCode": "IR",
    "stateCode": "13",
    "latitude": "35.55166667",
    "longitude": "48.54972222"
  },
  {
    "name": "Baba Pir",
    "countryCode": "IR",
    "stateCode": "13",
    "latitude": "34.61416667",
    "longitude": "48.40194444"
  },
  {
    "name": "Baba Qasem",
    "countryCode": "IR",
    "stateCode": "13",
    "latitude": "34.08000000",
    "longitude": "48.44805556"
  },
  {
    "name": "Babolqani",
    "countryCode": "IR",
    "stateCode": "13",
    "latitude": "34.24277778",
    "longitude": "49.05750000"
  },
  {
    "name": "Bad Khvoreh",
    "countryCode": "IR",
    "stateCode": "13",
    "latitude": "34.74305556",
    "longitude": "48.08027778"
  },
  {
    "name": "Badreh",
    "countryCode": "IR",
    "stateCode": "16",
    "latitude": "33.00000000",
    "longitude": "47.25000000"
  },
  {
    "name": "Bahar",
    "countryCode": "IR",
    "stateCode": "13",
    "latitude": "34.90694444",
    "longitude": "48.44138889"
  },
  {
    "name": "Bam",
    "countryCode": "IR",
    "stateCode": "08",
    "latitude": "29.06667000",
    "longitude": "58.23333000"
  },
  {
    "name": "Band Aman",
    "countryCode": "IR",
    "stateCode": "13",
    "latitude": "34.22388889",
    "longitude": "48.22861111"
  },
  {
    "name": "Bandar Abbas",
    "countryCode": "IR",
    "stateCode": "22",
    "latitude": "27.18650000",
    "longitude": "56.28080000"
  },
  {
    "name": "Bandar Lengeh",
    "countryCode": "IR",
    "stateCode": "22",
    "latitude": "26.78333000",
    "longitude": "54.65000000"
  },
  {
    "name": "Bandar-e Anzalī",
    "countryCode": "IR",
    "stateCode": "01",
    "latitude": "37.47318000",
    "longitude": "49.45785000"
  },
  {
    "name": "Bandar-e Genāveh",
    "countryCode": "IR",
    "stateCode": "18",
    "latitude": "29.57910000",
    "longitude": "50.51700000"
  },
  {
    "name": "Bandar-e Lengeh",
    "countryCode": "IR",
    "stateCode": "22",
    "latitude": "26.55792000",
    "longitude": "54.88067000"
  },
  {
    "name": "Banesareh",
    "countryCode": "IR",
    "stateCode": "13",
    "latitude": "34.23750000",
    "longitude": "48.43333333"
  },
  {
    "name": "Baraband",
    "countryCode": "IR",
    "stateCode": "13",
    "latitude": "34.75194444",
    "longitude": "48.79861111"
  },
  {
    "name": "Bardaskan",
    "countryCode": "IR",
    "stateCode": "09",
    "latitude": "35.26667000",
    "longitude": "57.48333000"
  },
  {
    "name": "Bardsīr",
    "countryCode": "IR",
    "stateCode": "08",
    "latitude": "29.92266000",
    "longitude": "56.57433000"
  },
  {
    "name": "Bargecheh",
    "countryCode": "IR",
    "stateCode": "13",
    "latitude": "34.45138900",
    "longitude": "48.30111100"
  },
  {
    "name": "Barreh Farakh",
    "countryCode": "IR",
    "stateCode": "13",
    "latitude": "34.38555556",
    "longitude": "48.08638889"
  },
  {
    "name": "Barzul",
    "countryCode": "IR",
    "stateCode": "13",
    "latitude": "34.21277778",
    "longitude": "48.25888889"
  },
  {
    "name": "Bashqurtaran",
    "countryCode": "IR",
    "stateCode": "13",
    "latitude": "35.63722222",
    "longitude": "48.11694444"
  },
  {
    "name": "Bastak",
    "countryCode": "IR",
    "stateCode": "22",
    "latitude": "27.20000000",
    "longitude": "54.36667000"
  },
  {
    "name": "Bazeran",
    "countryCode": "IR",
    "stateCode": "13",
    "latitude": "35.15611111",
    "longitude": "49.42305556"
  },
  {
    "name": "Behbahān",
    "countryCode": "IR",
    "stateCode": "06",
    "latitude": "30.59590000",
    "longitude": "50.24170000"
  },
  {
    "name": "Behkandan",
    "countryCode": "IR",
    "stateCode": "13",
    "latitude": "35.27222222",
    "longitude": "49.09888889"
  },
  {
    "name": "Behshahr",
    "countryCode": "IR",
    "stateCode": "02",
    "latitude": "36.69235000",
    "longitude": "53.55262000"
  },
  {
    "name": "Belartu",
    "countryCode": "IR",
    "stateCode": "13",
    "latitude": "34.33555556",
    "longitude": "48.51583333"
  },
  {
    "name": "Ben",
    "countryCode": "IR",
    "stateCode": "14",
    "latitude": "32.53556000",
    "longitude": "50.75201000"
  },
  {
    "name": "Beshik Tappeh",
    "countryCode": "IR",
    "stateCode": "13",
    "latitude": "35.53611111",
    "longitude": "48.41805556"
  },
  {
    "name": "Biaj",
    "countryCode": "IR",
    "stateCode": "13",
    "latitude": "34.81500000",
    "longitude": "48.09916667"
  },
  {
    "name": "Biatan-e Sofla",
    "countryCode": "IR",
    "stateCode": "13",
    "latitude": "34.02527778",
    "longitude": "48.95805556"
  },
  {
    "name": "Bid Korpeh-ye Sofla",
    "countryCode": "IR",
    "stateCode": "13",
    "latitude": "34.02111111",
    "longitude": "48.89166667"
  },
  {
    "name": "Bid Korpeh-ye Vosta",
    "countryCode": "IR",
    "stateCode": "13",
    "latitude": "34.01944444",
    "longitude": "48.88722222"
  },
  {
    "name": "Bifanaj",
    "countryCode": "IR",
    "stateCode": "13",
    "latitude": "34.61472222",
    "longitude": "48.01694444"
  },
  {
    "name": "Bighash",
    "countryCode": "IR",
    "stateCode": "13",
    "latitude": "34.09111111",
    "longitude": "49.06833333"
  },
  {
    "name": "Bish Aghaj",
    "countryCode": "IR",
    "stateCode": "13",
    "latitude": "34.46111111",
    "longitude": "48.78583333"
  },
  {
    "name": "Bitervan",
    "countryCode": "IR",
    "stateCode": "13",
    "latitude": "34.65444444",
    "longitude": "47.91055556"
  },
  {
    "name": "Bojnūrd",
    "countryCode": "IR",
    "stateCode": "28",
    "latitude": "37.47473000",
    "longitude": "57.32903000"
  },
  {
    "name": "Bonāb",
    "countryCode": "IR",
    "stateCode": "03",
    "latitude": "37.34040000",
    "longitude": "46.05610000"
  },
  {
    "name": "Borjaki",
    "countryCode": "IR",
    "stateCode": "13",
    "latitude": "34.32861111",
    "longitude": "48.03305556"
  },
  {
    "name": "Borāzjān",
    "countryCode": "IR",
    "stateCode": "18",
    "latitude": "29.26990000",
    "longitude": "51.21880000"
  },
  {
    "name": "Borūjen",
    "countryCode": "IR",
    "stateCode": "14",
    "latitude": "31.96523000",
    "longitude": "51.28730000"
  },
  {
    "name": "Borūjerd",
    "countryCode": "IR",
    "stateCode": "15",
    "latitude": "33.89730000",
    "longitude": "48.75160000"
  },
  {
    "name": "Boshrūyeh",
    "countryCode": "IR",
    "stateCode": "29",
    "latitude": "34.16667000",
    "longitude": "57.41667000"
  },
  {
    "name": "Boyukabad",
    "countryCode": "IR",
    "stateCode": "13",
    "latitude": "35.05972222",
    "longitude": "48.84166667"
  },
  {
    "name": "Bozchalu",
    "countryCode": "IR",
    "stateCode": "13",
    "latitude": "35.16888889",
    "longitude": "49.22444444"
  },
  {
    "name": "Bozineh Jerd",
    "countryCode": "IR",
    "stateCode": "13",
    "latitude": "35.02472222",
    "longitude": "48.94388889"
  },
  {
    "name": "Buin va Miandasht",
    "countryCode": "IR",
    "stateCode": "10",
    "latitude": "33.07241000",
    "longitude": "50.14641000"
  },
  {
    "name": "Bujin",
    "countryCode": "IR",
    "stateCode": "13",
    "latitude": "34.80722222",
    "longitude": "48.05916667"
  },
  {
    "name": "Bushehr",
    "countryCode": "IR",
    "stateCode": "18",
    "latitude": "28.96887000",
    "longitude": "50.83657000"
  },
  {
    "name": "Bustandar",
    "countryCode": "IR",
    "stateCode": "13",
    "latitude": "34.44861111",
    "longitude": "48.41944444"
  },
  {
    "name": "Buyaqchi",
    "countryCode": "IR",
    "stateCode": "13",
    "latitude": "34.84750000",
    "longitude": "49.08916667"
  },
  {
    "name": "Bābol",
    "countryCode": "IR",
    "stateCode": "02",
    "latitude": "36.55132000",
    "longitude": "52.67895000"
  },
  {
    "name": "Bābolsar",
    "countryCode": "IR",
    "stateCode": "02",
    "latitude": "36.70251000",
    "longitude": "52.65760000"
  },
  {
    "name": "Bāfq",
    "countryCode": "IR",
    "stateCode": "21",
    "latitude": "31.60350000",
    "longitude": "55.40249000"
  },
  {
    "name": "Bāft",
    "countryCode": "IR",
    "stateCode": "08",
    "latitude": "29.23310000",
    "longitude": "56.60220000"
  },
  {
    "name": "Bāgh Shahrestān-e Malek",
    "countryCode": "IR",
    "stateCode": "06",
    "latitude": "31.50000000",
    "longitude": "49.91667000"
  },
  {
    "name": "Bāneh",
    "countryCode": "IR",
    "stateCode": "12",
    "latitude": "35.99750000",
    "longitude": "45.88530000"
  },
  {
    "name": "Bījār",
    "countryCode": "IR",
    "stateCode": "12",
    "latitude": "35.86680000",
    "longitude": "47.60506000"
  },
  {
    "name": "Bīleh Savār",
    "countryCode": "IR",
    "stateCode": "24",
    "latitude": "39.37961000",
    "longitude": "48.35463000"
  },
  {
    "name": "Bīrjand",
    "countryCode": "IR",
    "stateCode": "29",
    "latitude": "32.86628000",
    "longitude": "59.22114000"
  },
  {
    "name": "Būkān",
    "countryCode": "IR",
    "stateCode": "04",
    "latitude": "36.52100000",
    "longitude": "46.20890000"
  },
  {
    "name": "Chabahar",
    "countryCode": "IR",
    "stateCode": "11",
    "latitude": "25.29190000",
    "longitude": "60.64300000"
  },
  {
    "name": "Chahar Bolagh",
    "countryCode": "IR",
    "stateCode": "13",
    "latitude": "35.58111111",
    "longitude": "48.65000000"
  },
  {
    "name": "Chal Boqa",
    "countryCode": "IR",
    "stateCode": "13",
    "latitude": "35.42055556",
    "longitude": "48.92750000"
  },
  {
    "name": "Chaleh Kand",
    "countryCode": "IR",
    "stateCode": "13",
    "latitude": "35.27500000",
    "longitude": "48.29944444"
  },
  {
    "name": "Chardavol County",
    "countryCode": "IR",
    "stateCode": "16",
    "latitude": "33.75910000",
    "longitude": "46.56980000"
  },
  {
    "name": "Charoq",
    "countryCode": "IR",
    "stateCode": "13",
    "latitude": "34.84416667",
    "longitude": "48.06611111"
  },
  {
    "name": "Chasht Khvoreh",
    "countryCode": "IR",
    "stateCode": "13",
    "latitude": "34.46444444",
    "longitude": "48.26694444"
  },
  {
    "name": "Chelgard",
    "countryCode": "IR",
    "stateCode": "14",
    "latitude": "32.46720000",
    "longitude": "50.12229000"
  },
  {
    "name": "Chenari",
    "countryCode": "IR",
    "stateCode": "13",
    "latitude": "34.23194444",
    "longitude": "48.17611111"
  },
  {
    "name": "Chenārān",
    "countryCode": "IR",
    "stateCode": "09",
    "latitude": "36.64546000",
    "longitude": "59.12123000"
  },
  {
    "name": "Cheshmeh Malek",
    "countryCode": "IR",
    "stateCode": "13",
    "latitude": "34.75500000",
    "longitude": "48.49305556"
  },
  {
    "name": "Cheshmeh Pahn-e Nanaj",
    "countryCode": "IR",
    "stateCode": "13",
    "latitude": "34.45888889",
    "longitude": "48.76750000"
  },
  {
    "name": "Cheshmeh Qandab",
    "countryCode": "IR",
    "stateCode": "13",
    "latitude": "34.62694444",
    "longitude": "48.09111111"
  },
  {
    "name": "Cheshmeh Qareh",
    "countryCode": "IR",
    "stateCode": "13",
    "latitude": "34.90611111",
    "longitude": "47.87111111"
  },
  {
    "name": "Cheshmeh Qassaban",
    "countryCode": "IR",
    "stateCode": "13",
    "latitude": "34.85777778",
    "longitude": "48.41888889"
  },
  {
    "name": "Cheshmeh Valad",
    "countryCode": "IR",
    "stateCode": "13",
    "latitude": "34.87805556",
    "longitude": "47.98388889"
  },
  {
    "name": "Cheshmeh Zowraq",
    "countryCode": "IR",
    "stateCode": "13",
    "latitude": "34.06611111",
    "longitude": "49.10083333"
  },
  {
    "name": "Choqa Sarahi",
    "countryCode": "IR",
    "stateCode": "13",
    "latitude": "34.31527778",
    "longitude": "48.04888889"
  },
  {
    "name": "Chowtash",
    "countryCode": "IR",
    "stateCode": "13",
    "latitude": "34.83694444",
    "longitude": "48.25194444"
  },
  {
    "name": "Chulak Qapanuri",
    "countryCode": "IR",
    "stateCode": "13",
    "latitude": "34.23472222",
    "longitude": "48.30000000"
  },
  {
    "name": "Chādegān",
    "countryCode": "IR",
    "stateCode": "10",
    "latitude": "32.76825000",
    "longitude": "50.62873000"
  },
  {
    "name": "Chālūs",
    "countryCode": "IR",
    "stateCode": "02",
    "latitude": "36.65500000",
    "longitude": "51.42040000"
  },
  {
    "name": "Chāypāreh",
    "countryCode": "IR",
    "stateCode": "04",
    "latitude": "38.86667000",
    "longitude": "45.00000000"
  },
  {
    "name": "Dahnejerd",
    "countryCode": "IR",
    "stateCode": "13",
    "latitude": "34.96750000",
    "longitude": "48.50055600"
  },
  {
    "name": "Dali Chu",
    "countryCode": "IR",
    "stateCode": "13",
    "latitude": "35.52138889",
    "longitude": "48.02027778"
  },
  {
    "name": "Damaq",
    "countryCode": "IR",
    "stateCode": "13",
    "latitude": "35.44277778",
    "longitude": "48.82305556"
  },
  {
    "name": "Damāvand",
    "countryCode": "IR",
    "stateCode": "23",
    "latitude": "35.71842000",
    "longitude": "52.06958000"
  },
  {
    "name": "Daqdaqabad",
    "countryCode": "IR",
    "stateCode": "13",
    "latitude": "35.18277778",
    "longitude": "48.78833333"
  },
  {
    "name": "Dar Qeshlaq",
    "countryCode": "IR",
    "stateCode": "13",
    "latitude": "35.49222222",
    "longitude": "48.05583333"
  },
  {
    "name": "Darani-ye Sofla",
    "countryCode": "IR",
    "stateCode": "13",
    "latitude": "34.49888889",
    "longitude": "48.41222222"
  },
  {
    "name": "Darcham",
    "countryCode": "IR",
    "stateCode": "13",
    "latitude": "34.26027778",
    "longitude": "48.82083333"
  },
  {
    "name": "Dargaz",
    "countryCode": "IR",
    "stateCode": "09",
    "latitude": "37.33333000",
    "longitude": "59.08333000"
  },
  {
    "name": "Darreh Chenar",
    "countryCode": "IR",
    "stateCode": "13",
    "latitude": "34.09944444",
    "longitude": "48.80305556"
  },
  {
    "name": "Darreh Mianeh-ye Sofla",
    "countryCode": "IR",
    "stateCode": "13",
    "latitude": "34.07277778",
    "longitude": "48.83527778"
  },
  {
    "name": "Darreh Mirza",
    "countryCode": "IR",
    "stateCode": "13",
    "latitude": "34.37611111",
    "longitude": "48.00750000"
  },
  {
    "name": "Darreh Shahr",
    "countryCode": "IR",
    "stateCode": "16",
    "latitude": "33.14447000",
    "longitude": "47.37990000"
  },
  {
    "name": "Darreh-ye Ebrahim",
    "countryCode": "IR",
    "stateCode": "13",
    "latitude": "34.10166667",
    "longitude": "48.39444444"
  },
  {
    "name": "Darrehshahr",
    "countryCode": "IR",
    "stateCode": "16",
    "latitude": "33.13333000",
    "longitude": "47.36667000"
  },
  {
    "name": "Darsibeh",
    "countryCode": "IR",
    "stateCode": "13",
    "latitude": "34.26972222",
    "longitude": "48.00694444"
  },
  {
    "name": "Davijan",
    "countryCode": "IR",
    "stateCode": "13",
    "latitude": "34.22027778",
    "longitude": "48.85833333"
  },
  {
    "name": "Deh Chaneh",
    "countryCode": "IR",
    "stateCode": "13",
    "latitude": "34.10527778",
    "longitude": "49.12027778"
  },
  {
    "name": "Deh Dalian",
    "countryCode": "IR",
    "stateCode": "13",
    "latitude": "34.80472222",
    "longitude": "48.71138889"
  },
  {
    "name": "Deh Ful",
    "countryCode": "IR",
    "stateCode": "13",
    "latitude": "34.22694444",
    "longitude": "48.31388889"
  },
  {
    "name": "Deh Mianeh",
    "countryCode": "IR",
    "stateCode": "13",
    "latitude": "34.17305556",
    "longitude": "49.04944444"
  },
  {
    "name": "Deh Nush",
    "countryCode": "IR",
    "stateCode": "13",
    "latitude": "34.76111111",
    "longitude": "48.00305556"
  },
  {
    "name": "Deh Piaz",
    "countryCode": "IR",
    "stateCode": "13",
    "latitude": "34.88194444",
    "longitude": "48.51472222"
  },
  {
    "name": "Deh-e Shaker",
    "countryCode": "IR",
    "stateCode": "13",
    "latitude": "34.37888889",
    "longitude": "48.54777778"
  },
  {
    "name": "Dehdasht",
    "countryCode": "IR",
    "stateCode": "17",
    "latitude": "30.79490000",
    "longitude": "50.56457000"
  },
  {
    "name": "Dehlorān",
    "countryCode": "IR",
    "stateCode": "16",
    "latitude": "32.69410000",
    "longitude": "47.26790000"
  },
  {
    "name": "Dehnow-e Avarzaman",
    "countryCode": "IR",
    "stateCode": "13",
    "latitude": "34.30694444",
    "longitude": "48.55694444"
  },
  {
    "name": "Dehāqān",
    "countryCode": "IR",
    "stateCode": "10",
    "latitude": "31.94004000",
    "longitude": "51.64786000"
  },
  {
    "name": "Delfan",
    "countryCode": "IR",
    "stateCode": "15",
    "latitude": "34.05000000",
    "longitude": "47.78333000"
  },
  {
    "name": "Delījān",
    "countryCode": "IR",
    "stateCode": "00",
    "latitude": "33.99050000",
    "longitude": "50.68380000"
  },
  {
    "name": "Deylam",
    "countryCode": "IR",
    "stateCode": "18",
    "latitude": "30.02286000",
    "longitude": "50.35595000"
  },
  {
    "name": "Dingeleh Kahriz",
    "countryCode": "IR",
    "stateCode": "13",
    "latitude": "34.81111111",
    "longitude": "48.68472222"
  },
  {
    "name": "Do Rudan",
    "countryCode": "IR",
    "stateCode": "13",
    "latitude": "34.55972222",
    "longitude": "48.41472222"
  },
  {
    "name": "Dogonbadan",
    "countryCode": "IR",
    "stateCode": "17",
    "latitude": "30.35860000",
    "longitude": "50.79810000"
  },
  {
    "name": "Doraneh",
    "countryCode": "IR",
    "stateCode": "13",
    "latitude": "34.23138889",
    "longitude": "48.21944444"
  },
  {
    "name": "Dorcheh Pīāz",
    "countryCode": "IR",
    "stateCode": "10",
    "latitude": "32.61528000",
    "longitude": "51.55556000"
  },
  {
    "name": "Dorudgaran",
    "countryCode": "IR",
    "stateCode": "13",
    "latitude": "34.02027800",
    "longitude": "48.92472200"
  },
  {
    "name": "Dow Baraleh",
    "countryCode": "IR",
    "stateCode": "13",
    "latitude": "34.90222222",
    "longitude": "48.03361111"
  },
  {
    "name": "Dowlatabad-e Hajjilu",
    "countryCode": "IR",
    "stateCode": "13",
    "latitude": "35.28111111",
    "longitude": "48.88694444"
  },
  {
    "name": "Dowlatābād",
    "countryCode": "IR",
    "stateCode": "10",
    "latitude": "32.79978000",
    "longitude": "51.69553000"
  },
  {
    "name": "Dowlujerdin-e Bala",
    "countryCode": "IR",
    "stateCode": "13",
    "latitude": "35.34777778",
    "longitude": "49.10944444"
  },
  {
    "name": "Durijan",
    "countryCode": "IR",
    "stateCode": "13",
    "latitude": "34.30555556",
    "longitude": "48.48972222"
  },
  {
    "name": "Durnian",
    "countryCode": "IR",
    "stateCode": "13",
    "latitude": "35.48194444",
    "longitude": "49.04000000"
  },
  {
    "name": "Dāmghān",
    "countryCode": "IR",
    "stateCode": "20",
    "latitude": "36.16790000",
    "longitude": "54.34292000"
  },
  {
    "name": "Dārāb",
    "countryCode": "IR",
    "stateCode": "07",
    "latitude": "28.75194000",
    "longitude": "54.54444000"
  },
  {
    "name": "Dārān",
    "countryCode": "IR",
    "stateCode": "10",
    "latitude": "32.98871000",
    "longitude": "50.41267000"
  },
  {
    "name": "Dāvarzan",
    "countryCode": "IR",
    "stateCode": "09",
    "latitude": "36.33333000",
    "longitude": "56.83333000"
  },
  {
    "name": "Emamzadeh Khatun",
    "countryCode": "IR",
    "stateCode": "13",
    "latitude": "34.04972222",
    "longitude": "48.95222222"
  },
  {
    "name": "Emamzadeh Pir Nahan",
    "countryCode": "IR",
    "stateCode": "13",
    "latitude": "35.01138889",
    "longitude": "49.04111111"
  },
  {
    "name": "Eqbālīyeh",
    "countryCode": "IR",
    "stateCode": "23",
    "latitude": "35.30220000",
    "longitude": "51.53580000"
  },
  {
    "name": "Esfarāyen",
    "countryCode": "IR",
    "stateCode": "28",
    "latitude": "37.07645000",
    "longitude": "57.51009000"
  },
  {
    "name": "Eskanan",
    "countryCode": "IR",
    "stateCode": "13",
    "latitude": "34.35805556",
    "longitude": "48.59277778"
  },
  {
    "name": "Eslāmshahr",
    "countryCode": "IR",
    "stateCode": "23",
    "latitude": "35.55222000",
    "longitude": "51.23504000"
  },
  {
    "name": "Fahrumand",
    "countryCode": "IR",
    "stateCode": "13",
    "latitude": "34.22416667",
    "longitude": "48.31194444"
  },
  {
    "name": "Falāvarjān",
    "countryCode": "IR",
    "stateCode": "10",
    "latitude": "32.55530000",
    "longitude": "51.50973000"
  },
  {
    "name": "Famast",
    "countryCode": "IR",
    "stateCode": "13",
    "latitude": "34.03897000",
    "longitude": "48.46260000"
  },
  {
    "name": "Famenin",
    "countryCode": "IR",
    "stateCode": "13",
    "latitude": "35.11388889",
    "longitude": "48.97166667"
  },
  {
    "name": "Fannūj",
    "countryCode": "IR",
    "stateCode": "11",
    "latitude": "26.57583000",
    "longitude": "59.63972000"
  },
  {
    "name": "Fanuj",
    "countryCode": "IR",
    "stateCode": "11",
    "latitude": "26.57468000",
    "longitude": "59.63856000"
  },
  {
    "name": "Farasfaj",
    "countryCode": "IR",
    "stateCode": "13",
    "latitude": "34.48611111",
    "longitude": "48.28555556"
  },
  {
    "name": "Fardis",
    "countryCode": "IR",
    "stateCode": "30",
    "latitude": "35.72318000",
    "longitude": "50.97865000"
  },
  {
    "name": "Fareydūnshahr",
    "countryCode": "IR",
    "stateCode": "10",
    "latitude": "32.94098000",
    "longitude": "50.12100000"
  },
  {
    "name": "Farrokh Shahr",
    "countryCode": "IR",
    "stateCode": "14",
    "latitude": "32.27174000",
    "longitude": "50.98008000"
  },
  {
    "name": "Farsban",
    "countryCode": "IR",
    "stateCode": "13",
    "latitude": "34.24416667",
    "longitude": "48.11916667"
  },
  {
    "name": "Farvaz",
    "countryCode": "IR",
    "stateCode": "13",
    "latitude": "34.22694444",
    "longitude": "48.90111111"
  },
  {
    "name": "Faryazan",
    "countryCode": "IR",
    "stateCode": "13",
    "latitude": "34.52305600",
    "longitude": "48.33250000"
  },
  {
    "name": "Fasijan",
    "countryCode": "IR",
    "stateCode": "13",
    "latitude": "34.83666667",
    "longitude": "48.30472222"
  },
  {
    "name": "Fasā",
    "countryCode": "IR",
    "stateCode": "07",
    "latitude": "28.93830000",
    "longitude": "53.64820000"
  },
  {
    "name": "Fereydan",
    "countryCode": "IR",
    "stateCode": "10",
    "latitude": "33.10000000",
    "longitude": "50.26667000"
  },
  {
    "name": "Fereydūnkenār",
    "countryCode": "IR",
    "stateCode": "02",
    "latitude": "36.68642000",
    "longitude": "52.52255000"
  },
  {
    "name": "Fiazaman",
    "countryCode": "IR",
    "stateCode": "13",
    "latitude": "34.13111111",
    "longitude": "48.39638889"
  },
  {
    "name": "Firuzabad-e Sofla",
    "countryCode": "IR",
    "stateCode": "13",
    "latitude": "34.34694444",
    "longitude": "48.09638889"
  },
  {
    "name": "Firuzan",
    "countryCode": "IR",
    "stateCode": "13",
    "latitude": "34.27861111",
    "longitude": "48.24000000"
  },
  {
    "name": "Fārsān",
    "countryCode": "IR",
    "stateCode": "14",
    "latitude": "32.25694000",
    "longitude": "50.56095000"
  },
  {
    "name": "Fīrūzābād",
    "countryCode": "IR",
    "stateCode": "07",
    "latitude": "28.84380000",
    "longitude": "52.57070000"
  },
  {
    "name": "Fūman",
    "countryCode": "IR",
    "stateCode": "01",
    "latitude": "37.22400000",
    "longitude": "49.31250000"
  },
  {
    "name": "Gamasa",
    "countryCode": "IR",
    "stateCode": "13",
    "latitude": "34.23027778",
    "longitude": "49.08750000"
  },
  {
    "name": "Gamasb",
    "countryCode": "IR",
    "stateCode": "13",
    "latitude": "34.04000000",
    "longitude": "48.46500000"
  },
  {
    "name": "Ganj Tappeh",
    "countryCode": "IR",
    "stateCode": "13",
    "latitude": "34.93333300",
    "longitude": "48.46361100"
  },
  {
    "name": "Ganjab",
    "countryCode": "IR",
    "stateCode": "13",
    "latitude": "34.45277778",
    "longitude": "48.98722222"
  },
  {
    "name": "Gashani",
    "countryCode": "IR",
    "stateCode": "13",
    "latitude": "34.66055556",
    "longitude": "48.39138889"
  },
  {
    "name": "Gav Zaban",
    "countryCode": "IR",
    "stateCode": "13",
    "latitude": "35.22916667",
    "longitude": "48.30527778"
  },
  {
    "name": "Gavkaran",
    "countryCode": "IR",
    "stateCode": "13",
    "latitude": "34.48694444",
    "longitude": "48.12000000"
  },
  {
    "name": "Gerāsh",
    "countryCode": "IR",
    "stateCode": "07",
    "latitude": "27.66966000",
    "longitude": "54.13586000"
  },
  {
    "name": "Ghazyatan",
    "countryCode": "IR",
    "stateCode": "13",
    "latitude": "35.33222222",
    "longitude": "48.93166667"
  },
  {
    "name": "Gholam Veys",
    "countryCode": "IR",
    "stateCode": "13",
    "latitude": "35.63000000",
    "longitude": "48.52583333"
  },
  {
    "name": "Givaki",
    "countryCode": "IR",
    "stateCode": "13",
    "latitude": "34.27250000",
    "longitude": "48.08111111"
  },
  {
    "name": "Giyan",
    "countryCode": "IR",
    "stateCode": "13",
    "latitude": "34.17805556",
    "longitude": "48.24416667"
  },
  {
    "name": "Gol Darreh-ye Anuch",
    "countryCode": "IR",
    "stateCode": "13",
    "latitude": "34.10222222",
    "longitude": "48.59861111"
  },
  {
    "name": "Gol Heydar",
    "countryCode": "IR",
    "stateCode": "13",
    "latitude": "34.06250000",
    "longitude": "48.41666667"
  },
  {
    "name": "Golparabad",
    "countryCode": "IR",
    "stateCode": "13",
    "latitude": "34.15500000",
    "longitude": "49.05777778"
  },
  {
    "name": "Golpāyegān",
    "countryCode": "IR",
    "stateCode": "10",
    "latitude": "33.45370000",
    "longitude": "50.28836000"
  },
  {
    "name": "Golshir",
    "countryCode": "IR",
    "stateCode": "13",
    "latitude": "34.40000000",
    "longitude": "48.68333333"
  },
  {
    "name": "Golushjerd",
    "countryCode": "IR",
    "stateCode": "13",
    "latitude": "34.36611111",
    "longitude": "48.79000000"
  },
  {
    "name": "Gomush Bolagh",
    "countryCode": "IR",
    "stateCode": "13",
    "latitude": "34.93194444",
    "longitude": "48.28972222"
  },
  {
    "name": "Gonbad Chay",
    "countryCode": "IR",
    "stateCode": "13",
    "latitude": "34.86833300",
    "longitude": "48.83138900"
  },
  {
    "name": "Gonbad-e Kabud",
    "countryCode": "IR",
    "stateCode": "13",
    "latitude": "34.21722222",
    "longitude": "48.14777778"
  },
  {
    "name": "Gonbad-e Kāvūs",
    "countryCode": "IR",
    "stateCode": "27",
    "latitude": "37.25004000",
    "longitude": "55.16721000"
  },
  {
    "name": "Gonābād",
    "countryCode": "IR",
    "stateCode": "09",
    "latitude": "34.35287000",
    "longitude": "58.68365000"
  },
  {
    "name": "Gorgān",
    "countryCode": "IR",
    "stateCode": "27",
    "latitude": "36.84270000",
    "longitude": "54.44391000"
  },
  {
    "name": "Gostar",
    "countryCode": "IR",
    "stateCode": "13",
    "latitude": "35.46388889",
    "longitude": "48.87638889"
  },
  {
    "name": "Gotvand",
    "countryCode": "IR",
    "stateCode": "06",
    "latitude": "32.21667000",
    "longitude": "48.80000000"
  },
  {
    "name": "Gozal Abdal",
    "countryCode": "IR",
    "stateCode": "13",
    "latitude": "35.32166667",
    "longitude": "48.23861111"
  },
  {
    "name": "Gug Qash",
    "countryCode": "IR",
    "stateCode": "13",
    "latitude": "35.68750000",
    "longitude": "48.02530000"
  },
  {
    "name": "Gujak",
    "countryCode": "IR",
    "stateCode": "13",
    "latitude": "34.54083333",
    "longitude": "48.84027778"
  },
  {
    "name": "Gulvand",
    "countryCode": "IR",
    "stateCode": "13",
    "latitude": "34.38083333",
    "longitude": "48.97527778"
  },
  {
    "name": "Gunestan",
    "countryCode": "IR",
    "stateCode": "13",
    "latitude": "34.03027778",
    "longitude": "48.91833333"
  },
  {
    "name": "Gur Gaz",
    "countryCode": "IR",
    "stateCode": "13",
    "latitude": "34.93333333",
    "longitude": "48.79111111"
  },
  {
    "name": "Gurjiu",
    "countryCode": "IR",
    "stateCode": "13",
    "latitude": "34.18583333",
    "longitude": "48.40555556"
  },
  {
    "name": "Gushalan",
    "countryCode": "IR",
    "stateCode": "13",
    "latitude": "34.83500000",
    "longitude": "48.32250000"
  },
  {
    "name": "Gusheh-ye Kasavand",
    "countryCode": "IR",
    "stateCode": "13",
    "latitude": "34.15527778",
    "longitude": "48.95944444"
  },
  {
    "name": "Hajji Kheder",
    "countryCode": "IR",
    "stateCode": "13",
    "latitude": "34.12722222",
    "longitude": "48.74833333"
  },
  {
    "name": "Hajji Maqsud",
    "countryCode": "IR",
    "stateCode": "13",
    "latitude": "34.96972222",
    "longitude": "48.87972222"
  },
  {
    "name": "Hajji Tu",
    "countryCode": "IR",
    "stateCode": "13",
    "latitude": "34.45083300",
    "longitude": "48.35361100"
  },
  {
    "name": "Hamadan",
    "countryCode": "IR",
    "stateCode": "13",
    "latitude": "34.80000000",
    "longitude": "48.51666667"
  },
  {
    "name": "Hamidiyeh",
    "countryCode": "IR",
    "stateCode": "06",
    "latitude": "31.48107000",
    "longitude": "48.43303000"
  },
  {
    "name": "Hamilabad",
    "countryCode": "IR",
    "stateCode": "13",
    "latitude": "34.40250000",
    "longitude": "48.46083333"
  },
  {
    "name": "Hamoon",
    "countryCode": "IR",
    "stateCode": "11",
    "latitude": "30.93686000",
    "longitude": "61.33687000"
  },
  {
    "name": "Hamzehlu-ye Sofla",
    "countryCode": "IR",
    "stateCode": "13",
    "latitude": "34.05777778",
    "longitude": "49.07777778"
  },
  {
    "name": "Haramabad",
    "countryCode": "IR",
    "stateCode": "13",
    "latitude": "34.28166667",
    "longitude": "48.78250000"
  },
  {
    "name": "Harsīn",
    "countryCode": "IR",
    "stateCode": "05",
    "latitude": "34.27210000",
    "longitude": "47.58610000"
  },
  {
    "name": "Hasan Kusej",
    "countryCode": "IR",
    "stateCode": "13",
    "latitude": "34.24833333",
    "longitude": "48.57527778"
  },
  {
    "name": "Hasan Teymur",
    "countryCode": "IR",
    "stateCode": "13",
    "latitude": "35.37583333",
    "longitude": "48.36361111"
  },
  {
    "name": "Hasanabad-e Emam",
    "countryCode": "IR",
    "stateCode": "13",
    "latitude": "34.95027778",
    "longitude": "48.05083333"
  },
  {
    "name": "Hasanabad-e Qush Bolagh",
    "countryCode": "IR",
    "stateCode": "13",
    "latitude": "34.42361111",
    "longitude": "48.65444444"
  },
  {
    "name": "Hasanabad-e Sheverin",
    "countryCode": "IR",
    "stateCode": "13",
    "latitude": "34.84250000",
    "longitude": "48.54916667"
  },
  {
    "name": "Hashtpar",
    "countryCode": "IR",
    "stateCode": "01",
    "latitude": "37.79658000",
    "longitude": "48.90521000"
  },
  {
    "name": "Hashtrūd",
    "countryCode": "IR",
    "stateCode": "03",
    "latitude": "37.47790000",
    "longitude": "47.05080000"
  },
  {
    "name": "Heriraz",
    "countryCode": "IR",
    "stateCode": "13",
    "latitude": "34.20527778",
    "longitude": "48.74305556"
  },
  {
    "name": "Hesar-e Qarah Baghi",
    "countryCode": "IR",
    "stateCode": "13",
    "latitude": "34.82250000",
    "longitude": "48.26861111"
  },
  {
    "name": "Hesar-e Qujeh Baghi",
    "countryCode": "IR",
    "stateCode": "13",
    "latitude": "35.23861111",
    "longitude": "48.55972222"
  },
  {
    "name": "Heydareh-ye Dar-e Emam",
    "countryCode": "IR",
    "stateCode": "13",
    "latitude": "34.82055556",
    "longitude": "48.34694444"
  },
  {
    "name": "Heydareh-ye Posht-e Shahr",
    "countryCode": "IR",
    "stateCode": "13",
    "latitude": "34.80250000",
    "longitude": "48.45750000"
  },
  {
    "name": "Hizaj",
    "countryCode": "IR",
    "stateCode": "13",
    "latitude": "34.93000000",
    "longitude": "49.14333333"
  },
  {
    "name": "Holvar-e Sofla",
    "countryCode": "IR",
    "stateCode": "13",
    "latitude": "34.68000000",
    "longitude": "48.13472222"
  },
  {
    "name": "Hom-e Khosrow",
    "countryCode": "IR",
    "stateCode": "13",
    "latitude": "34.31472222",
    "longitude": "48.01000000"
  },
  {
    "name": "Horhoreh",
    "countryCode": "IR",
    "stateCode": "13",
    "latitude": "34.39111111",
    "longitude": "48.36027778"
  },
  {
    "name": "Hoseynabad-e Bahar",
    "countryCode": "IR",
    "stateCode": "13",
    "latitude": "34.86750000",
    "longitude": "48.36833333"
  },
  {
    "name": "Hoseynabad-e Nazem",
    "countryCode": "IR",
    "stateCode": "13",
    "latitude": "34.29527800",
    "longitude": "48.60416700"
  },
  {
    "name": "Hoseynabad-e Shamlu",
    "countryCode": "IR",
    "stateCode": "13",
    "latitude": "34.44611111",
    "longitude": "48.62055556"
  },
  {
    "name": "Hudaraj",
    "countryCode": "IR",
    "stateCode": "13",
    "latitude": "34.73361111",
    "longitude": "48.16194444"
  },
  {
    "name": "Iraneh",
    "countryCode": "IR",
    "stateCode": "13",
    "latitude": "34.24305556",
    "longitude": "48.59750000"
  },
  {
    "name": "Iranshahr",
    "countryCode": "IR",
    "stateCode": "11",
    "latitude": "27.20245000",
    "longitude": "60.68476000"
  },
  {
    "name": "Isfahan",
    "countryCode": "IR",
    "stateCode": "10",
    "latitude": "32.65246000",
    "longitude": "51.67462000"
  },
  {
    "name": "Isti Bolagh",
    "countryCode": "IR",
    "stateCode": "13",
    "latitude": "35.69500000",
    "longitude": "48.26611111"
  },
  {
    "name": "Jamishlu",
    "countryCode": "IR",
    "stateCode": "13",
    "latitude": "35.24583333",
    "longitude": "48.97666667"
  },
  {
    "name": "Jaria",
    "countryCode": "IR",
    "stateCode": "13",
    "latitude": "34.35166667",
    "longitude": "48.46861111"
  },
  {
    "name": "Javar Sajin",
    "countryCode": "IR",
    "stateCode": "13",
    "latitude": "35.28583333",
    "longitude": "49.22138889"
  },
  {
    "name": "Javānrūd",
    "countryCode": "IR",
    "stateCode": "05",
    "latitude": "34.79611000",
    "longitude": "46.51722000"
  },
  {
    "name": "Jerbanlu",
    "countryCode": "IR",
    "stateCode": "13",
    "latitude": "35.58638889",
    "longitude": "48.92916667"
  },
  {
    "name": "Jighi",
    "countryCode": "IR",
    "stateCode": "13",
    "latitude": "35.20027778",
    "longitude": "48.49388889"
  },
  {
    "name": "Jijan Kuh",
    "countryCode": "IR",
    "stateCode": "13",
    "latitude": "34.48111111",
    "longitude": "48.50694444"
  },
  {
    "name": "Jijian Rud",
    "countryCode": "IR",
    "stateCode": "13",
    "latitude": "34.35638889",
    "longitude": "48.60861111"
  },
  {
    "name": "Jin Taraqayah",
    "countryCode": "IR",
    "stateCode": "13",
    "latitude": "35.34555556",
    "longitude": "48.43250000"
  },
  {
    "name": "Jongīyeh",
    "countryCode": "IR",
    "stateCode": "06",
    "latitude": "31.25583000",
    "longitude": "48.61667000"
  },
  {
    "name": "Joveyn",
    "countryCode": "IR",
    "stateCode": "09",
    "latitude": "36.58333000",
    "longitude": "57.51667000"
  },
  {
    "name": "Juraqan",
    "countryCode": "IR",
    "stateCode": "13",
    "latitude": "34.88472222",
    "longitude": "48.55444444"
  },
  {
    "name": "Jūybār",
    "countryCode": "IR",
    "stateCode": "02",
    "latitude": "36.64115000",
    "longitude": "52.91244000"
  },
  {
    "name": "Kaboodrahang",
    "countryCode": "IR",
    "stateCode": "13",
    "latitude": "35.20833333",
    "longitude": "48.72388889"
  },
  {
    "name": "Kahard",
    "countryCode": "IR",
    "stateCode": "13",
    "latitude": "35.28555556",
    "longitude": "49.00527778"
  },
  {
    "name": "Kahkadan",
    "countryCode": "IR",
    "stateCode": "13",
    "latitude": "34.14388889",
    "longitude": "48.65805556"
  },
  {
    "name": "Kahriz-e Baba Hoseyn",
    "countryCode": "IR",
    "stateCode": "13",
    "latitude": "35.53388889",
    "longitude": "47.94027778"
  },
  {
    "name": "Kahriz-e Boqazi",
    "countryCode": "IR",
    "stateCode": "13",
    "latitude": "35.51138889",
    "longitude": "48.81833333"
  },
  {
    "name": "Kahriz-e Hoseynabad-e Nazem",
    "countryCode": "IR",
    "stateCode": "13",
    "latitude": "34.31888889",
    "longitude": "48.62777778"
  },
  {
    "name": "Kahriz-e Jamal",
    "countryCode": "IR",
    "stateCode": "13",
    "latitude": "34.33500000",
    "longitude": "48.14611111"
  },
  {
    "name": "Kahriz-e Salim",
    "countryCode": "IR",
    "stateCode": "13",
    "latitude": "34.32888889",
    "longitude": "48.16222222"
  },
  {
    "name": "Kahrīz",
    "countryCode": "IR",
    "stateCode": "05",
    "latitude": "34.38380000",
    "longitude": "47.05530000"
  },
  {
    "name": "Kal Kabud",
    "countryCode": "IR",
    "stateCode": "13",
    "latitude": "35.48083333",
    "longitude": "48.85277778"
  },
  {
    "name": "Kalb Hesari",
    "countryCode": "IR",
    "stateCode": "13",
    "latitude": "35.36694444",
    "longitude": "48.39583333"
  },
  {
    "name": "Kalilabad",
    "countryCode": "IR",
    "stateCode": "13",
    "latitude": "34.33916667",
    "longitude": "48.54472222"
  },
  {
    "name": "Kalāleh",
    "countryCode": "IR",
    "stateCode": "27",
    "latitude": "37.37899000",
    "longitude": "55.49300000"
  },
  {
    "name": "Kamak-e Sofla",
    "countryCode": "IR",
    "stateCode": "13",
    "latitude": "34.88750000",
    "longitude": "47.96861111"
  },
  {
    "name": "Kamar Boneh",
    "countryCode": "IR",
    "stateCode": "13",
    "latitude": "34.17500000",
    "longitude": "48.63500000"
  },
  {
    "name": "Kamazan",
    "countryCode": "IR",
    "stateCode": "13",
    "latitude": "34.15083333",
    "longitude": "48.95333333"
  },
  {
    "name": "Kand Halan",
    "countryCode": "IR",
    "stateCode": "13",
    "latitude": "34.50111111",
    "longitude": "48.78194444"
  },
  {
    "name": "Kand Tappeh",
    "countryCode": "IR",
    "stateCode": "13",
    "latitude": "35.20138889",
    "longitude": "48.30555556"
  },
  {
    "name": "Kand-e Bolaghi",
    "countryCode": "IR",
    "stateCode": "13",
    "latitude": "35.43000000",
    "longitude": "48.32277778"
  },
  {
    "name": "Kangavar-e Kohneh",
    "countryCode": "IR",
    "stateCode": "13",
    "latitude": "34.34194444",
    "longitude": "47.97611111"
  },
  {
    "name": "Kangāvar",
    "countryCode": "IR",
    "stateCode": "05",
    "latitude": "34.50430000",
    "longitude": "47.96530000"
  },
  {
    "name": "Karafs",
    "countryCode": "IR",
    "stateCode": "13",
    "latitude": "35.36333333",
    "longitude": "49.29888889"
  },
  {
    "name": "Karaj",
    "countryCode": "IR",
    "stateCode": "30",
    "latitude": "35.83266000",
    "longitude": "50.99155000"
  },
  {
    "name": "Kark-e Sofla",
    "countryCode": "IR",
    "stateCode": "13",
    "latitude": "34.16944444",
    "longitude": "48.29138889"
  },
  {
    "name": "Kartilabad",
    "countryCode": "IR",
    "stateCode": "13",
    "latitude": "34.31361111",
    "longitude": "48.64916667"
  },
  {
    "name": "Karun",
    "countryCode": "IR",
    "stateCode": "06",
    "latitude": "31.27618000",
    "longitude": "48.64174000"
  },
  {
    "name": "Kasavand",
    "countryCode": "IR",
    "stateCode": "13",
    "latitude": "34.15222222",
    "longitude": "48.96972222"
  },
  {
    "name": "Kaslan Qayah",
    "countryCode": "IR",
    "stateCode": "13",
    "latitude": "35.19388889",
    "longitude": "48.18611111"
  },
  {
    "name": "Kavanaj",
    "countryCode": "IR",
    "stateCode": "13",
    "latitude": "34.66388889",
    "longitude": "47.89694444"
  },
  {
    "name": "Kelīshād va Sūdarjān",
    "countryCode": "IR",
    "stateCode": "10",
    "latitude": "32.55118000",
    "longitude": "51.52758000"
  },
  {
    "name": "Kerman",
    "countryCode": "IR",
    "stateCode": "08",
    "latitude": "30.28321000",
    "longitude": "57.07879000"
  },
  {
    "name": "Kermanshah",
    "countryCode": "IR",
    "stateCode": "05",
    "latitude": "34.31417000",
    "longitude": "47.06500000"
  },
  {
    "name": "Kesb",
    "countryCode": "IR",
    "stateCode": "13",
    "latitude": "34.41416667",
    "longitude": "48.72250000"
  },
  {
    "name": "Keykaleh",
    "countryCode": "IR",
    "stateCode": "13",
    "latitude": "34.11500000",
    "longitude": "48.93916667"
  },
  {
    "name": "Keyni Sayeh",
    "countryCode": "IR",
    "stateCode": "13",
    "latitude": "34.82583333",
    "longitude": "47.88638889"
  },
  {
    "name": "Khabar Arkhi",
    "countryCode": "IR",
    "stateCode": "13",
    "latitude": "35.36333333",
    "longitude": "48.27666667"
  },
  {
    "name": "Khaku",
    "countryCode": "IR",
    "stateCode": "13",
    "latitude": "34.72638889",
    "longitude": "48.53638889"
  },
  {
    "name": "Khaleq Verdi",
    "countryCode": "IR",
    "stateCode": "13",
    "latitude": "35.41083333",
    "longitude": "48.18111111"
  },
  {
    "name": "Khalil Kord",
    "countryCode": "IR",
    "stateCode": "13",
    "latitude": "34.97805556",
    "longitude": "48.25305556"
  },
  {
    "name": "Khalkhāl",
    "countryCode": "IR",
    "stateCode": "24",
    "latitude": "37.61837000",
    "longitude": "48.52928000"
  },
  {
    "name": "Khavāş Kūh",
    "countryCode": "IR",
    "stateCode": "21",
    "latitude": "32.30611000",
    "longitude": "53.67444000"
  },
  {
    "name": "Kheradmand",
    "countryCode": "IR",
    "stateCode": "13",
    "latitude": "34.62583333",
    "longitude": "48.93138889"
  },
  {
    "name": "Kheyr Qoli",
    "countryCode": "IR",
    "stateCode": "13",
    "latitude": "34.20222222",
    "longitude": "48.40138889"
  },
  {
    "name": "Khomeygan",
    "countryCode": "IR",
    "stateCode": "13",
    "latitude": "35.36972222",
    "longitude": "49.02333333"
  },
  {
    "name": "Khomeyn",
    "countryCode": "IR",
    "stateCode": "00",
    "latitude": "33.63889000",
    "longitude": "50.08003000"
  },
  {
    "name": "Khomeynī Shahr",
    "countryCode": "IR",
    "stateCode": "10",
    "latitude": "32.68560000",
    "longitude": "51.53609000"
  },
  {
    "name": "Khorramabad",
    "countryCode": "IR",
    "stateCode": "15",
    "latitude": "33.48778000",
    "longitude": "48.35583000"
  },
  {
    "name": "Khorramdarreh",
    "countryCode": "IR",
    "stateCode": "19",
    "latitude": "36.23333000",
    "longitude": "49.20000000"
  },
  {
    "name": "Khorramshahr",
    "countryCode": "IR",
    "stateCode": "06",
    "latitude": "30.44079000",
    "longitude": "48.18428000"
  },
  {
    "name": "Khowy",
    "countryCode": "IR",
    "stateCode": "04",
    "latitude": "38.55030000",
    "longitude": "44.95210000"
  },
  {
    "name": "Khvajeh Hesar",
    "countryCode": "IR",
    "stateCode": "13",
    "latitude": "35.00000000",
    "longitude": "49.33916667"
  },
  {
    "name": "Khvajeh Hoseyni",
    "countryCode": "IR",
    "stateCode": "13",
    "latitude": "34.15500000",
    "longitude": "48.37861111"
  },
  {
    "name": "Khvajeh Kandi",
    "countryCode": "IR",
    "stateCode": "13",
    "latitude": "35.36194444",
    "longitude": "48.38500000"
  },
  {
    "name": "Khvoshab-e Sofla",
    "countryCode": "IR",
    "stateCode": "13",
    "latitude": "35.01777778",
    "longitude": "48.35750000"
  },
  {
    "name": "Khvānsār",
    "countryCode": "IR",
    "stateCode": "10",
    "latitude": "33.22052000",
    "longitude": "50.31497000"
  },
  {
    "name": "Khārk",
    "countryCode": "IR",
    "stateCode": "18",
    "latitude": "29.26139000",
    "longitude": "50.33056000"
  },
  {
    "name": "Khāsh",
    "countryCode": "IR",
    "stateCode": "11",
    "latitude": "28.22107000",
    "longitude": "61.21582000"
  },
  {
    "name": "Khūr",
    "countryCode": "IR",
    "stateCode": "10",
    "latitude": "33.77512000",
    "longitude": "55.08329000"
  },
  {
    "name": "Kitu",
    "countryCode": "IR",
    "stateCode": "13",
    "latitude": "35.31972222",
    "longitude": "48.15333333"
  },
  {
    "name": "Kohnush",
    "countryCode": "IR",
    "stateCode": "13",
    "latitude": "34.72583333",
    "longitude": "48.27777778"
  },
  {
    "name": "Kolanjan",
    "countryCode": "IR",
    "stateCode": "13",
    "latitude": "34.59444444",
    "longitude": "48.39250000"
  },
  {
    "name": "Komījān",
    "countryCode": "IR",
    "stateCode": "00",
    "latitude": "34.72142000",
    "longitude": "49.32653000"
  },
  {
    "name": "Konjineh",
    "countryCode": "IR",
    "stateCode": "13",
    "latitude": "34.79222222",
    "longitude": "48.62972222"
  },
  {
    "name": "Kord Bolagh",
    "countryCode": "IR",
    "stateCode": "13",
    "latitude": "34.76722222",
    "longitude": "48.65277778"
  },
  {
    "name": "Korzan",
    "countryCode": "IR",
    "stateCode": "13",
    "latitude": "34.59444444",
    "longitude": "48.35361111"
  },
  {
    "name": "Kowzareh",
    "countryCode": "IR",
    "stateCode": "13",
    "latitude": "34.69861100",
    "longitude": "49.01138900"
  },
  {
    "name": "Kuhani",
    "countryCode": "IR",
    "stateCode": "13",
    "latitude": "34.15388900",
    "longitude": "48.40500000"
  },
  {
    "name": "Kur Kahriz",
    "countryCode": "IR",
    "stateCode": "13",
    "latitude": "34.71722222",
    "longitude": "48.77333333"
  },
  {
    "name": "Kusaj Khalil",
    "countryCode": "IR",
    "stateCode": "13",
    "latitude": "34.40416667",
    "longitude": "48.58805556"
  },
  {
    "name": "Kutah Darreh",
    "countryCode": "IR",
    "stateCode": "13",
    "latitude": "34.32055556",
    "longitude": "47.95388889"
  },
  {
    "name": "Kāmyārān",
    "countryCode": "IR",
    "stateCode": "12",
    "latitude": "34.79560000",
    "longitude": "46.93550000"
  },
  {
    "name": "Kāshmar",
    "countryCode": "IR",
    "stateCode": "09",
    "latitude": "35.23831000",
    "longitude": "58.46558000"
  },
  {
    "name": "Kāzerūn",
    "countryCode": "IR",
    "stateCode": "07",
    "latitude": "29.61919000",
    "longitude": "51.65350000"
  },
  {
    "name": "Kīsh",
    "countryCode": "IR",
    "stateCode": "22",
    "latitude": "26.55778000",
    "longitude": "54.01944000"
  },
  {
    "name": "Kūh Sefīd",
    "countryCode": "IR",
    "stateCode": "08",
    "latitude": "29.27620000",
    "longitude": "56.80140000"
  },
  {
    "name": "Kūhdasht",
    "countryCode": "IR",
    "stateCode": "15",
    "latitude": "33.53335000",
    "longitude": "47.60999000"
  },
  {
    "name": "Laleh Dan",
    "countryCode": "IR",
    "stateCode": "13",
    "latitude": "35.58111111",
    "longitude": "48.95416667"
  },
  {
    "name": "Lalejin",
    "countryCode": "IR",
    "stateCode": "13",
    "latitude": "34.97444444",
    "longitude": "48.47555556"
  },
  {
    "name": "Lamiyan",
    "countryCode": "IR",
    "stateCode": "13",
    "latitude": "34.46277778",
    "longitude": "48.19277778"
  },
  {
    "name": "Landeh",
    "countryCode": "IR",
    "stateCode": "17",
    "latitude": "30.97994000",
    "longitude": "50.42469000"
  },
  {
    "name": "Langarūd",
    "countryCode": "IR",
    "stateCode": "01",
    "latitude": "37.19548000",
    "longitude": "50.15263000"
  },
  {
    "name": "Latgah",
    "countryCode": "IR",
    "stateCode": "13",
    "latitude": "34.98944400",
    "longitude": "48.54638900"
  },
  {
    "name": "Lavashan",
    "countryCode": "IR",
    "stateCode": "13",
    "latitude": "34.25055556",
    "longitude": "48.27416667"
  },
  {
    "name": "Leyli Yadegar",
    "countryCode": "IR",
    "stateCode": "13",
    "latitude": "34.28583333",
    "longitude": "48.21027778"
  },
  {
    "name": "Luluhar",
    "countryCode": "IR",
    "stateCode": "13",
    "latitude": "34.31611111",
    "longitude": "48.45416667"
  },
  {
    "name": "Mahanabad",
    "countryCode": "IR",
    "stateCode": "13",
    "latitude": "34.18083333",
    "longitude": "48.20972222"
  },
  {
    "name": "Mahbar",
    "countryCode": "IR",
    "stateCode": "13",
    "latitude": "34.87611111",
    "longitude": "48.80777778"
  },
  {
    "name": "Mahdaviyeh",
    "countryCode": "IR",
    "stateCode": "13",
    "latitude": "34.08333333",
    "longitude": "48.88333333"
  },
  {
    "name": "Mahdishahr",
    "countryCode": "IR",
    "stateCode": "20",
    "latitude": "35.70806000",
    "longitude": "53.35083000"
  },
  {
    "name": "Mahnian",
    "countryCode": "IR",
    "stateCode": "13",
    "latitude": "35.50250000",
    "longitude": "49.06583333"
  },
  {
    "name": "Mahrīz",
    "countryCode": "IR",
    "stateCode": "21",
    "latitude": "31.58428000",
    "longitude": "54.44280000"
  },
  {
    "name": "Mahābād",
    "countryCode": "IR",
    "stateCode": "04",
    "latitude": "36.76310000",
    "longitude": "45.72220000"
  },
  {
    "name": "Malayer",
    "countryCode": "IR",
    "stateCode": "13",
    "latitude": "34.29416667",
    "longitude": "48.82000000"
  },
  {
    "name": "Malek-e Ashtar",
    "countryCode": "IR",
    "stateCode": "13",
    "latitude": "34.95222222",
    "longitude": "48.31500000"
  },
  {
    "name": "Malusan",
    "countryCode": "IR",
    "stateCode": "13",
    "latitude": "34.32333333",
    "longitude": "48.33000000"
  },
  {
    "name": "Malārd",
    "countryCode": "IR",
    "stateCode": "23",
    "latitude": "35.66590000",
    "longitude": "50.97670000"
  },
  {
    "name": "Mamasanī",
    "countryCode": "IR",
    "stateCode": "07",
    "latitude": "30.03333000",
    "longitude": "51.38333000"
  },
  {
    "name": "Mangavi",
    "countryCode": "IR",
    "stateCode": "13",
    "latitude": "34.65750000",
    "longitude": "48.70861111"
  },
  {
    "name": "Marand",
    "countryCode": "IR",
    "stateCode": "03",
    "latitude": "38.43290000",
    "longitude": "45.77490000"
  },
  {
    "name": "Marvdasht",
    "countryCode": "IR",
    "stateCode": "07",
    "latitude": "30.08333000",
    "longitude": "52.66667000"
  },
  {
    "name": "Marvil",
    "countryCode": "IR",
    "stateCode": "13",
    "latitude": "34.16805556",
    "longitude": "48.88694444"
  },
  {
    "name": "Maryanaj",
    "countryCode": "IR",
    "stateCode": "13",
    "latitude": "34.83083333",
    "longitude": "48.45916667"
  },
  {
    "name": "Marīvān",
    "countryCode": "IR",
    "stateCode": "12",
    "latitude": "35.51829000",
    "longitude": "46.18298000"
  },
  {
    "name": "Mashhad",
    "countryCode": "IR",
    "stateCode": "09",
    "latitude": "36.31559000",
    "longitude": "59.56796000"
  },
  {
    "name": "Masjed Soleymān",
    "countryCode": "IR",
    "stateCode": "06",
    "latitude": "31.93640000",
    "longitude": "49.30390000"
  },
  {
    "name": "Masjedin",
    "countryCode": "IR",
    "stateCode": "13",
    "latitude": "35.54277778",
    "longitude": "48.26333333"
  },
  {
    "name": "Mehrān",
    "countryCode": "IR",
    "stateCode": "16",
    "latitude": "33.12220000",
    "longitude": "46.16460000"
  },
  {
    "name": "Menjan",
    "countryCode": "IR",
    "stateCode": "13",
    "latitude": "34.44805556",
    "longitude": "48.23555556"
  },
  {
    "name": "Mesinak",
    "countryCode": "IR",
    "stateCode": "13",
    "latitude": "35.27222222",
    "longitude": "49.15111111"
  },
  {
    "name": "Meybod",
    "countryCode": "IR",
    "stateCode": "21",
    "latitude": "32.18333000",
    "longitude": "53.93333000"
  },
  {
    "name": "Meyvaleh",
    "countryCode": "IR",
    "stateCode": "13",
    "latitude": "34.83194444",
    "longitude": "47.85527778"
  },
  {
    "name": "Mianzulan",
    "countryCode": "IR",
    "stateCode": "13",
    "latitude": "34.31222222",
    "longitude": "48.51555556"
  },
  {
    "name": "Mihamleh-ye Sofla",
    "countryCode": "IR",
    "stateCode": "13",
    "latitude": "35.10000000",
    "longitude": "48.30805556"
  },
  {
    "name": "Milab",
    "countryCode": "IR",
    "stateCode": "13",
    "latitude": "34.05277778",
    "longitude": "48.47972222"
  },
  {
    "name": "Mirjaveh",
    "countryCode": "IR",
    "stateCode": "11",
    "latitude": "29.01752000",
    "longitude": "61.45046000"
  },
  {
    "name": "Mirza Hesari",
    "countryCode": "IR",
    "stateCode": "13",
    "latitude": "35.12750000",
    "longitude": "48.45944400"
  },
  {
    "name": "Mishen",
    "countryCode": "IR",
    "stateCode": "13",
    "latitude": "34.15750000",
    "longitude": "48.92722222"
  },
  {
    "name": "Mobarakin",
    "countryCode": "IR",
    "stateCode": "13",
    "latitude": "35.09805556",
    "longitude": "49.42416667"
  },
  {
    "name": "Mobārakeh",
    "countryCode": "IR",
    "stateCode": "10",
    "latitude": "32.34651000",
    "longitude": "51.50449000"
  },
  {
    "name": "Mohajeran",
    "countryCode": "IR",
    "stateCode": "13",
    "latitude": "35.07388889",
    "longitude": "48.61666667"
  },
  {
    "name": "Mohammadabad-e Chulak",
    "countryCode": "IR",
    "stateCode": "13",
    "latitude": "34.24666667",
    "longitude": "48.30444444"
  },
  {
    "name": "Mohammadiyeh-e Sofla",
    "countryCode": "IR",
    "stateCode": "13",
    "latitude": "34.14611111",
    "longitude": "48.33861111"
  },
  {
    "name": "Mohara",
    "countryCode": "IR",
    "stateCode": "13",
    "latitude": "34.55527778",
    "longitude": "48.86861111"
  },
  {
    "name": "Mohr",
    "countryCode": "IR",
    "stateCode": "07",
    "latitude": "27.55520000",
    "longitude": "52.88360000"
  },
  {
    "name": "Mokarrabi",
    "countryCode": "IR",
    "stateCode": "13",
    "latitude": "34.62500000",
    "longitude": "48.69777778"
  },
  {
    "name": "Molham Darreh",
    "countryCode": "IR",
    "stateCode": "13",
    "latitude": "34.83138889",
    "longitude": "48.14527778"
  },
  {
    "name": "Molla Bodagh",
    "countryCode": "IR",
    "stateCode": "13",
    "latitude": "35.63138889",
    "longitude": "48.73888889"
  },
  {
    "name": "Monavvar Tappeh",
    "countryCode": "IR",
    "stateCode": "13",
    "latitude": "34.72027778",
    "longitude": "47.91111111"
  },
  {
    "name": "Morghabad",
    "countryCode": "IR",
    "stateCode": "13",
    "latitude": "35.18833333",
    "longitude": "49.28277778"
  },
  {
    "name": "Mowdaran",
    "countryCode": "IR",
    "stateCode": "13",
    "latitude": "34.33250000",
    "longitude": "48.47138889"
  },
  {
    "name": "Musa Bolaghi",
    "countryCode": "IR",
    "stateCode": "13",
    "latitude": "34.59888889",
    "longitude": "48.94111111"
  },
  {
    "name": "Mīnāb",
    "countryCode": "IR",
    "stateCode": "22",
    "latitude": "27.13104000",
    "longitude": "57.08716000"
  },
  {
    "name": "Mīāndoāb",
    "countryCode": "IR",
    "stateCode": "04",
    "latitude": "36.96667000",
    "longitude": "46.10961000"
  },
  {
    "name": "Nahandar",
    "countryCode": "IR",
    "stateCode": "13",
    "latitude": "34.14944444",
    "longitude": "48.96833333"
  },
  {
    "name": "Nahavand",
    "countryCode": "IR",
    "stateCode": "13",
    "latitude": "34.18833333",
    "longitude": "48.37694444"
  },
  {
    "name": "Najafiyeh",
    "countryCode": "IR",
    "stateCode": "13",
    "latitude": "34.55500000",
    "longitude": "48.38638889"
  },
  {
    "name": "Najafābād",
    "countryCode": "IR",
    "stateCode": "10",
    "latitude": "32.63440000",
    "longitude": "51.36680000"
  },
  {
    "name": "Nakilabad",
    "countryCode": "IR",
    "stateCode": "13",
    "latitude": "34.36777778",
    "longitude": "48.65694444"
  },
  {
    "name": "Nakin",
    "countryCode": "IR",
    "stateCode": "13",
    "latitude": "35.38805556",
    "longitude": "49.26527778"
  },
  {
    "name": "Namileh",
    "countryCode": "IR",
    "stateCode": "13",
    "latitude": "34.27111111",
    "longitude": "48.82000000"
  },
  {
    "name": "Nanaj",
    "countryCode": "IR",
    "stateCode": "13",
    "latitude": "34.42000000",
    "longitude": "48.75388889"
  },
  {
    "name": "Naqadeh",
    "countryCode": "IR",
    "stateCode": "04",
    "latitude": "36.95530000",
    "longitude": "45.38800000"
  },
  {
    "name": "Nashtārūd",
    "countryCode": "IR",
    "stateCode": "02",
    "latitude": "36.75090000",
    "longitude": "51.02362000"
  },
  {
    "name": "Nazul",
    "countryCode": "IR",
    "stateCode": "13",
    "latitude": "34.22833333",
    "longitude": "48.71805556"
  },
  {
    "name": "Naz̧arābād",
    "countryCode": "IR",
    "stateCode": "30",
    "latitude": "35.95411000",
    "longitude": "50.60607000"
  },
  {
    "name": "Naţanz",
    "countryCode": "IR",
    "stateCode": "10",
    "latitude": "33.51118000",
    "longitude": "51.91808000"
  },
  {
    "name": "Negar Khatun",
    "countryCode": "IR",
    "stateCode": "13",
    "latitude": "35.11861111",
    "longitude": "48.92555556"
  },
  {
    "name": "Negarabad",
    "countryCode": "IR",
    "stateCode": "13",
    "latitude": "35.47583333",
    "longitude": "48.53277778"
  },
  {
    "name": "Nehenjeh",
    "countryCode": "IR",
    "stateCode": "13",
    "latitude": "34.54111111",
    "longitude": "48.71722222"
  },
  {
    "name": "Nekā",
    "countryCode": "IR",
    "stateCode": "02",
    "latitude": "36.65079000",
    "longitude": "53.29905000"
  },
  {
    "name": "Nesar",
    "countryCode": "IR",
    "stateCode": "13",
    "latitude": "34.07694444",
    "longitude": "48.46861111"
  },
  {
    "name": "Neshar",
    "countryCode": "IR",
    "stateCode": "13",
    "latitude": "34.67722222",
    "longitude": "48.86694444"
  },
  {
    "name": "Neyrīz",
    "countryCode": "IR",
    "stateCode": "07",
    "latitude": "29.19880000",
    "longitude": "54.32780000"
  },
  {
    "name": "Neyshābūr",
    "countryCode": "IR",
    "stateCode": "09",
    "latitude": "36.21329000",
    "longitude": "58.79575000"
  },
  {
    "name": "Nimruz",
    "countryCode": "IR",
    "stateCode": "11",
    "latitude": "31.10333000",
    "longitude": "61.41601000"
  },
  {
    "name": "Niyanj",
    "countryCode": "IR",
    "stateCode": "13",
    "latitude": "35.34861111",
    "longitude": "48.91722222"
  },
  {
    "name": "Nosratabad-e Behraz",
    "countryCode": "IR",
    "stateCode": "13",
    "latitude": "34.69222222",
    "longitude": "48.08555556"
  },
  {
    "name": "Nosratabad-e Laklak",
    "countryCode": "IR",
    "stateCode": "13",
    "latitude": "34.66472222",
    "longitude": "47.96277778"
  },
  {
    "name": "Nowshahr",
    "countryCode": "IR",
    "stateCode": "02",
    "latitude": "36.64852000",
    "longitude": "51.49621000"
  },
  {
    "name": "Noşratābād",
    "countryCode": "IR",
    "stateCode": "11",
    "latitude": "29.90000000",
    "longitude": "59.98333000"
  },
  {
    "name": "Nurabad-e Simineh",
    "countryCode": "IR",
    "stateCode": "13",
    "latitude": "34.82194444",
    "longitude": "48.29277778"
  },
  {
    "name": "Nā’īn",
    "countryCode": "IR",
    "stateCode": "10",
    "latitude": "32.86006000",
    "longitude": "53.08749000"
  },
  {
    "name": "Nīkshahr",
    "countryCode": "IR",
    "stateCode": "11",
    "latitude": "26.22580000",
    "longitude": "60.21430000"
  },
  {
    "name": "Nūrābād",
    "countryCode": "IR",
    "stateCode": "07",
    "latitude": "30.11405000",
    "longitude": "51.52174000"
  },
  {
    "name": "Nūrābād",
    "countryCode": "IR",
    "stateCode": "15",
    "latitude": "34.07340000",
    "longitude": "47.97250000"
  },
  {
    "name": "Ojaq",
    "countryCode": "IR",
    "stateCode": "13",
    "latitude": "35.64000000",
    "longitude": "48.84583333"
  },
  {
    "name": "Ommatlar",
    "countryCode": "IR",
    "stateCode": "13",
    "latitude": "35.43611111",
    "longitude": "48.96861111"
  },
  {
    "name": "Omīdcheh",
    "countryCode": "IR",
    "stateCode": "24",
    "latitude": "38.28667000",
    "longitude": "48.14139000"
  },
  {
    "name": "Omīdīyeh",
    "countryCode": "IR",
    "stateCode": "06",
    "latitude": "30.76277000",
    "longitude": "49.70226000"
  },
  {
    "name": "Orūmīyeh",
    "countryCode": "IR",
    "stateCode": "04",
    "latitude": "37.55274000",
    "longitude": "45.07605000"
  },
  {
    "name": "Oshnavīyeh",
    "countryCode": "IR",
    "stateCode": "04",
    "latitude": "37.03970000",
    "longitude": "45.09830000"
  },
  {
    "name": "Oshtoran",
    "countryCode": "IR",
    "stateCode": "13",
    "latitude": "34.63805556",
    "longitude": "48.29555556"
  },
  {
    "name": "Oshtorjin",
    "countryCode": "IR",
    "stateCode": "13",
    "latitude": "34.77583333",
    "longitude": "48.17222222"
  },
  {
    "name": "Ovraqin",
    "countryCode": "IR",
    "stateCode": "13",
    "latitude": "35.28222222",
    "longitude": "48.69111111"
  },
  {
    "name": "Owrteh Qamish",
    "countryCode": "IR",
    "stateCode": "13",
    "latitude": "35.57083333",
    "longitude": "48.62916667"
  },
  {
    "name": "Owryad",
    "countryCode": "IR",
    "stateCode": "13",
    "latitude": "35.26277778",
    "longitude": "48.37250000"
  },
  {
    "name": "Pahnabad",
    "countryCode": "IR",
    "stateCode": "13",
    "latitude": "34.84166667",
    "longitude": "48.61472222"
  },
  {
    "name": "Panbeh Dar",
    "countryCode": "IR",
    "stateCode": "13",
    "latitude": "34.06527778",
    "longitude": "48.44555556"
  },
  {
    "name": "Pardis",
    "countryCode": "IR",
    "stateCode": "23",
    "latitude": "35.74169000",
    "longitude": "51.77705000"
  },
  {
    "name": "Parluk",
    "countryCode": "IR",
    "stateCode": "13",
    "latitude": "35.06555556",
    "longitude": "48.24611111"
  },
  {
    "name": "Parvaraq",
    "countryCode": "IR",
    "stateCode": "13",
    "latitude": "35.15583333",
    "longitude": "48.76777778"
  },
  {
    "name": "Payandeh",
    "countryCode": "IR",
    "stateCode": "13",
    "latitude": "35.44194444",
    "longitude": "48.85305556"
  },
  {
    "name": "Peyhan",
    "countryCode": "IR",
    "stateCode": "13",
    "latitude": "34.12972222",
    "longitude": "48.86750000"
  },
  {
    "name": "Pileh Jin",
    "countryCode": "IR",
    "stateCode": "13",
    "latitude": "35.38388889",
    "longitude": "48.85583333"
  },
  {
    "name": "Pir Anbar",
    "countryCode": "IR",
    "stateCode": "13",
    "latitude": "35.24250000",
    "longitude": "48.51361111"
  },
  {
    "name": "Pir Badam",
    "countryCode": "IR",
    "stateCode": "13",
    "latitude": "35.56722222",
    "longitude": "48.13888889"
  },
  {
    "name": "Pir Khodaverdi",
    "countryCode": "IR",
    "stateCode": "13",
    "latitude": "34.32500000",
    "longitude": "48.92861111"
  },
  {
    "name": "Pir Malu",
    "countryCode": "IR",
    "stateCode": "13",
    "latitude": "34.91222222",
    "longitude": "48.06611111"
  },
  {
    "name": "Pir Mishan",
    "countryCode": "IR",
    "stateCode": "13",
    "latitude": "34.39166667",
    "longitude": "48.66611111"
  },
  {
    "name": "Pir Savaran",
    "countryCode": "IR",
    "stateCode": "13",
    "latitude": "34.11805556",
    "longitude": "48.77861111"
  },
  {
    "name": "Pir Yusof",
    "countryCode": "IR",
    "stateCode": "13",
    "latitude": "34.68888889",
    "longitude": "47.89277778"
  },
  {
    "name": "Piranshahr",
    "countryCode": "IR",
    "stateCode": "04",
    "latitude": "36.70100000",
    "longitude": "45.14130000"
  },
  {
    "name": "Piruz",
    "countryCode": "IR",
    "stateCode": "13",
    "latitude": "34.13500000",
    "longitude": "49.04527778"
  },
  {
    "name": "Pol-e Dokhtar",
    "countryCode": "IR",
    "stateCode": "15",
    "latitude": "33.16667000",
    "longitude": "48.00000000"
  },
  {
    "name": "Poldasht",
    "countryCode": "IR",
    "stateCode": "04",
    "latitude": "39.34800000",
    "longitude": "45.07100000"
  },
  {
    "name": "Poshtjin",
    "countryCode": "IR",
    "stateCode": "13",
    "latitude": "35.31416667",
    "longitude": "49.07166667"
  },
  {
    "name": "Pādegān-e Manjīl",
    "countryCode": "IR",
    "stateCode": "01",
    "latitude": "36.74150000",
    "longitude": "49.41610000"
  },
  {
    "name": "Pārsābād",
    "countryCode": "IR",
    "stateCode": "24",
    "latitude": "39.64820000",
    "longitude": "47.91740000"
  },
  {
    "name": "Pāsārgād",
    "countryCode": "IR",
    "stateCode": "07",
    "latitude": "30.20194000",
    "longitude": "53.18000000"
  },
  {
    "name": "Pāveh",
    "countryCode": "IR",
    "stateCode": "05",
    "latitude": "35.04340000",
    "longitude": "46.35650000"
  },
  {
    "name": "Pīshvā",
    "countryCode": "IR",
    "stateCode": "23",
    "latitude": "35.30800000",
    "longitude": "51.72670000"
  },
  {
    "name": "Qabanqoli",
    "countryCode": "IR",
    "stateCode": "13",
    "latitude": "35.19833333",
    "longitude": "49.17833333"
  },
  {
    "name": "Qader Khalaj",
    "countryCode": "IR",
    "stateCode": "13",
    "latitude": "35.40111111",
    "longitude": "48.73000000"
  },
  {
    "name": "Qadimi",
    "countryCode": "IR",
    "stateCode": "13",
    "latitude": "34.65194444",
    "longitude": "48.73666667"
  },
  {
    "name": "Qahavand",
    "countryCode": "IR",
    "stateCode": "13",
    "latitude": "34.86027778",
    "longitude": "49.00472222"
  },
  {
    "name": "Qahderījān",
    "countryCode": "IR",
    "stateCode": "10",
    "latitude": "32.57670000",
    "longitude": "51.45500000"
  },
  {
    "name": "Qajar Ab-e Sofla",
    "countryCode": "IR",
    "stateCode": "13",
    "latitude": "34.43527778",
    "longitude": "48.97527778"
  },
  {
    "name": "Qarah Day",
    "countryCode": "IR",
    "stateCode": "13",
    "latitude": "35.12527778",
    "longitude": "49.28222222"
  },
  {
    "name": "Qarah Tegini",
    "countryCode": "IR",
    "stateCode": "13",
    "latitude": "34.44027778",
    "longitude": "48.93555556"
  },
  {
    "name": "Qarah Ẕīā’ od Dīn",
    "countryCode": "IR",
    "stateCode": "04",
    "latitude": "38.89150000",
    "longitude": "45.02550000"
  },
  {
    "name": "Qaranqu Darreh",
    "countryCode": "IR",
    "stateCode": "13",
    "latitude": "35.51305556",
    "longitude": "48.17750000"
  },
  {
    "name": "Qarchak",
    "countryCode": "IR",
    "stateCode": "23",
    "latitude": "35.42867000",
    "longitude": "51.57544000"
  },
  {
    "name": "Qarnābād",
    "countryCode": "IR",
    "stateCode": "27",
    "latitude": "36.82203000",
    "longitude": "54.59222000"
  },
  {
    "name": "Qasabestan",
    "countryCode": "IR",
    "stateCode": "13",
    "latitude": "34.42000000",
    "longitude": "48.18777778"
  },
  {
    "name": "Qasemabad-e Laklak",
    "countryCode": "IR",
    "stateCode": "13",
    "latitude": "34.67527778",
    "longitude": "47.97222222"
  },
  {
    "name": "Qaser-e Qand",
    "countryCode": "IR",
    "stateCode": "11",
    "latitude": "26.22693000",
    "longitude": "60.74553000"
  },
  {
    "name": "Qater Owlan",
    "countryCode": "IR",
    "stateCode": "13",
    "latitude": "35.37527778",
    "longitude": "48.93166667"
  },
  {
    "name": "Qayesh",
    "countryCode": "IR",
    "stateCode": "13",
    "latitude": "35.49611111",
    "longitude": "48.86694444"
  },
  {
    "name": "Qazan Qarah",
    "countryCode": "IR",
    "stateCode": "13",
    "latitude": "35.66190000",
    "longitude": "48.08220000"
  },
  {
    "name": "Qazi Mardan",
    "countryCode": "IR",
    "stateCode": "13",
    "latitude": "34.77694444",
    "longitude": "48.01416667"
  },
  {
    "name": "Qazvin",
    "countryCode": "IR",
    "stateCode": "26",
    "latitude": "36.26877000",
    "longitude": "50.00410000"
  },
  {
    "name": "Qaşr-e Qand",
    "countryCode": "IR",
    "stateCode": "11",
    "latitude": "26.24833000",
    "longitude": "60.75250000"
  },
  {
    "name": "Qeshlaq Baba Rostam",
    "countryCode": "IR",
    "stateCode": "13",
    "latitude": "34.14194444",
    "longitude": "48.36250000"
  },
  {
    "name": "Qeshlaq-e Anuch",
    "countryCode": "IR",
    "stateCode": "13",
    "latitude": "34.11611111",
    "longitude": "48.57777778"
  },
  {
    "name": "Qeshlaq-e Deh Ful",
    "countryCode": "IR",
    "stateCode": "13",
    "latitude": "34.24388889",
    "longitude": "48.33750000"
  },
  {
    "name": "Qeshlaq-e Dehnow",
    "countryCode": "IR",
    "stateCode": "13",
    "latitude": "34.50000000",
    "longitude": "48.56666667"
  },
  {
    "name": "Qeshlaq-e Mohammadi",
    "countryCode": "IR",
    "stateCode": "13",
    "latitude": "34.06666667",
    "longitude": "48.91666667"
  },
  {
    "name": "Qeshlaq-e Najaf",
    "countryCode": "IR",
    "stateCode": "13",
    "latitude": "34.37222222",
    "longitude": "48.24500000"
  },
  {
    "name": "Qeshlaq-e Pust Shuran",
    "countryCode": "IR",
    "stateCode": "13",
    "latitude": "34.40305556",
    "longitude": "48.21638889"
  },
  {
    "name": "Qeshlaq-e Qobad",
    "countryCode": "IR",
    "stateCode": "13",
    "latitude": "34.58777778",
    "longitude": "48.89583333"
  },
  {
    "name": "Qeshlaq-e Shirazi",
    "countryCode": "IR",
    "stateCode": "13",
    "latitude": "34.38388889",
    "longitude": "48.93916667"
  },
  {
    "name": "Qeshlaq-e Sofla",
    "countryCode": "IR",
    "stateCode": "13",
    "latitude": "34.70083333",
    "longitude": "49.06972222"
  },
  {
    "name": "Qeshlaq-e Valiollah",
    "countryCode": "IR",
    "stateCode": "13",
    "latitude": "34.35222222",
    "longitude": "48.22416667"
  },
  {
    "name": "Qeshm",
    "countryCode": "IR",
    "stateCode": "22",
    "latitude": "26.78333000",
    "longitude": "55.86667000"
  },
  {
    "name": "Qeydli Bolagh",
    "countryCode": "IR",
    "stateCode": "13",
    "latitude": "35.01500000",
    "longitude": "48.28750000"
  },
  {
    "name": "Qilab",
    "countryCode": "IR",
    "stateCode": "13",
    "latitude": "34.30444444",
    "longitude": "48.06083333"
  },
  {
    "name": "Qods",
    "countryCode": "IR",
    "stateCode": "23",
    "latitude": "35.71667000",
    "longitude": "51.06667000"
  },
  {
    "name": "Qohurd-e Sofla",
    "countryCode": "IR",
    "stateCode": "13",
    "latitude": "35.47111100",
    "longitude": "48.05944400"
  },
  {
    "name": "Qoli Laleh-ye Sofla",
    "countryCode": "IR",
    "stateCode": "13",
    "latitude": "34.52805556",
    "longitude": "48.25972222"
  },
  {
    "name": "Qolqolabad",
    "countryCode": "IR",
    "stateCode": "13",
    "latitude": "35.13083333",
    "longitude": "49.29083333"
  },
  {
    "name": "Qom",
    "countryCode": "IR",
    "stateCode": "25",
    "latitude": "34.64010000",
    "longitude": "50.87640000"
  },
  {
    "name": "Qorveh",
    "countryCode": "IR",
    "stateCode": "12",
    "latitude": "35.16640000",
    "longitude": "47.80564000"
  },
  {
    "name": "Quch Tappeh",
    "countryCode": "IR",
    "stateCode": "13",
    "latitude": "34.92722222",
    "longitude": "48.02611111"
  },
  {
    "name": "Qushjeh",
    "countryCode": "IR",
    "stateCode": "13",
    "latitude": "35.66416667",
    "longitude": "48.30555556"
  },
  {
    "name": "Qā’en",
    "countryCode": "IR",
    "stateCode": "29",
    "latitude": "33.72654000",
    "longitude": "59.18439000"
  },
  {
    "name": "Qūchān",
    "countryCode": "IR",
    "stateCode": "09",
    "latitude": "37.10600000",
    "longitude": "58.50955000"
  },
  {
    "name": "Rafsanjān",
    "countryCode": "IR",
    "stateCode": "08",
    "latitude": "30.40670000",
    "longitude": "55.99390000"
  },
  {
    "name": "Rahmanabad, Malayer",
    "countryCode": "IR",
    "stateCode": "13",
    "latitude": "34.08861111",
    "longitude": "48.58555556"
  },
  {
    "name": "Ramishan",
    "countryCode": "IR",
    "stateCode": "13",
    "latitude": "35.15972222",
    "longitude": "48.80500000"
  },
  {
    "name": "Rasht",
    "countryCode": "IR",
    "stateCode": "01",
    "latitude": "37.27611000",
    "longitude": "49.58862000"
  },
  {
    "name": "Rastguyan",
    "countryCode": "IR",
    "stateCode": "13",
    "latitude": "34.91666667",
    "longitude": "48.21666667"
  },
  {
    "name": "Rasulabad-e Sofla",
    "countryCode": "IR",
    "stateCode": "13",
    "latitude": "34.87888889",
    "longitude": "48.21861111"
  },
  {
    "name": "Ravand-e Vosta",
    "countryCode": "IR",
    "stateCode": "13",
    "latitude": "34.13333333",
    "longitude": "48.34916667"
  },
  {
    "name": "Rayegan-e Sofla",
    "countryCode": "IR",
    "stateCode": "13",
    "latitude": "35.07111100",
    "longitude": "48.66333300"
  },
  {
    "name": "Raz and Jargalan",
    "countryCode": "IR",
    "stateCode": "28",
    "latitude": "37.93060000",
    "longitude": "57.11940000"
  },
  {
    "name": "Razaj",
    "countryCode": "IR",
    "stateCode": "13",
    "latitude": "34.89527778",
    "longitude": "49.14666667"
  },
  {
    "name": "Razan",
    "countryCode": "IR",
    "stateCode": "13",
    "latitude": "35.38638889",
    "longitude": "49.03361111"
  },
  {
    "name": "Razini",
    "countryCode": "IR",
    "stateCode": "13",
    "latitude": "34.26777778",
    "longitude": "48.12611111"
  },
  {
    "name": "Rehnān",
    "countryCode": "IR",
    "stateCode": "10",
    "latitude": "32.68325000",
    "longitude": "51.60158000"
  },
  {
    "name": "Rey",
    "countryCode": "IR",
    "stateCode": "23",
    "latitude": "35.37448000",
    "longitude": "51.27743000"
  },
  {
    "name": "Reza Baghi",
    "countryCode": "IR",
    "stateCode": "13",
    "latitude": "35.18277778",
    "longitude": "49.31444444"
  },
  {
    "name": "Rezvankadeh",
    "countryCode": "IR",
    "stateCode": "13",
    "latitude": "34.25000000",
    "longitude": "48.83333333"
  },
  {
    "name": "Reẕvānshahr",
    "countryCode": "IR",
    "stateCode": "01",
    "latitude": "37.54976000",
    "longitude": "49.13703000"
  },
  {
    "name": "Rivasijan",
    "countryCode": "IR",
    "stateCode": "13",
    "latitude": "34.57722222",
    "longitude": "48.43194444"
  },
  {
    "name": "Robat-e Sheverin",
    "countryCode": "IR",
    "stateCode": "13",
    "latitude": "34.86111111",
    "longitude": "48.60027778"
  },
  {
    "name": "Robāţ Karīm",
    "countryCode": "IR",
    "stateCode": "23",
    "latitude": "35.48460000",
    "longitude": "51.08290000"
  },
  {
    "name": "Rostam",
    "countryCode": "IR",
    "stateCode": "07",
    "latitude": "30.40000000",
    "longitude": "51.41667000"
  },
  {
    "name": "Rud Avar",
    "countryCode": "IR",
    "stateCode": "13",
    "latitude": "34.55055556",
    "longitude": "48.41055556"
  },
  {
    "name": "Rud-e Hasan-e Sofla",
    "countryCode": "IR",
    "stateCode": "13",
    "latitude": "34.12444444",
    "longitude": "48.37166667"
  },
  {
    "name": "Rumeshkhan County",
    "countryCode": "IR",
    "stateCode": "15",
    "latitude": "33.27960000",
    "longitude": "47.48995000"
  },
  {
    "name": "Rāmhormoz",
    "countryCode": "IR",
    "stateCode": "06",
    "latitude": "31.27997000",
    "longitude": "49.60351000"
  },
  {
    "name": "Rāmshīr",
    "countryCode": "IR",
    "stateCode": "06",
    "latitude": "30.89315000",
    "longitude": "49.40787000"
  },
  {
    "name": "Rāvar",
    "countryCode": "IR",
    "stateCode": "08",
    "latitude": "31.26562000",
    "longitude": "56.80545000"
  },
  {
    "name": "Rīgān",
    "countryCode": "IR",
    "stateCode": "08",
    "latitude": "28.43333000",
    "longitude": "59.15000000"
  },
  {
    "name": "Rūdsar",
    "countryCode": "IR",
    "stateCode": "01",
    "latitude": "37.13696000",
    "longitude": "50.29174000"
  },
  {
    "name": "Sabzevar",
    "countryCode": "IR",
    "stateCode": "09",
    "latitude": "36.21260000",
    "longitude": "57.68191000"
  },
  {
    "name": "Safa Riz",
    "countryCode": "IR",
    "stateCode": "13",
    "latitude": "35.40694444",
    "longitude": "48.30611111"
  },
  {
    "name": "Sahamabad",
    "countryCode": "IR",
    "stateCode": "13",
    "latitude": "34.55388889",
    "longitude": "48.30472222"
  },
  {
    "name": "Salehabad",
    "countryCode": "IR",
    "stateCode": "13",
    "latitude": "34.92361111",
    "longitude": "48.34250000"
  },
  {
    "name": "Salilak",
    "countryCode": "IR",
    "stateCode": "13",
    "latitude": "35.25277778",
    "longitude": "49.11888889"
  },
  {
    "name": "Salmās",
    "countryCode": "IR",
    "stateCode": "04",
    "latitude": "38.19730000",
    "longitude": "44.76530000"
  },
  {
    "name": "Saluk",
    "countryCode": "IR",
    "stateCode": "13",
    "latitude": "34.34138889",
    "longitude": "48.99305556"
  },
  {
    "name": "Saman",
    "countryCode": "IR",
    "stateCode": "14",
    "latitude": "32.44980000",
    "longitude": "50.91379000"
  },
  {
    "name": "Samen",
    "countryCode": "IR",
    "stateCode": "13",
    "latitude": "34.20916667",
    "longitude": "48.70583333"
  },
  {
    "name": "Sanaj",
    "countryCode": "IR",
    "stateCode": "13",
    "latitude": "35.12222222",
    "longitude": "49.02555556"
  },
  {
    "name": "Sanandaj",
    "countryCode": "IR",
    "stateCode": "12",
    "latitude": "35.31495000",
    "longitude": "46.99883000"
  },
  {
    "name": "Sanjuzan",
    "countryCode": "IR",
    "stateCode": "13",
    "latitude": "34.65611111",
    "longitude": "48.39333333"
  },
  {
    "name": "Saqqez",
    "countryCode": "IR",
    "stateCode": "12",
    "latitude": "36.24992000",
    "longitude": "46.27350000"
  },
  {
    "name": "Sar Duran",
    "countryCode": "IR",
    "stateCode": "13",
    "latitude": "34.20305556",
    "longitude": "48.26388889"
  },
  {
    "name": "Sarab-e Tajar",
    "countryCode": "IR",
    "stateCode": "13",
    "latitude": "34.23222222",
    "longitude": "48.60638889"
  },
  {
    "name": "Sarakhs",
    "countryCode": "IR",
    "stateCode": "09",
    "latitude": "36.54490000",
    "longitude": "61.15770000"
  },
  {
    "name": "Saravak",
    "countryCode": "IR",
    "stateCode": "13",
    "latitude": "35.17916667",
    "longitude": "48.94638889"
  },
  {
    "name": "Sarayjuq",
    "countryCode": "IR",
    "stateCode": "13",
    "latitude": "35.42888889",
    "longitude": "47.96194444"
  },
  {
    "name": "Sardasht",
    "countryCode": "IR",
    "stateCode": "04",
    "latitude": "36.21670000",
    "longitude": "45.48320000"
  },
  {
    "name": "Sari",
    "countryCode": "IR",
    "stateCode": "02",
    "latitude": "36.56332000",
    "longitude": "53.06009000"
  },
  {
    "name": "Sarijlu",
    "countryCode": "IR",
    "stateCode": "13",
    "latitude": "35.61250000",
    "longitude": "48.89222222"
  },
  {
    "name": "Sarkan",
    "countryCode": "IR",
    "stateCode": "13",
    "latitude": "34.60166667",
    "longitude": "48.45055556"
  },
  {
    "name": "Sarpol-e Z̄ahāb",
    "countryCode": "IR",
    "stateCode": "05",
    "latitude": "34.46109000",
    "longitude": "45.86264000"
  },
  {
    "name": "Sarāb",
    "countryCode": "IR",
    "stateCode": "03",
    "latitude": "37.94080000",
    "longitude": "47.53670000"
  },
  {
    "name": "Savadkuh-e Shomali",
    "countryCode": "IR",
    "stateCode": "02",
    "latitude": "35.97765000",
    "longitude": "52.68246000"
  },
  {
    "name": "Saziyan",
    "countryCode": "IR",
    "stateCode": "13",
    "latitude": "34.57361111",
    "longitude": "48.15361111"
  },
  {
    "name": "Sefid Khaneh",
    "countryCode": "IR",
    "stateCode": "13",
    "latitude": "34.06972222",
    "longitude": "48.50805556"
  },
  {
    "name": "Segavi",
    "countryCode": "IR",
    "stateCode": "13",
    "latitude": "34.58527778",
    "longitude": "48.10083333"
  },
  {
    "name": "Selseleh",
    "countryCode": "IR",
    "stateCode": "15",
    "latitude": "33.83333000",
    "longitude": "48.16667000"
  },
  {
    "name": "Semnan",
    "countryCode": "IR",
    "stateCode": "20",
    "latitude": "35.57691000",
    "longitude": "53.39205000"
  },
  {
    "name": "Semīrom",
    "countryCode": "IR",
    "stateCode": "10",
    "latitude": "31.41667000",
    "longitude": "51.56667000"
  },
  {
    "name": "Setaq",
    "countryCode": "IR",
    "stateCode": "13",
    "latitude": "35.04583300",
    "longitude": "49.29638900"
  },
  {
    "name": "Shademaneh",
    "countryCode": "IR",
    "stateCode": "13",
    "latitude": "34.36166667",
    "longitude": "48.28055556"
  },
  {
    "name": "Shahr-e Bābak",
    "countryCode": "IR",
    "stateCode": "08",
    "latitude": "30.11650000",
    "longitude": "55.11860000"
  },
  {
    "name": "Shahr-e Kord",
    "countryCode": "IR",
    "stateCode": "14",
    "latitude": "32.32612000",
    "longitude": "50.85720000"
  },
  {
    "name": "Shahr-e Qadīm-e Lār",
    "countryCode": "IR",
    "stateCode": "07",
    "latitude": "27.68336000",
    "longitude": "54.34172000"
  },
  {
    "name": "Shahrak-e Emām Ḩasan",
    "countryCode": "IR",
    "stateCode": "23",
    "latitude": "35.48846000",
    "longitude": "51.34567000"
  },
  {
    "name": "Shahrak-e Kūlūrī",
    "countryCode": "IR",
    "stateCode": "06",
    "latitude": "32.35276000",
    "longitude": "48.47059000"
  },
  {
    "name": "Shahrak-e Pābedānā",
    "countryCode": "IR",
    "stateCode": "08",
    "latitude": "31.13444000",
    "longitude": "56.39806000"
  },
  {
    "name": "Shahre Jadide Andisheh",
    "countryCode": "IR",
    "stateCode": "23",
    "latitude": "35.68030000",
    "longitude": "51.01930000"
  },
  {
    "name": "Shahrekord",
    "countryCode": "IR",
    "stateCode": "14",
    "latitude": "32.31667000",
    "longitude": "50.80000000"
  },
  {
    "name": "Shahrestan-e Kalār Dasht",
    "countryCode": "IR",
    "stateCode": "02",
    "latitude": "36.45000000",
    "longitude": "51.11667000"
  },
  {
    "name": "Shahrestān-e Abarkūh",
    "countryCode": "IR",
    "stateCode": "21",
    "latitude": "31.00000000",
    "longitude": "53.41667000"
  },
  {
    "name": "Shahrestān-e Abū Mūsá",
    "countryCode": "IR",
    "stateCode": "22",
    "latitude": "26.05474000",
    "longitude": "55.16243000"
  },
  {
    "name": "Shahrestān-e Ahvāz",
    "countryCode": "IR",
    "stateCode": "06",
    "latitude": "31.25000000",
    "longitude": "48.65000000"
  },
  {
    "name": "Shahrestān-e Alīgūdarz",
    "countryCode": "IR",
    "stateCode": "15",
    "latitude": "33.08333000",
    "longitude": "49.48333000"
  },
  {
    "name": "Shahrestān-e Andīkā",
    "countryCode": "IR",
    "stateCode": "06",
    "latitude": "32.16667000",
    "longitude": "49.53333000"
  },
  {
    "name": "Shahrestān-e Andīmeshk",
    "countryCode": "IR",
    "stateCode": "06",
    "latitude": "32.70000000",
    "longitude": "48.30000000"
  },
  {
    "name": "Shahrestān-e Anār",
    "countryCode": "IR",
    "stateCode": "08",
    "latitude": "30.85000000",
    "longitude": "55.35000000"
  },
  {
    "name": "Shahrestān-e Ardabīl",
    "countryCode": "IR",
    "stateCode": "24",
    "latitude": "38.25000000",
    "longitude": "48.30000000"
  },
  {
    "name": "Shahrestān-e Ardakān",
    "countryCode": "IR",
    "stateCode": "21",
    "latitude": "32.65000000",
    "longitude": "54.65000000"
  },
  {
    "name": "Shahrestān-e Ardestān",
    "countryCode": "IR",
    "stateCode": "10",
    "latitude": "33.45000000",
    "longitude": "52.43333000"
  },
  {
    "name": "Shahrestān-e Arsanjān",
    "countryCode": "IR",
    "stateCode": "07",
    "latitude": "29.80000000",
    "longitude": "53.41667000"
  },
  {
    "name": "Shahrestān-e Arāk",
    "countryCode": "IR",
    "stateCode": "00",
    "latitude": "34.13333000",
    "longitude": "49.80000000"
  },
  {
    "name": "Shahrestān-e Ashkez̄ar",
    "countryCode": "IR",
    "stateCode": "21",
    "latitude": "32.00000000",
    "longitude": "53.66667000"
  },
  {
    "name": "Shahrestān-e Aznā",
    "countryCode": "IR",
    "stateCode": "15",
    "latitude": "33.46667000",
    "longitude": "49.41667000"
  },
  {
    "name": "Shahrestān-e Bahma’ī",
    "countryCode": "IR",
    "stateCode": "17",
    "latitude": "31.05000000",
    "longitude": "50.08333000"
  },
  {
    "name": "Shahrestān-e Bahārestān",
    "countryCode": "IR",
    "stateCode": "23",
    "latitude": "35.53333000",
    "longitude": "51.15000000"
  },
  {
    "name": "Shahrestān-e Bajestān",
    "countryCode": "IR",
    "stateCode": "09",
    "latitude": "34.58333000",
    "longitude": "58.13333000"
  },
  {
    "name": "Shahrestān-e Bandar ‘Abbās",
    "countryCode": "IR",
    "stateCode": "22",
    "latitude": "27.55000000",
    "longitude": "56.28333000"
  },
  {
    "name": "Shahrestān-e Bandar-e Anzalī",
    "countryCode": "IR",
    "stateCode": "01",
    "latitude": "37.45000000",
    "longitude": "49.36667000"
  },
  {
    "name": "Shahrestān-e Bandar-e Māhshahr",
    "countryCode": "IR",
    "stateCode": "06",
    "latitude": "30.63333000",
    "longitude": "49.11667000"
  },
  {
    "name": "Shahrestān-e Bardsīr",
    "countryCode": "IR",
    "stateCode": "08",
    "latitude": "29.83333000",
    "longitude": "56.58333000"
  },
  {
    "name": "Shahrestān-e Bashāgard",
    "countryCode": "IR",
    "stateCode": "22",
    "latitude": "26.45000000",
    "longitude": "58.08333000"
  },
  {
    "name": "Shahrestān-e Bavānāt",
    "countryCode": "IR",
    "stateCode": "07",
    "latitude": "30.33333000",
    "longitude": "53.66667000"
  },
  {
    "name": "Shahrestān-e Behbahān",
    "countryCode": "IR",
    "stateCode": "06",
    "latitude": "30.56667000",
    "longitude": "50.20000000"
  },
  {
    "name": "Shahrestān-e Behābād",
    "countryCode": "IR",
    "stateCode": "21",
    "latitude": "32.01667000",
    "longitude": "56.15000000"
  },
  {
    "name": "Shahrestān-e Bojnūrd",
    "countryCode": "IR",
    "stateCode": "28",
    "latitude": "37.83333000",
    "longitude": "57.33333000"
  },
  {
    "name": "Shahrestān-e Bonāb",
    "countryCode": "IR",
    "stateCode": "03",
    "latitude": "37.33338000",
    "longitude": "46.00009000"
  },
  {
    "name": "Shahrestān-e Borkhvār",
    "countryCode": "IR",
    "stateCode": "10",
    "latitude": "32.98333000",
    "longitude": "51.76667000"
  },
  {
    "name": "Shahrestān-e Borūjen",
    "countryCode": "IR",
    "stateCode": "14",
    "latitude": "31.90000000",
    "longitude": "51.20000000"
  },
  {
    "name": "Shahrestān-e Borūjerd",
    "countryCode": "IR",
    "stateCode": "15",
    "latitude": "33.88333000",
    "longitude": "48.71667000"
  },
  {
    "name": "Shahrestān-e Bostānābād",
    "countryCode": "IR",
    "stateCode": "03",
    "latitude": "37.83333000",
    "longitude": "46.83333000"
  },
  {
    "name": "Shahrestān-e Bowyer Aḩmad",
    "countryCode": "IR",
    "stateCode": "17",
    "latitude": "30.78333000",
    "longitude": "51.11667000"
  },
  {
    "name": "Shahrestān-e Bābol",
    "countryCode": "IR",
    "stateCode": "02",
    "latitude": "36.31667000",
    "longitude": "52.65000000"
  },
  {
    "name": "Shahrestān-e Bābolsar",
    "countryCode": "IR",
    "stateCode": "02",
    "latitude": "36.66667000",
    "longitude": "52.73333000"
  },
  {
    "name": "Shahrestān-e Bāfq",
    "countryCode": "IR",
    "stateCode": "21",
    "latitude": "31.66667000",
    "longitude": "55.41667000"
  },
  {
    "name": "Shahrestān-e Bāft",
    "countryCode": "IR",
    "stateCode": "08",
    "latitude": "29.10000000",
    "longitude": "56.51667000"
  },
  {
    "name": "Shahrestān-e Bākharz",
    "countryCode": "IR",
    "stateCode": "09",
    "latitude": "35.01667000",
    "longitude": "60.28333000"
  },
  {
    "name": "Shahrestān-e Bāneh",
    "countryCode": "IR",
    "stateCode": "12",
    "latitude": "35.98333000",
    "longitude": "45.81667000"
  },
  {
    "name": "Shahrestān-e Bāsht",
    "countryCode": "IR",
    "stateCode": "17",
    "latitude": "30.45000000",
    "longitude": "51.11667000"
  },
  {
    "name": "Shahrestān-e Bāvī",
    "countryCode": "IR",
    "stateCode": "06",
    "latitude": "31.50000000",
    "longitude": "48.95000000"
  },
  {
    "name": "Shahrestān-e Bījār",
    "countryCode": "IR",
    "stateCode": "12",
    "latitude": "35.86667000",
    "longitude": "47.60000000"
  },
  {
    "name": "Shahrestān-e Bīleh Savār",
    "countryCode": "IR",
    "stateCode": "24",
    "latitude": "39.36667000",
    "longitude": "47.96667000"
  },
  {
    "name": "Shahrestān-e Bīnālūd",
    "countryCode": "IR",
    "stateCode": "09",
    "latitude": "36.26667000",
    "longitude": "59.33333000"
  },
  {
    "name": "Shahrestān-e Bīrjand",
    "countryCode": "IR",
    "stateCode": "29",
    "latitude": "33.00669000",
    "longitude": "59.07223000"
  },
  {
    "name": "Shahrestān-e Būkān",
    "countryCode": "IR",
    "stateCode": "04",
    "latitude": "36.60002000",
    "longitude": "46.16664000"
  },
  {
    "name": "Shahrestān-e Būshehr",
    "countryCode": "IR",
    "stateCode": "18",
    "latitude": "29.14186000",
    "longitude": "50.98160000"
  },
  {
    "name": "Shahrestān-e Bū’īn Zahrā",
    "countryCode": "IR",
    "stateCode": "26",
    "latitude": "35.61667000",
    "longitude": "49.70000000"
  },
  {
    "name": "Shahrestān-e Charām",
    "countryCode": "IR",
    "stateCode": "17",
    "latitude": "30.76667000",
    "longitude": "50.85000000"
  },
  {
    "name": "Shahrestān-e Chenārān",
    "countryCode": "IR",
    "stateCode": "09",
    "latitude": "36.66667000",
    "longitude": "59.15000000"
  },
  {
    "name": "Shahrestān-e Chābahār",
    "countryCode": "IR",
    "stateCode": "11",
    "latitude": "25.56832000",
    "longitude": "61.21075000"
  },
  {
    "name": "Shahrestān-e Chādegān",
    "countryCode": "IR",
    "stateCode": "10",
    "latitude": "32.75000000",
    "longitude": "50.50000000"
  },
  {
    "name": "Shahrestān-e Chāldorān",
    "countryCode": "IR",
    "stateCode": "04",
    "latitude": "39.06667000",
    "longitude": "44.33333000"
  },
  {
    "name": "Shahrestān-e Chālūs",
    "countryCode": "IR",
    "stateCode": "02",
    "latitude": "36.45000000",
    "longitude": "51.16667000"
  },
  {
    "name": "Shahrestān-e Chārāvīmāq",
    "countryCode": "IR",
    "stateCode": "03",
    "latitude": "37.10012000",
    "longitude": "47.06680000"
  },
  {
    "name": "Shahrestān-e Dalgān",
    "countryCode": "IR",
    "stateCode": "11",
    "latitude": "27.31667000",
    "longitude": "59.30000000"
  },
  {
    "name": "Shahrestān-e Damāvand",
    "countryCode": "IR",
    "stateCode": "23",
    "latitude": "35.63005000",
    "longitude": "52.13750000"
  },
  {
    "name": "Shahrestān-e Danā",
    "countryCode": "IR",
    "stateCode": "17",
    "latitude": "30.95000000",
    "longitude": "51.28333000"
  },
  {
    "name": "Shahrestān-e Darmīān",
    "countryCode": "IR",
    "stateCode": "29",
    "latitude": "32.95000000",
    "longitude": "60.16667000"
  },
  {
    "name": "Shahrestān-e Dasht-e Āzādegān",
    "countryCode": "IR",
    "stateCode": "06",
    "latitude": "31.70000000",
    "longitude": "48.06667000"
  },
  {
    "name": "Shahrestān-e Dashtestān",
    "countryCode": "IR",
    "stateCode": "18",
    "latitude": "29.28333000",
    "longitude": "51.25000000"
  },
  {
    "name": "Shahrestān-e Dashtī",
    "countryCode": "IR",
    "stateCode": "18",
    "latitude": "28.48685000",
    "longitude": "51.56182000"
  },