[
  {
    "name": "Abashiri",
    "countryCode": "JP",
    "stateCode": "01",
    "latitude": "44.02127000",
    "longitude": "144.26971000"
  },
  {
    "name": "Abashiri Shi",
    "countryCode": "JP",
    "stateCode": "01",
    "latitude": "43.98565000",
    "longitude": "144.21051000"
  },
  {
    "name": "Abiko",
    "countryCode": "JP",
    "stateCode": "12",
    "latitude": "35.86667000",
    "longitude": "140.01667000"
  },
  {
    "name": "Abiko-shi",
    "countryCode": "JP",
    "stateCode": "12",
    "latitude": "35.86947000",
    "longitude": "140.06510000"
  },
  {
    "name": "Achi",
    "countryCode": "JP",
    "stateCode": "39",
    "latitude": "35.44388889",
    "longitude": "137.74750000"
  },
  {
    "name": "Adachi Ku",
    "countryCode": "JP",
    "stateCode": "13",
    "latitude": "35.77880000",
    "longitude": "139.79509000"
  },
  {
    "name": "Agano Shi",
    "countryCode": "JP",
    "stateCode": "15",
    "latitude": "37.81420000",
    "longitude": "139.25914000"
  },
  {
    "name": "Agatsuma-gun",
    "countryCode": "JP",
    "stateCode": "10",
    "latitude": "36.57368000",
    "longitude": "138.67243000"
  },
  {
    "name": "Agematsu",
    "countryCode": "JP",
    "stateCode": "39",
    "latitude": "35.78388889",
    "longitude": "137.69416667"
  },
  {
    "name": "Ageo Shi",
    "countryCode": "JP",
    "stateCode": "11",
    "latitude": "35.97043000",
    "longitude": "139.58159000"
  },
  {
    "name": "Ageoshimo",
    "countryCode": "JP",
    "stateCode": "11",
    "latitude": "35.97145000",
    "longitude": "139.61382000"
  },
  {
    "name": "Aioi",
    "countryCode": "JP",
    "stateCode": "28",
    "latitude": "34.80361000",
    "longitude": "134.46806000"
  },
  {
    "name": "Aioi Shi",
    "countryCode": "JP",
    "stateCode": "28",
    "latitude": "34.82719000",
    "longitude": "134.46699000"
  },
  {
    "name": "Aira Shi",
    "countryCode": "JP",
    "stateCode": "46",
    "latitude": "31.78460000",
    "longitude": "130.60668000"
  },
  {
    "name": "Aisai-shi",
    "countryCode": "JP",
    "stateCode": "23",
    "latitude": "35.17234000",
    "longitude": "136.69478000"
  },
  {
    "name": "Aizu-wakamatsu Shi",
    "countryCode": "JP",
    "stateCode": "07",
    "latitude": "37.45071000",
    "longitude": "139.96814000"
  },
  {
    "name": "Akabira",
    "countryCode": "JP",
    "stateCode": "01",
    "latitude": "43.55139000",
    "longitude": "142.05306000"
  },
  {
    "name": "Akabira-shi",
    "countryCode": "JP",
    "stateCode": "01",
    "latitude": "43.56790000",
    "longitude": "142.06281000"
  },
  {
    "name": "Akaiwa Shi",
    "countryCode": "JP",
    "stateCode": "33",
    "latitude": "34.83767000",
    "longitude": "134.01792000"
  },
  {
    "name": "Akashi",
    "countryCode": "JP",
    "stateCode": "28",
    "latitude": "34.65524000",
    "longitude": "135.00687000"
  },
  {
    "name": "Akashi Shi",
    "countryCode": "JP",
    "stateCode": "28",
    "latitude": "34.68277000",
    "longitude": "134.94029000"
  },
  {
    "name": "Aki",
    "countryCode": "JP",
    "stateCode": "39",
    "latitude": "33.50250000",
    "longitude": "133.90722222"
  },
  {
    "name": "Aki-takata Shi",
    "countryCode": "JP",
    "stateCode": "34",
    "latitude": "34.70248000",
    "longitude": "132.67770000"
  },
  {
    "name": "Akiruno-shi",
    "countryCode": "JP",
    "stateCode": "13",
    "latitude": "35.73285000",
    "longitude": "139.22525000"
  },
  {
    "name": "Akishima-shi",
    "countryCode": "JP",
    "stateCode": "13",
    "latitude": "35.70782000",
    "longitude": "139.36418000"
  },
  {
    "name": "Akita",
    "countryCode": "JP",
    "stateCode": "05",
    "latitude": "39.71667000",
    "longitude": "140.11667000"
  },
  {
    "name": "Akita Shi",
    "countryCode": "JP",
    "stateCode": "05",
    "latitude": "39.71043000",
    "longitude": "140.23207000"
  },
  {
    "name": "Akune",
    "countryCode": "JP",
    "stateCode": "46",
    "latitude": "32.01667000",
    "longitude": "130.20000000"
  },
  {
    "name": "Akune Shi",
    "countryCode": "JP",
    "stateCode": "46",
    "latitude": "32.02516000",
    "longitude": "130.19768000"
  },
  {
    "name": "Ama-gun",
    "countryCode": "JP",
    "stateCode": "23",
    "latitude": "35.17174000",
    "longitude": "136.82308000"
  },
  {
    "name": "Amagasaki Shi",
    "countryCode": "JP",
    "stateCode": "28",
    "latitude": "34.73544000",
    "longitude": "135.41181000"
  },
  {
    "name": "Amagi",
    "countryCode": "JP",
    "stateCode": "40",
    "latitude": "33.41804000",
    "longitude": "130.65413000"
  },
  {
    "name": "Amakusa Gun",
    "countryCode": "JP",
    "stateCode": "43",
    "latitude": "32.48513000",
    "longitude": "130.07240000"
  },
  {
    "name": "Amakusa Shi",
    "countryCode": "JP",
    "stateCode": "43",
    "latitude": "32.38515000",
    "longitude": "130.15014000"
  },
  {
    "name": "Amami",
    "countryCode": "JP",
    "stateCode": "46",
    "latitude": "28.37690000",
    "longitude": "129.49379000"
  },
  {
    "name": "Amami Shi",
    "countryCode": "JP",
    "stateCode": "46",
    "latitude": "28.34542000",
    "longitude": "129.50221000"
  },
  {
    "name": "Ami",
    "countryCode": "JP",
    "stateCode": "08",
    "latitude": "36.03333000",
    "longitude": "140.20000000"
  },
  {
    "name": "Anan",
    "countryCode": "JP",
    "stateCode": "39",
    "latitude": "35.32361111",
    "longitude": "137.81611111"
  },
  {
    "name": "Anan Shi",
    "countryCode": "JP",
    "stateCode": "36",
    "latitude": "33.87716000",
    "longitude": "134.60644000"
  },
  {
    "name": "Anjō-shi",
    "countryCode": "JP",
    "stateCode": "23",
    "latitude": "34.94341000",
    "longitude": "137.07165000"
  },
  {
    "name": "Annaka",
    "countryCode": "JP",
    "stateCode": "10",
    "latitude": "36.33011000",
    "longitude": "138.89585000"
  },
  {
    "name": "Annaka Shi",
    "countryCode": "JP",
    "stateCode": "10",
    "latitude": "36.34079000",
    "longitude": "138.77647000"
  },
  {
    "name": "Aoki",
    "countryCode": "JP",
    "stateCode": "39",
    "latitude": "36.37000000",
    "longitude": "138.12861111"
  },
  {
    "name": "Aomori",
    "countryCode": "JP",
    "stateCode": "02",
    "latitude": "40.81667000",
    "longitude": "140.73333000"
  },
  {
    "name": "Aomori Shi",
    "countryCode": "JP",
    "stateCode": "02",
    "latitude": "40.77001000",
    "longitude": "140.75423000"
  },
  {
    "name": "Arai",
    "countryCode": "JP",
    "stateCode": "15",
    "latitude": "37.00059000",
    "longitude": "138.22590000"
  },
  {
    "name": "Arakawa Ku",
    "countryCode": "JP",
    "stateCode": "13",
    "latitude": "35.73993000",
    "longitude": "139.78130000"
  },
  {
    "name": "Arao Shi",
    "countryCode": "JP",
    "stateCode": "43",
    "latitude": "32.97619000",
    "longitude": "130.47562000"
  },
  {
    "name": "Arashiyama",
    "countryCode": "JP",
    "stateCode": "26",
    "latitude": "35.01481000",
    "longitude": "135.67755000"
  },
  {
    "name": "Arida Shi",
    "countryCode": "JP",
    "stateCode": "30",
    "latitude": "34.07937000",
    "longitude": "135.14230000"
  },
  {
    "name": "Asago-shi",
    "countryCode": "JP",
    "stateCode": "28",
    "latitude": "35.26249000",
    "longitude": "134.82527000"
  },
  {
    "name": "Asahi",
    "countryCode": "JP",
    "stateCode": "18",
    "latitude": "35.97259000",
    "longitude": "136.12455000"
  },
  {
    "name": "Asahi",
    "countryCode": "JP",
    "stateCode": "39",
    "latitude": "36.12361111",
    "longitude": "137.86638889"
  },
  {
    "name": "Asahi-shi",
    "countryCode": "JP",
    "stateCode": "12",
    "latitude": "35.73443000",
    "longitude": "140.65549000"
  },
  {
    "name": "Asahikawa",
    "countryCode": "JP",
    "stateCode": "01",
    "latitude": "43.77063000",
    "longitude": "142.36489000"
  },
  {
    "name": "Asaka",
    "countryCode": "JP",
    "stateCode": "11",
    "latitude": "35.80472000",
    "longitude": "139.60194000"
  },
  {
    "name": "Asaka-shi",
    "countryCode": "JP",
    "stateCode": "11",
    "latitude": "35.80000000",
    "longitude": "139.60000000"
  },
  {
    "name": "Asakuchi Shi",
    "countryCode": "JP",
    "stateCode": "33",
    "latitude": "34.53607000",
    "longitude": "133.59456000"
  },
  {
    "name": "Asakura Shi",
    "countryCode": "JP",
    "stateCode": "40",
    "latitude": "33.41684000",
    "longitude": "130.74167000"
  },
  {
    "name": "Ashibetsu",
    "countryCode": "JP",
    "stateCode": "01",
    "latitude": "43.50972000",
    "longitude": "142.18556000"
  },
  {
    "name": "Ashibetsu-shi",
    "countryCode": "JP",
    "stateCode": "01",
    "latitude": "43.42542000",
    "longitude": "142.20161000"
  },
  {
    "name": "Ashikaga",
    "countryCode": "JP",
    "stateCode": "09",
    "latitude": "36.33333000",
    "longitude": "139.45000000"
  },
  {
    "name": "Ashiya",
    "countryCode": "JP",
    "stateCode": "28",
    "latitude": "34.72807000",
    "longitude": "135.30264000"
  },
  {
    "name": "Ashiya Shi",
    "countryCode": "JP",
    "stateCode": "28",
    "latitude": "34.74853000",
    "longitude": "135.29759000"
  },
  {
    "name": "Aso-shi",
    "countryCode": "JP",
    "stateCode": "43",
    "latitude": "32.95608000",
    "longitude": "131.09458000"
  },
  {
    "name": "Atami",
    "countryCode": "JP",
    "stateCode": "22",
    "latitude": "35.08834000",
    "longitude": "139.05325000"
  },
  {
    "name": "Atami-shi",
    "countryCode": "JP",
    "stateCode": "22",
    "latitude": "35.08957000",
    "longitude": "139.06357000"
  },
  {
    "name": "Atsugi",
    "countryCode": "JP",
    "stateCode": "14",
    "latitude": "35.44272000",
    "longitude": "139.36931000"
  },
  {
    "name": "Atsugi Shi",
    "countryCode": "JP",
    "stateCode": "14",
    "latitude": "35.46513000",
    "longitude": "139.32707000"
  },
  {
    "name": "Awa-shi",
    "countryCode": "JP",
    "stateCode": "36",
    "latitude": "34.10000000",
    "longitude": "134.25000000"
  },
  {
    "name": "Awaji Shi",
    "countryCode": "JP",
    "stateCode": "28",
    "latitude": "34.49749000",
    "longitude": "134.91331000"
  },
  {
    "name": "Awara-shi",
    "countryCode": "JP",
    "stateCode": "18",
    "latitude": "36.22777000",
    "longitude": "136.25154000"
  },
  {
    "name": "Ayabe",
    "countryCode": "JP",
    "stateCode": "26",
    "latitude": "35.30000000",
    "longitude": "135.25000000"
  },
  {
    "name": "Ayabe-shi",
    "countryCode": "JP",
    "stateCode": "26",
    "latitude": "35.35263000",
    "longitude": "135.34465000"
  },
  {
    "name": "Ayase Shi",
    "countryCode": "JP",
    "stateCode": "14",
    "latitude": "35.43995000",
    "longitude": "139.43089000"
  },
  {
    "name": "Azumino",
    "countryCode": "JP",
    "stateCode": "39",
    "latitude": "36.30388889",
    "longitude": "137.90555556"
  },
  {
    "name": "Azumino-Shi",
    "countryCode": "JP",
    "stateCode": "20",
    "latitude": "36.32716000",
    "longitude": "137.83988000"
  },
  {
    "name": "Bandō",
    "countryCode": "JP",
    "stateCode": "08",
    "latitude": "36.06997000",
    "longitude": "139.86705000"
  },
  {
    "name": "Bandō-shi",
    "countryCode": "JP",
    "stateCode": "08",
    "latitude": "36.06384000",
    "longitude": "139.88787000"
  },
  {
    "name": "Beppu",
    "countryCode": "JP",
    "stateCode": "44",
    "latitude": "33.27945000",
    "longitude": "131.49751000"
  },
  {
    "name": "Beppu Shi",
    "countryCode": "JP",
    "stateCode": "44",
    "latitude": "33.28573000",
    "longitude": "131.45280000"
  },
  {
    "name": "Bibai",
    "countryCode": "JP",
    "stateCode": "01",
    "latitude": "43.32472000",
    "longitude": "141.85861000"
  },
  {
    "name": "Bizen Shi",
    "countryCode": "JP",
    "stateCode": "33",
    "latitude": "34.79504000",
    "longitude": "134.23510000"
  },
  {
    "name": "Bungo-Takada-shi",
    "countryCode": "JP",
    "stateCode": "44",
    "latitude": "33.55670000",
    "longitude": "131.44506000"
  },
  {
    "name": "Bungo-ōno Shi",
    "countryCode": "JP",
    "stateCode": "44",
    "latitude": "32.97249000",
    "longitude": "131.51210000"
  },
  {
    "name": "Bunkyō-ku",
    "countryCode": "JP",
    "stateCode": "13",
    "latitude": "35.71745000",
    "longitude": "139.74729000"
  },
  {
    "name": "Buzen",
    "countryCode": "JP",
    "stateCode": "40",
    "latitude": "33.61153000",
    "longitude": "131.13002000"
  },
  {
    "name": "Buzen-shi",
    "countryCode": "JP",
    "stateCode": "40",
    "latitude": "33.56743000",
    "longitude": "131.08578000"
  },
  {
    "name": "Chatan",
    "countryCode": "JP",
    "stateCode": "47",
    "latitude": "26.30948000",
    "longitude": "127.77024000"
  },
  {
    "name": "Chiba",
    "countryCode": "JP",
    "stateCode": "12",
    "latitude": "35.60000000",
    "longitude": "140.11667000"
  },
  {
    "name": "Chichibu",
    "countryCode": "JP",
    "stateCode": "11",
    "latitude": "35.99028000",
    "longitude": "139.07639000"
  },
  {
    "name": "Chichibu-shi",
    "countryCode": "JP",
    "stateCode": "11",
    "latitude": "35.95966000",
    "longitude": "138.93347000"
  },
  {
    "name": "Chigasaki",
    "countryCode": "JP",
    "stateCode": "14",
    "latitude": "35.33638000",
    "longitude": "139.40434000"
  },
  {
    "name": "Chigasaki Shi",
    "countryCode": "JP",
    "stateCode": "14",
    "latitude": "35.34429000",
    "longitude": "139.40958000"
  },
  {
    "name": "Chikugo Shi",
    "countryCode": "JP",
    "stateCode": "40",
    "latitude": "33.20748000",
    "longitude": "130.49122000"
  },
  {
    "name": "Chikuhoku",
    "countryCode": "JP",
    "stateCode": "39",
    "latitude": "36.42120000",
    "longitude": "138.04011000"
  },
  {
    "name": "Chikuma",
    "countryCode": "JP",
    "stateCode": "39",
    "latitude": "36.50624000",
    "longitude": "138.12352000"
  },
  {
    "name": "Chikuma Shi",
    "countryCode": "JP",
    "stateCode": "20",
    "latitude": "36.50624000",
    "longitude": "138.12352000"
  },
  {
    "name": "Chikusei",
    "countryCode": "JP",
    "stateCode": "08",
    "latitude": "36.31600000",
    "longitude": "139.98238000"
  },
  {
    "name": "Chikusei-shi",
    "countryCode": "JP",
    "stateCode": "08",
    "latitude": "36.28938000",
    "longitude": "139.98692000"
  },
  {
    "name": "Chikushino-shi",
    "countryCode": "JP",
    "stateCode": "40",
    "latitude": "33.49631000",
    "longitude": "130.51560000"
  },
  {
    "name": "Chino",
    "countryCode": "JP",
    "stateCode": "20",
    "latitude": "35.99440000",
    "longitude": "138.15428000"
  },
  {
    "name": "Chino",
    "countryCode": "JP",
    "stateCode": "39",
    "latitude": "35.99555556",
    "longitude": "138.15888889"
  },
  {
    "name": "Chino Shi",
    "countryCode": "JP",
    "stateCode": "20",
    "latitude": "36.02522000",
    "longitude": "138.24668000"
  },
  {
    "name": "Chiryū",
    "countryCode": "JP",
    "stateCode": "23",
    "latitude": "35.00000000",
    "longitude": "137.03333000"
  },
  {
    "name": "Chiryū-shi",
    "countryCode": "JP",
    "stateCode": "23",
    "latitude": "34.99862000",
    "longitude": "137.05000000"
  },
  {
    "name": "Chita",
    "countryCode": "JP",
    "stateCode": "23",
    "latitude": "35.00267000",
    "longitude": "136.86420000"
  },
  {
    "name": "Chita-shi",
    "countryCode": "JP",
    "stateCode": "23",
    "latitude": "34.97048000",
    "longitude": "136.86490000"
  },
  {
    "name": "Chitose",
    "countryCode": "JP",
    "stateCode": "01",
    "latitude": "42.81944000",
    "longitude": "141.65222000"
  },
  {
    "name": "Chitose Shi",
    "countryCode": "JP",
    "stateCode": "01",
    "latitude": "42.80048000",
    "longitude": "141.50951000"
  },
  {
    "name": "Chiyoda-ku",
    "countryCode": "JP",
    "stateCode": "13",
    "latitude": "35.69402000",
    "longitude": "139.75363000"
  },
  {
    "name": "Chōfu",
    "countryCode": "JP",
    "stateCode": "13",
    "latitude": "35.65924000",
    "longitude": "139.54837000"
  },
  {
    "name": "Chōfu-shi",
    "countryCode": "JP",
    "stateCode": "13",
    "latitude": "35.65000000",
    "longitude": "139.55000000"
  },
  {
    "name": "Chōshi-shi",
    "countryCode": "JP",
    "stateCode": "12",
    "latitude": "35.74303000",
    "longitude": "140.77552000"
  },
  {
    "name": "Chūō Ku",
    "countryCode": "JP",
    "stateCode": "13",
    "latitude": "35.66993000",
    "longitude": "139.77705000"
  },
  {
    "name": "Chūō-shi",
    "countryCode": "JP",
    "stateCode": "19",
    "latitude": "35.58418000",
    "longitude": "138.54110000"
  },
  {
    "name": "Daigo",
    "countryCode": "JP",
    "stateCode": "08",
    "latitude": "36.76667000",
    "longitude": "140.35000000"
  },
  {
    "name": "Daisen",
    "countryCode": "JP",
    "stateCode": "05",
    "latitude": "39.44116000",
    "longitude": "140.48961000"
  },
  {
    "name": "Daisen-shi",
    "countryCode": "JP",
    "stateCode": "05",
    "latitude": "39.53710000",
    "longitude": "140.44139000"
  },
  {
    "name": "Daitō Shi",
    "countryCode": "JP",
    "stateCode": "27",
    "latitude": "34.71284000",
    "longitude": "135.63576000"
  },
  {
    "name": "Daitōchō",
    "countryCode": "JP",
    "stateCode": "27",
    "latitude": "34.71378000",
    "longitude": "135.62033000"
  },
  {
    "name": "Date",
    "countryCode": "JP",
    "stateCode": "01",
    "latitude": "42.46806000",
    "longitude": "140.86806000"
  },
  {
    "name": "Date-shi",
    "countryCode": "JP",
    "stateCode": "01",
    "latitude": "42.49337000",
    "longitude": "140.89142000"
  },
  {
    "name": "Date-shi",
    "countryCode": "JP",
    "stateCode": "07",
    "latitude": "37.81667000",
    "longitude": "140.51667000"
  },
  {
    "name": "Dazaifu-shi",
    "countryCode": "JP",
    "stateCode": "40",
    "latitude": "33.50000000",
    "longitude": "130.53333000"
  },
  {
    "name": "Ebetsu",
    "countryCode": "JP",
    "stateCode": "01",
    "latitude": "43.10806000",
    "longitude": "141.55056000"
  },
  {
    "name": "Ebina Shi",
    "countryCode": "JP",
    "stateCode": "14",
    "latitude": "35.43762000",
    "longitude": "139.39307000"
  },
  {
    "name": "Ebino-shi",
    "countryCode": "JP",
    "stateCode": "45",
    "latitude": "32.01667000",
    "longitude": "130.80000000"
  },
  {
    "name": "Echizen-shi",
    "countryCode": "JP",
    "stateCode": "18",
    "latitude": "35.88946000",
    "longitude": "136.17723000"
  },
  {
    "name": "Edogawa Ku",
    "countryCode": "JP",
    "stateCode": "13",
    "latitude": "35.69242000",
    "longitude": "139.87567000"
  },
  {
    "name": "Edosaki",
    "countryCode": "JP",
    "stateCode": "08",
    "latitude": "35.95000000",
    "longitude": "140.31667000"
  },
  {
    "name": "Ena-shi",
    "countryCode": "JP",
    "stateCode": "21",
    "latitude": "35.44722000",
    "longitude": "137.41810000"
  },
  {
    "name": "Eniwa-shi",
    "countryCode": "JP",
    "stateCode": "01",
    "latitude": "42.88333000",
    "longitude": "141.56667000"
  },
  {
    "name": "Enzan",
    "countryCode": "JP",
    "stateCode": "19",
    "latitude": "35.70000000",
    "longitude": "138.73333000"
  },
  {
    "name": "Etajima-shi",
    "countryCode": "JP",
    "stateCode": "34",
    "latitude": "34.21989000",
    "longitude": "132.44345000"
  },
  {
    "name": "Fuchū-shi",
    "countryCode": "JP",
    "stateCode": "13",
    "latitude": "35.66667000",
    "longitude": "139.50000000"
  },
  {
    "name": "Fuchū-shi",
    "countryCode": "JP",
    "stateCode": "34",
    "latitude": "34.56667000",
    "longitude": "133.23333000"
  },
  {
    "name": "Fuchūchō",
    "countryCode": "JP",
    "stateCode": "34",
    "latitude": "34.57350000",
    "longitude": "133.23513000"
  },
  {
    "name": "Fuefuki-shi",
    "countryCode": "JP",
    "stateCode": "19",
    "latitude": "35.59955000",
    "longitude": "138.68067000"
  },
  {
    "name": "Fuji Shi",
    "countryCode": "JP",
    "stateCode": "22",
    "latitude": "35.20106000",
    "longitude": "138.69905000"
  },
  {
    "name": "Fuji-yoshida Shi",
    "countryCode": "JP",
    "stateCode": "19",
    "latitude": "35.43915000",
    "longitude": "138.79368000"
  },
  {
    "name": "Fujieda Shi",
    "countryCode": "JP",
    "stateCode": "22",
    "latitude": "34.91956000",
    "longitude": "138.23379000"
  },
  {
    "name": "Fujiidera-shi",
    "countryCode": "JP",
    "stateCode": "27",
    "latitude": "34.57422000",
    "longitude": "135.59730000"
  },
  {
    "name": "Fujikawaguchiko",
    "countryCode": "JP",
    "stateCode": "19",
    "latitude": "35.48933000",
    "longitude": "138.68832000"
  },
  {
    "name": "Fujimi",
    "countryCode": "JP",
    "stateCode": "39",
    "latitude": "35.91472222",
    "longitude": "138.24083333"
  },
  {
    "name": "Fujimi-shi",
    "countryCode": "JP",
    "stateCode": "11",
    "latitude": "35.85393000",
    "longitude": "139.55478000"
  },
  {
    "name": "Fujimino Shi",
    "countryCode": "JP",
    "stateCode": "11",
    "latitude": "35.86505000",
    "longitude": "139.51524000"
  },
  {
    "name": "Fujinomiya",
    "countryCode": "JP",
    "stateCode": "22",
    "latitude": "35.21667000",
    "longitude": "138.61667000"
  },
  {
    "name": "Fujinomiya Shi",
    "countryCode": "JP",
    "stateCode": "22",
    "latitude": "35.31753000",
    "longitude": "138.62375000"
  },
  {
    "name": "Fujioka",
    "countryCode": "JP",
    "stateCode": "09",
    "latitude": "36.25000000",
    "longitude": "139.65000000"
  },
  {
    "name": "Fujioka",
    "countryCode": "JP",
    "stateCode": "10",
    "latitude": "36.24624000",
    "longitude": "139.07204000"
  },
  {
    "name": "Fujioka Shi",
    "countryCode": "JP",
    "stateCode": "10",
    "latitude": "36.19213000",
    "longitude": "138.99918000"
  },
  {
    "name": "Fujisawa",
    "countryCode": "JP",
    "stateCode": "14",
    "latitude": "35.34926000",
    "longitude": "139.47666000"
  },
  {
    "name": "Fujisawa Shi",
    "countryCode": "JP",
    "stateCode": "14",
    "latitude": "35.36814000",
    "longitude": "139.45899000"
  },
  {
    "name": "Fujishiro",
    "countryCode": "JP",
    "stateCode": "08",
    "latitude": "35.91667000",
    "longitude": "140.11667000"
  },
  {
    "name": "Fujiyoshida",
    "countryCode": "JP",
    "stateCode": "19",
    "latitude": "35.44032000",
    "longitude": "138.79586000"
  },
  {
    "name": "Fukagawa",
    "countryCode": "JP",
    "stateCode": "01",
    "latitude": "43.70806000",
    "longitude": "142.03917000"
  },
  {
    "name": "Fukagawa-shi",
    "countryCode": "JP",
    "stateCode": "01",
    "latitude": "43.79334000",
    "longitude": "142.09923000"
  },
  {
    "name": "Fukaya-shi",
    "countryCode": "JP",
    "stateCode": "11",
    "latitude": "36.20000000",
    "longitude": "139.28333000"
  },
  {
    "name": "Fukayachō",
    "countryCode": "JP",
    "stateCode": "11",
    "latitude": "36.20000000",
    "longitude": "139.28333000"
  },
  {
    "name": "Fukiage-fujimi",
    "countryCode": "JP",
    "stateCode": "11",
    "latitude": "36.10000000",
    "longitude": "139.45000000"
  },
  {
    "name": "Fukuchiyama-shi",
    "countryCode": "JP",
    "stateCode": "26",
    "latitude": "35.32404000",
    "longitude": "135.11332000"
  },
  {
    "name": "Fukuechō",
    "countryCode": "JP",
    "stateCode": "42",
    "latitude": "32.69732000",
    "longitude": "128.84561000"
  },
  {
    "name": "Fukui-shi",
    "countryCode": "JP",
    "stateCode": "18",
    "latitude": "36.06667000",
    "longitude": "136.21667000"
  },
  {
    "name": "Fukumitsu",
    "countryCode": "JP",
    "stateCode": "16",
    "latitude": "36.55751000",
    "longitude": "136.86945000"
  },
  {
    "name": "Fukuoka",
    "countryCode": "JP",
    "stateCode": "40",
    "latitude": "33.60000000",
    "longitude": "130.41667000"
  },
  {
    "name": "Fukuoka-shi",
    "countryCode": "JP",
    "stateCode": "40",
    "latitude": "33.56894000",
    "longitude": "130.35764000"
  },
  {
    "name": "Fukura",
    "countryCode": "JP",
    "stateCode": "28",
    "latitude": "34.25765000",
    "longitude": "134.71535000"
  },
  {
    "name": "Fukuroi",
    "countryCode": "JP",
    "stateCode": "22",
    "latitude": "34.75000000",
    "longitude": "137.91667000"
  },
  {
    "name": "Fukuroi-shi",
    "countryCode": "JP",
    "stateCode": "22",
    "latitude": "34.74175000",
    "longitude": "137.92805000"
  },
  {
    "name": "Fukushima",
    "countryCode": "JP",
    "stateCode": "07",
    "latitude": "37.75000000",
    "longitude": "140.46667000"
  },
  {
    "name": "Fukushima Shi",
    "countryCode": "JP",
    "stateCode": "07",
    "latitude": "37.78643000",
    "longitude": "140.38849000"
  },
  {
    "name": "Fukutsu Shi",
    "countryCode": "JP",
    "stateCode": "40",
    "latitude": "33.77982000",
    "longitude": "130.49804000"
  },
  {
    "name": "Fukuyama",
    "countryCode": "JP",
    "stateCode": "34",
    "latitude": "34.48333000",
    "longitude": "133.36667000"
  },
  {
    "name": "Fukuyama Shi",
    "countryCode": "JP",
    "stateCode": "34",
    "latitude": "34.52342000",
    "longitude": "133.33779000"
  },
  {
    "name": "Funabashi-shi",
    "countryCode": "JP",
    "stateCode": "12",
    "latitude": "35.69455000",
    "longitude": "139.98255000"
  },
  {
    "name": "Funaishikawa",
    "countryCode": "JP",
    "stateCode": "08",
    "latitude": "36.46667000",
    "longitude": "140.56667000"
  },
  {
    "name": "Funehikimachi-funehiki",
    "countryCode": "JP",
    "stateCode": "07",
    "latitude": "37.44722000",
    "longitude": "140.57710000"
  },
  {
    "name": "Furano-shi",
    "countryCode": "JP",
    "stateCode": "01",
    "latitude": "43.28182000",
    "longitude": "142.47349000"
  },
  {
    "name": "Furukawa",
    "countryCode": "JP",
    "stateCode": "04",
    "latitude": "38.57167000",
    "longitude": "140.95556000"
  },
  {
    "name": "Fussa",
    "countryCode": "JP",
    "stateCode": "13",
    "latitude": "35.73667000",
    "longitude": "139.32361000"
  },
  {
    "name": "Futtsu",
    "countryCode": "JP",
    "stateCode": "12",
    "latitude": "35.31080000",
    "longitude": "139.81877000"
  },
  {
    "name": "Gamagōri",
    "countryCode": "JP",
    "stateCode": "23",
    "latitude": "34.83333000",
    "longitude": "137.23333000"
  },
  {
    "name": "Gamagōri-shi",
    "countryCode": "JP",
    "stateCode": "23",
    "latitude": "34.82759000",
    "longitude": "137.22752000"
  },
  {
    "name": "Geisei",
    "countryCode": "JP",
    "stateCode": "39",
    "latitude": "33.52694444",
    "longitude": "133.80916667"
  },
  {
    "name": "Gero",
    "countryCode": "JP",
    "stateCode": "21",
    "latitude": "35.80000000",
    "longitude": "137.23333000"
  },
  {
    "name": "Gero-shi",
    "countryCode": "JP",
    "stateCode": "21",
    "latitude": "35.75000000",
    "longitude": "137.25000000"
  },
  {
    "name": "Gifu-shi",
    "countryCode": "JP",
    "stateCode": "21",
    "latitude": "35.44826000",
    "longitude": "136.76470000"
  },
  {
    "name": "Ginowan Shi",
    "countryCode": "JP",
    "stateCode": "47",
    "latitude": "26.27620000",
    "longitude": "127.75742000"
  },
  {
    "name": "Gobō",
    "countryCode": "JP",
    "stateCode": "30",
    "latitude": "33.88153000",
    "longitude": "135.16960000"
  },
  {
    "name": "Gojō",
    "countryCode": "JP",
    "stateCode": "29",
    "latitude": "34.35000000",
    "longitude": "135.70000000"
  },
  {
    "name": "Gojō-shi",
    "countryCode": "JP",
    "stateCode": "29",
    "latitude": "34.35081000",
    "longitude": "135.69489000"
  },
  {
    "name": "Gose",
    "countryCode": "JP",
    "stateCode": "29",
    "latitude": "34.45000000",
    "longitude": "135.73333000"
  },
  {
    "name": "Gosen",
    "countryCode": "JP",
    "stateCode": "15",
    "latitude": "37.73333000",
    "longitude": "139.16667000"
  },
  {
    "name": "Gosen Shi",
    "countryCode": "JP",
    "stateCode": "15",
    "latitude": "37.65643000",
    "longitude": "139.22634000"
  },
  {
    "name": "Goshogawara",
    "countryCode": "JP",
    "stateCode": "02",
    "latitude": "40.80444000",
    "longitude": "140.44139000"
  },
  {
    "name": "Goshogawara Shi",
    "countryCode": "JP",
    "stateCode": "02",
    "latitude": "40.91657000",
    "longitude": "140.46998000"
  },
  {
    "name": "Gotenba Shi",
    "countryCode": "JP",
    "stateCode": "22",
    "latitude": "35.29893000",
    "longitude": "138.87902000"
  },
  {
    "name": "Gotō Shi",
    "countryCode": "JP",
    "stateCode": "42",
    "latitude": "32.69892000",
    "longitude": "128.76871000"
  },
  {
    "name": "Gujō",
    "countryCode": "JP",
    "stateCode": "21",
    "latitude": "35.73691000",
    "longitude": "136.95852000"
  },
  {
    "name": "Gujō-shi",
    "countryCode": "JP",
    "stateCode": "21",
    "latitude": "35.83298000",
    "longitude": "136.94561000"
  },
  {
    "name": "Gushikawa",
    "countryCode": "JP",
    "stateCode": "47",
    "latitude": "26.35937000",
    "longitude": "127.86735000"
  },
  {
    "name": "Gyōda",
    "countryCode": "JP",
    "stateCode": "11",
    "latitude": "36.14074000",
    "longitude": "139.46011000"
  },
  {
    "name": "Gōdo",
    "countryCode": "JP",
    "stateCode": "21",
    "latitude": "35.41667000",
    "longitude": "136.60000000"
  },
  {
    "name": "Gōtsu Shi",
    "countryCode": "JP",
    "stateCode": "32",
    "latitude": "34.98095000",
    "longitude": "132.29488000"
  },
  {
    "name": "Gōtsuchō",
    "countryCode": "JP",
    "stateCode": "32",
    "latitude": "35.00856000",
    "longitude": "132.22570000"
  },
  {
    "name": "Habikino-shi",
    "countryCode": "JP",
    "stateCode": "27",
    "latitude": "34.55775000",
    "longitude": "135.60631000"
  },
  {
    "name": "Hachimantai",
    "countryCode": "JP",
    "stateCode": "03",
    "latitude": "39.89979000",
    "longitude": "141.12989000"
  },
  {
    "name": "Hachimantai Shi",
    "countryCode": "JP",
    "stateCode": "03",
    "latitude": "40.02390000",
    "longitude": "140.99113000"
  },
  {
    "name": "Hachinohe",
    "countryCode": "JP",
    "stateCode": "02",
    "latitude": "40.50000000",
    "longitude": "141.50000000"
  },
  {
    "name": "Hachinohe Shi",
    "countryCode": "JP",
    "stateCode": "02",
    "latitude": "40.47389000",
    "longitude": "141.48125000"
  },
  {
    "name": "Hachiōji",
    "countryCode": "JP",
    "stateCode": "13",
    "latitude": "35.65583000",
    "longitude": "139.32389000"
  },
  {
    "name": "Hadano",
    "countryCode": "JP",
    "stateCode": "14",
    "latitude": "35.37111000",
    "longitude": "139.22361000"
  },
  {
    "name": "Hadano-shi",
    "countryCode": "JP",
    "stateCode": "14",
    "latitude": "35.40000000",
    "longitude": "139.20000000"
  },
  {
    "name": "Hagi",
    "countryCode": "JP",
    "stateCode": "35",
    "latitude": "34.40000000",
    "longitude": "131.41667000"
  },
  {
    "name": "Hagi Shi",
    "countryCode": "JP",
    "stateCode": "35",
    "latitude": "34.43206000",
    "longitude": "131.50623000"
  },
  {
    "name": "Haibara-akanedai",
    "countryCode": "JP",
    "stateCode": "29",
    "latitude": "34.53333000",
    "longitude": "135.95000000"
  },
  {
    "name": "Hakodate",
    "countryCode": "JP",
    "stateCode": "01",
    "latitude": "41.77583000",
    "longitude": "140.73667000"
  },
  {
    "name": "Hakodate Shi",
    "countryCode": "JP",
    "stateCode": "01",
    "latitude": "41.83754000",
    "longitude": "140.92597000"
  },
  {
    "name": "Hakone",
    "countryCode": "JP",
    "stateCode": "14",
    "latitude": "35.18945000",
    "longitude": "139.02649000"
  },
  {
    "name": "Hakuba",
    "countryCode": "JP",
    "stateCode": "20",
    "latitude": "36.69818000",
    "longitude": "137.86185000"
  },
  {
    "name": "Hakuba",
    "countryCode": "JP",
    "stateCode": "39",
    "latitude": "36.70000000",
    "longitude": "137.86666667"
  },
  {
    "name": "Hakui",
    "countryCode": "JP",
    "stateCode": "17",
    "latitude": "36.88333000",
    "longitude": "136.78333000"
  },
  {
    "name": "Hakui Shi",
    "countryCode": "JP",
    "stateCode": "17",
    "latitude": "36.91136000",
    "longitude": "136.81626000"
  },
  {
    "name": "Hakusan Shi",
    "countryCode": "JP",
    "stateCode": "17",
    "latitude": "36.27558000",
    "longitude": "136.66966000"
  },
  {
    "name": "Hamada",
    "countryCode": "JP",
    "stateCode": "32",
    "latitude": "34.88333000",
    "longitude": "132.08333000"
  },
  {
    "name": "Hamada Shi",
    "countryCode": "JP",
    "stateCode": "32",
    "latitude": "34.82809000",
    "longitude": "132.13914000"
  },
  {
    "name": "Hamakita",
    "countryCode": "JP",
    "stateCode": "22",
    "latitude": "34.80000000",
    "longitude": "137.78333000"
  },
  {
    "name": "Hamamatsu",
    "countryCode": "JP",
    "stateCode": "22",
    "latitude": "34.70000000",
    "longitude": "137.73333000"
  },
  {
    "name": "Hamamatsu-shi",
    "countryCode": "JP",
    "stateCode": "22",
    "latitude": "34.95375000",
    "longitude": "137.80733000"
  },
  {
    "name": "Hamanoichi",
    "countryCode": "JP",
    "stateCode": "46",
    "latitude": "31.71667000",
    "longitude": "130.73333000"
  },
  {
    "name": "Hamura-shi",
    "countryCode": "JP",
    "stateCode": "13",
    "latitude": "35.76351000",
    "longitude": "139.31411000"
  },
  {
    "name": "Hanamaki",
    "countryCode": "JP",
    "stateCode": "03",
    "latitude": "39.38333000",
    "longitude": "141.11667000"
  },
  {
    "name": "Hanamaki Shi",
    "countryCode": "JP",
    "stateCode": "03",
    "latitude": "39.44187000",
    "longitude": "141.16751000"
  },
  {
    "name": "Hanawa",
    "countryCode": "JP",
    "stateCode": "05",
    "latitude": "40.18361000",
    "longitude": "140.78722000"
  },
  {
    "name": "Handa",
    "countryCode": "JP",
    "stateCode": "23",
    "latitude": "34.88333000",
    "longitude": "136.93333000"
  },
  {
    "name": "Handa-shi",
    "countryCode": "JP",
    "stateCode": "23",
    "latitude": "34.89903000",
    "longitude": "136.92660000"
  },
  {
    "name": "Hannan",
    "countryCode": "JP",
    "stateCode": "27",
    "latitude": "34.33333000",
    "longitude": "135.25000000"
  },
  {
    "name": "Hannan Shi",
    "countryCode": "JP",
    "stateCode": "27",
    "latitude": "34.33115000",
    "longitude": "135.23521000"
  },
  {
    "name": "Hannō",
    "countryCode": "JP",
    "stateCode": "11",
    "latitude": "35.85194000",
    "longitude": "139.31806000"
  },
  {
    "name": "Hannō-shi",
    "countryCode": "JP",
    "stateCode": "11",
    "latitude": "35.85567000",
    "longitude": "139.32777000"
  },
  {
    "name": "Hanyū",
    "countryCode": "JP",
    "stateCode": "11",
    "latitude": "36.16667000",
    "longitude": "139.53333000"
  },
  {
    "name": "Hanyū-shi",
    "countryCode": "JP",
    "stateCode": "11",
    "latitude": "36.17251000",
    "longitude": "139.55338000"
  },
  {
    "name": "Hara",
    "countryCode": "JP",
    "stateCode": "39",
    "latitude": "35.96444444",
    "longitude": "138.21750000"
  },
  {
    "name": "Hasaki",
    "countryCode": "JP",
    "stateCode": "12",
    "latitude": "35.73333000",
    "longitude": "140.83333000"
  },
  {
    "name": "Hashima",
    "countryCode": "JP",
    "stateCode": "21",
    "latitude": "35.32900000",
    "longitude": "136.68051000"
  },
  {
    "name": "Hashima-shi",
    "countryCode": "JP",
    "stateCode": "21",
    "latitude": "35.30740000",
    "longitude": "136.70161000"
  },
  {
    "name": "Hashimoto",
    "countryCode": "JP",
    "stateCode": "30",
    "latitude": "34.31667000",
    "longitude": "135.61667000"
  },
  {
    "name": "Hashimoto Shi",
    "countryCode": "JP",
    "stateCode": "30",
    "latitude": "34.32417000",
    "longitude": "135.61045000"
  },
  {
    "name": "Hasuda",
    "countryCode": "JP",
    "stateCode": "11",
    "latitude": "35.97113000",
    "longitude": "139.64910000"
  },
  {
    "name": "Hasuda-shi",
    "countryCode": "JP",
    "stateCode": "11",
    "latitude": "36.00147000",
    "longitude": "139.64981000"
  },
  {
    "name": "Hatogaya-honchō",
    "countryCode": "JP",
    "stateCode": "11",
    "latitude": "35.83314000",
    "longitude": "139.74250000"
  },
  {
    "name": "Hatsukaichi",
    "countryCode": "JP",
    "stateCode": "34",
    "latitude": "34.35000000",
    "longitude": "132.33333000"
  },
  {
    "name": "Hatsukaichi-shi",
    "countryCode": "JP",
    "stateCode": "34",
    "latitude": "34.35000000",
    "longitude": "132.30000000"
  },
  {
    "name": "Hayama",
    "countryCode": "JP",
    "stateCode": "14",
    "latitude": "35.27651000",
    "longitude": "139.57733000"
  },
  {
    "name": "Heda",
    "countryCode": "JP",
    "stateCode": "22",
    "latitude": "34.96277000",
    "longitude": "138.78543000"
  },
  {
    "name": "Hekinan",
    "countryCode": "JP",
    "stateCode": "23",
    "latitude": "34.88333000",
    "longitude": "136.98333000"
  },
  {
    "name": "Hekinan-shi",
    "countryCode": "JP",
    "stateCode": "23",
    "latitude": "34.87955000",
    "longitude": "136.99155000"
  },
  {
    "name": "Hida",
    "countryCode": "JP",
    "stateCode": "21",
    "latitude": "36.24483000",
    "longitude": "137.17323000"
  },
  {
    "name": "Hida Shi",
    "countryCode": "JP",
    "stateCode": "21",
    "latitude": "36.33272000",
    "longitude": "137.20568000"
  },
  {
    "name": "Hidaka",
    "countryCode": "JP",
    "stateCode": "39",
    "latitude": "33.53472222",
    "longitude": "133.37333333"
  },
  {
    "name": "Hidaka-shi",
    "countryCode": "JP",
    "stateCode": "11",
    "latitude": "35.90859000",
    "longitude": "139.34346000"
  },
  {
    "name": "Higashi-murayama-shi",
    "countryCode": "JP",
    "stateCode": "13",
    "latitude": "35.75529000",
    "longitude": "139.46972000"
  },
  {
    "name": "Higashihiroshima Shi",
    "countryCode": "JP",
    "stateCode": "34",
    "latitude": "34.44755000",
    "longitude": "132.76116000"
  },
  {
    "name": "Higashikagawa Shi",
    "countryCode": "JP",
    "stateCode": "37",
    "latitude": "34.21158000",
    "longitude": "134.33350000"
  },
  {
    "name": "Higashikurume-shi",
    "countryCode": "JP",
    "stateCode": "13",
    "latitude": "35.75821000",
    "longitude": "139.52954000"
  },
  {
    "name": "Higashimatshushima Shi",
    "countryCode": "JP",
    "stateCode": "04",
    "latitude": "38.41089000",
    "longitude": "141.17717000"
  },
  {
    "name": "Higashimatsushima",
    "countryCode": "JP",
    "stateCode": "04",
    "latitude": "38.40886000",
    "longitude": "141.17901000"
  },
  {
    "name": "Higashimatsuyama Shi",
    "countryCode": "JP",
    "stateCode": "11",
    "latitude": "36.03183000",
    "longitude": "139.39138000"
  },
  {
    "name": "Higashimurayama",
    "countryCode": "JP",
    "stateCode": "13",
    "latitude": "35.75459000",
    "longitude": "139.46852000"
  },
  {
    "name": "Higashine",
    "countryCode": "JP",
    "stateCode": "06",
    "latitude": "38.43889000",
    "longitude": "140.40056000"
  },
  {
    "name": "Higashine Shi",
    "countryCode": "JP",
    "stateCode": "06",
    "latitude": "38.42559000",
    "longitude": "140.46670000"
  },
  {
    "name": "Higashiyamato",
    "countryCode": "JP",
    "stateCode": "13",
    "latitude": "35.76298000",
    "longitude": "139.44575000"
  },
  {
    "name": "Higashiyamato-shi",
    "countryCode": "JP",
    "stateCode": "13",
    "latitude": "35.75031000",
    "longitude": "139.42660000"
  },
  {
    "name": "Higashiōmi-shi",
    "countryCode": "JP",
    "stateCode": "25",
    "latitude": "35.10890000",
    "longitude": "136.17920000"
  },
  {
    "name": "Higashiōsaka Shi",
    "countryCode": "JP",
    "stateCode": "27",
    "latitude": "34.67112000",
    "longitude": "135.61760000"
  },
  {
    "name": "Hiji",
    "countryCode": "JP",
    "stateCode": "44",
    "latitude": "33.37081000",
    "longitude": "131.53025000"
  },
  {
    "name": "Hikari",
    "countryCode": "JP",
    "stateCode": "35",
    "latitude": "33.95500000",
    "longitude": "131.95000000"
  },
  {
    "name": "Hikari Shi",
    "countryCode": "JP",
    "stateCode": "35",
    "latitude": "33.98247000",
    "longitude": "131.97485000"
  },
  {
    "name": "Hiki-gun",
    "countryCode": "JP",
    "stateCode": "11",
    "latitude": "36.02757000",
    "longitude": "139.33415000"
  },
  {
    "name": "Hikone",
    "countryCode": "JP",
    "stateCode": "25",
    "latitude": "35.25000000",
    "longitude": "136.25000000"
  },
  {
    "name": "Hikone-shi",
    "countryCode": "JP",
    "stateCode": "25",
    "latitude": "35.23036000",
    "longitude": "136.20760000"
  },
  {
    "name": "Himeji",
    "countryCode": "JP",
    "stateCode": "28",
    "latitude": "34.81667000",
    "longitude": "134.70000000"
  },
  {
    "name": "Himeji Shi",
    "countryCode": "JP",
    "stateCode": "28",
    "latitude": "34.90134000",
    "longitude": "134.66316000"
  },
  {
    "name": "Himi Shi",
    "countryCode": "JP",
    "stateCode": "16",
    "latitude": "36.87218000",
    "longitude": "136.94066000"
  },
  {
    "name": "Himimachi",
    "countryCode": "JP",
    "stateCode": "16",
    "latitude": "36.85609000",
    "longitude": "136.98850000"
  },
  {
    "name": "Hino",
    "countryCode": "JP",
    "stateCode": "13",
    "latitude": "35.67306000",
    "longitude": "139.40028000"
  },
  {
    "name": "Hino",
    "countryCode": "JP",
    "stateCode": "25",
    "latitude": "35.00000000",
    "longitude": "136.25000000"
  },
  {
    "name": "Hino-shi",
    "countryCode": "JP",
    "stateCode": "13",
    "latitude": "35.66333000",
    "longitude": "139.39865000"
  },
  {
    "name": "Hioki",
    "countryCode": "JP",
    "stateCode": "46",
    "latitude": "31.58333000",
    "longitude": "130.35000000"
  },
  {
    "name": "Hioki Shi",
    "countryCode": "JP",
    "stateCode": "46",
    "latitude": "31.59929000",
    "longitude": "130.38208000"
  },
  {
    "name": "Hirado",
    "countryCode": "JP",
    "stateCode": "42",
    "latitude": "33.36853000",
    "longitude": "129.55247000"
  },
  {
    "name": "Hirado Shi",
    "countryCode": "JP",
    "stateCode": "42",
    "latitude": "33.31596000",
    "longitude": "129.48688000"
  },
  {
    "name": "Hirakata",
    "countryCode": "JP",
    "stateCode": "27",
    "latitude": "34.81352000",
    "longitude": "135.64914000"
  },
  {
    "name": "Hirakata Shi",
    "countryCode": "JP",
    "stateCode": "27",
    "latitude": "34.81762000",
    "longitude": "135.68171000"
  },
  {
    "name": "Hirakawa",
    "countryCode": "JP",
    "stateCode": "02",
    "latitude": "40.58728000",
    "longitude": "140.57107000"
  },
  {
    "name": "Hirakawa Shi",
    "countryCode": "JP",
    "stateCode": "02",
    "latitude": "40.51832000",
    "longitude": "140.70048000"
  },
  {
    "name": "Hirara",
    "countryCode": "JP",
    "stateCode": "47",
    "latitude": "24.80379000",
    "longitude": "125.30222000"
  },
  {
    "name": "Hiratachō",
    "countryCode": "JP",
    "stateCode": "32",
    "latitude": "35.43333000",
    "longitude": "132.81667000"
  },
  {
    "name": "Hiratsuka",
    "countryCode": "JP",
    "stateCode": "14",
    "latitude": "35.32785000",
    "longitude": "139.33735000"
  },
  {
    "name": "Hiratsuka Shi",
    "countryCode": "JP",
    "stateCode": "14",
    "latitude": "35.35099000",
    "longitude": "139.32013000"
  },
  {
    "name": "Hiraya",
    "countryCode": "JP",
    "stateCode": "39",
    "latitude": "35.32333333",
    "longitude": "137.63027778"
  },
  {
    "name": "Hirosaki",
    "countryCode": "JP",
    "stateCode": "02",
    "latitude": "40.59306000",
    "longitude": "140.47250000"
  },
  {
    "name": "Hirosaki Shi",
    "countryCode": "JP",
    "stateCode": "02",
    "latitude": "40.60512000",
    "longitude": "140.38460000"
  },
  {
    "name": "Hiroshima",
    "countryCode": "JP",
    "stateCode": "34",
    "latitude": "34.40000000",
    "longitude": "132.45000000"
  },
  {
    "name": "Hiroshima-shi",
    "countryCode": "JP",
    "stateCode": "34",
    "latitude": "34.47942000",
    "longitude": "132.45312000"
  },
  {
    "name": "Hisai-motomachi",
    "countryCode": "JP",
    "stateCode": "24",
    "latitude": "34.66667000",
    "longitude": "136.46667000"
  },
  {
    "name": "Hita",
    "countryCode": "JP",
    "stateCode": "44",
    "latitude": "33.32130000",
    "longitude": "130.94098000"
  },
  {
    "name": "Hita Shi",
    "countryCode": "JP",
    "stateCode": "44",
    "latitude": "33.24452000",
    "longitude": "130.95063000"
  },
  {
    "name": "Hitachi",
    "countryCode": "JP",
    "stateCode": "08",
    "latitude": "36.60000000",
    "longitude": "140.65000000"
  },
  {
    "name": "Hitachi-Naka",
    "countryCode": "JP",
    "stateCode": "08",
    "latitude": "36.39659000",
    "longitude": "140.53479000"
  },
  {
    "name": "Hitachi-ota",
    "countryCode": "JP",
    "stateCode": "08",
    "latitude": "36.55130000",
    "longitude": "140.52821000"
  },
  {
    "name": "Hitachi-shi",
    "countryCode": "JP",
    "stateCode": "08",
    "latitude": "36.62492000",
    "longitude": "140.61876000"
  },
  {
    "name": "Hitachinaka-shi",
    "countryCode": "JP",
    "stateCode": "08",
    "latitude": "36.39596000",
    "longitude": "140.55789000"
  },
  {
    "name": "Hitachiōmiya-shi",
    "countryCode": "JP",
    "stateCode": "08",
    "latitude": "36.61371000",
    "longitude": "140.33990000"
  },
  {
    "name": "Hitachiōta-shi",
    "countryCode": "JP",
    "stateCode": "08",
    "latitude": "36.64836000",
    "longitude": "140.50536000"
  },
  {
    "name": "Hitoyoshi",
    "countryCode": "JP",
    "stateCode": "43",
    "latitude": "32.21667000",
    "longitude": "130.75000000"
  },
  {
    "name": "Hitoyoshi Shi",
    "countryCode": "JP",
    "stateCode": "43",
    "latitude": "32.17298000",
    "longitude": "130.74013000"
  },
  {
    "name": "Hobaramachi",
    "countryCode": "JP",
    "stateCode": "07",
    "latitude": "37.81667000",
    "longitude": "140.55000000"
  },
  {
    "name": "Hofu Shi",
    "countryCode": "JP",
    "stateCode": "35",
    "latitude": "34.07287000",
    "longitude": "131.56808000"
  },
  {
    "name": "Hokota-shi",
    "countryCode": "JP",
    "stateCode": "08",
    "latitude": "36.17337000",
    "longitude": "140.51993000"
  },
  {
    "name": "Hokuto",
    "countryCode": "JP",
    "stateCode": "01",
    "latitude": "41.81626000",
    "longitude": "140.63472000"
  },
  {
    "name": "Hokuto",
    "countryCode": "JP",
    "stateCode": "19",
    "latitude": "35.83458000",
    "longitude": "138.39606000"
  },
  {
    "name": "Hokuto-shi",
    "countryCode": "JP",
    "stateCode": "01",
    "latitude": "41.86411000",
    "longitude": "140.55424000"
  },
  {
    "name": "Hokuto-shi",
    "countryCode": "JP",
    "stateCode": "19",
    "latitude": "35.83717000",
    "longitude": "138.39375000"
  },
  {
    "name": "Honchō",
    "countryCode": "JP",
    "stateCode": "01",
    "latitude": "41.89440000",
    "longitude": "140.69386000"
  },
  {
    "name": "Honchō",
    "countryCode": "JP",
    "stateCode": "12",
    "latitude": "35.70129000",
    "longitude": "139.98648000"
  },
  {
    "name": "Hondomachi-hondo",
    "countryCode": "JP",
    "stateCode": "43",
    "latitude": "32.45993000",
    "longitude": "130.16713000"
  },
  {
    "name": "Honjō",
    "countryCode": "JP",
    "stateCode": "11",
    "latitude": "36.23780000",
    "longitude": "139.19023000"
  },
  {
    "name": "Honjō Shi",
    "countryCode": "JP",
    "stateCode": "11",
    "latitude": "36.19925000",
    "longitude": "139.14627000"
  },
  {
    "name": "Honmachi",
    "countryCode": "JP",
    "stateCode": "43",
    "latitude": "32.50439000",
    "longitude": "130.59952000"
  },
  {
    "name": "Hotaka",
    "countryCode": "JP",
    "stateCode": "20",
    "latitude": "36.33960000",
    "longitude": "137.88254000"
  },
  {
    "name": "Hyūga-shi",
    "countryCode": "JP",
    "stateCode": "45",
    "latitude": "32.37710000",
    "longitude": "131.52275000"
  },
  {
    "name": "Hōfu",
    "countryCode": "JP",
    "stateCode": "35",
    "latitude": "34.05000000",
    "longitude": "131.56667000"
  },
  {
    "name": "Hōjō",
    "countryCode": "JP",
    "stateCode": "38",
    "latitude": "33.97661000",
    "longitude": "132.77767000"
  },
  {
    "name": "Hōryūji",
    "countryCode": "JP",
    "stateCode": "29",
    "latitude": "34.61234000",
    "longitude": "135.73754000"
  },
  {
    "name": "Ibara",
    "countryCode": "JP",
    "stateCode": "33",
    "latitude": "34.60000000",
    "longitude": "133.46667000"
  },
  {
    "name": "Ibara Shi",
    "countryCode": "JP",
    "stateCode": "33",
    "latitude": "34.65033000",
    "longitude": "133.47371000"
  },
  {
    "name": "Ibaraki",
    "countryCode": "JP",
    "stateCode": "27",
    "latitude": "34.81641000",
    "longitude": "135.56828000"
  },
  {
    "name": "Ibaraki Shi",
    "countryCode": "JP",
    "stateCode": "27",
    "latitude": "34.85588000",
    "longitude": "135.54998000"
  },
  {
    "name": "Ibusuki",
    "countryCode": "JP",
    "stateCode": "46",
    "latitude": "31.23333000",
    "longitude": "130.65000000"
  },
  {
    "name": "Ibusuki Shi",
    "countryCode": "JP",
    "stateCode": "46",
    "latitude": "31.22962000",
    "longitude": "130.58060000"
  },
  {
    "name": "Ichihara",
    "countryCode": "JP",
    "stateCode": "12",
    "latitude": "35.51667000",
    "longitude": "140.08333000"
  },
  {
    "name": "Ichihara Shi",
    "countryCode": "JP",
    "stateCode": "12",
    "latitude": "35.42484000",
    "longitude": "140.13725000"
  },
  {
    "name": "Ichikawa Shi",
    "countryCode": "JP",
    "stateCode": "12",
    "latitude": "35.71865000",
    "longitude": "139.93294000"
  },
  {
    "name": "Ichikikushikino Shi",
    "countryCode": "JP",
    "stateCode": "46",
    "latitude": "31.73281000",
    "longitude": "130.28893000"
  },
  {
    "name": "Ichinohe",
    "countryCode": "JP",
    "stateCode": "03",
    "latitude": "40.21965000",
    "longitude": "141.28986000"
  },
  {
    "name": "Ichinomiya",
    "countryCode": "JP",
    "stateCode": "23",
    "latitude": "35.30000000",
    "longitude": "136.80000000"
  },
  {
    "name": "Ichinomiya-shi",
    "countryCode": "JP",
    "stateCode": "23",
    "latitude": "35.31037000",
    "longitude": "136.79237000"
  },
  {
    "name": "Ichinoseki",
    "countryCode": "JP",
    "stateCode": "03",
    "latitude": "38.91667000",
    "longitude": "141.13333000"
  },
  {
    "name": "Ichinoseki-shi",
    "countryCode": "JP",
    "stateCode": "03",
    "latitude": "38.91667000",
    "longitude": "141.13333000"
  },
  {
    "name": "Iga-shi",
    "countryCode": "JP",
    "stateCode": "24",
    "latitude": "34.76855000",
    "longitude": "136.13013000"
  },
  {
    "name": "Iida",
    "countryCode": "JP",
    "stateCode": "20",
    "latitude": "35.51965000",
    "longitude": "137.82074000"
  },
  {
    "name": "Iida",
    "countryCode": "JP",
    "stateCode": "39",
    "latitude": "35.51472222",
    "longitude": "137.82194444"
  },
  {
    "name": "Iida-shi",
    "countryCode": "JP",
    "stateCode": "20",
    "latitude": "35.42287000",
    "longitude": "137.89381000"
  },
  {
    "name": "Iijima",
    "countryCode": "JP",
    "stateCode": "39",
    "latitude": "35.67638889",
    "longitude": "137.91944444"
  },
  {
    "name": "Iiyama",
    "countryCode": "JP",
    "stateCode": "20",
    "latitude": "36.85000000",
    "longitude": "138.36667000"
  },
  {
    "name": "Iiyama",
    "countryCode": "JP",
    "stateCode": "39",
    "latitude": "36.85166667",
    "longitude": "138.36555556"
  },
  {
    "name": "Iiyama Shi",
    "countryCode": "JP",
    "stateCode": "20",
    "latitude": "36.91249000",
    "longitude": "138.38345000"
  },
  {
    "name": "Iizuka",
    "countryCode": "JP",
    "stateCode": "40",
    "latitude": "33.63654000",
    "longitude": "130.68678000"
  },
  {
    "name": "Iizuka Shi",
    "countryCode": "JP",
    "stateCode": "40",
    "latitude": "33.61353000",
    "longitude": "130.66098000"
  },
  {
    "name": "Iizuna",
    "countryCode": "JP",
    "stateCode": "39",
    "latitude": "36.75500000",
    "longitude": "138.23555556"
  },
  {
    "name": "Ijūin",
    "countryCode": "JP",
    "stateCode": "46",
    "latitude": "31.61667000",
    "longitude": "130.40000000"
  },
  {
    "name": "Ikeda",
    "countryCode": "JP",
    "stateCode": "27",
    "latitude": "34.82208000",
    "longitude": "135.42980000"
  },
  {
    "name": "Ikeda",
    "countryCode": "JP",
    "stateCode": "39",
    "latitude": "36.42138889",
    "longitude": "137.87472222"
  },
  {
    "name": "Ikeda Shi",
    "countryCode": "JP",
    "stateCode": "27",
    "latitude": "34.83443000",
    "longitude": "135.43825000"
  },
  {
    "name": "Ikedachō",
    "countryCode": "JP",
    "stateCode": "36",
    "latitude": "34.02849000",
    "longitude": "133.80616000"
  },
  {
    "name": "Iki Shi",
    "countryCode": "JP",
    "stateCode": "42",
    "latitude": "33.78554000",
    "longitude": "129.71670000"
  },
  {
    "name": "Ikoma",
    "countryCode": "JP",
    "stateCode": "29",
    "latitude": "34.68333000",
    "longitude": "135.70000000"
  },
  {
    "name": "Ikoma-shi",
    "countryCode": "JP",
    "stateCode": "29",
    "latitude": "34.69187000",
    "longitude": "135.70057000"
  },
  {
    "name": "Ikusaka",
    "countryCode": "JP",
    "stateCode": "39",
    "latitude": "36.42527778",
    "longitude": "137.92750000"
  },
  {
    "name": "Imabari-shi",
    "countryCode": "JP",
    "stateCode": "38",
    "latitude": "34.06667000",
    "longitude": "132.99791000"
  },
  {
    "name": "Imaichi",
    "countryCode": "JP",
    "stateCode": "09",
    "latitude": "36.71667000",
    "longitude": "139.68333000"
  },
  {
    "name": "Imari Shi",
    "countryCode": "JP",
    "stateCode": "41",
    "latitude": "33.30409000",
    "longitude": "129.88598000"
  },
  {
    "name": "Imarichō-kō",
    "countryCode": "JP",
    "stateCode": "41",
    "latitude": "33.27362000",
    "longitude": "129.87877000"
  },
  {
    "name": "Imizu Shi",
    "countryCode": "JP",
    "stateCode": "16",
    "latitude": "36.72939000",
    "longitude": "137.08784000"
  },
  {
    "name": "Ina",
    "countryCode": "JP",
    "stateCode": "20",
    "latitude": "35.82756000",
    "longitude": "137.95378000"
  },
  {
    "name": "Ina",
    "countryCode": "JP",
    "stateCode": "39",
    "latitude": "35.82750000",
    "longitude": "137.95388889"
  },
  {
    "name": "Ina-shi",
    "countryCode": "JP",
    "stateCode": "20",
    "latitude": "35.79079000",
    "longitude": "138.07402000"
  },
  {
    "name": "Inabe",
    "countryCode": "JP",
    "stateCode": "24",
    "latitude": "35.11344000",
    "longitude": "136.57205000"
  },
  {
    "name": "Inabe-shi",
    "countryCode": "JP",
    "stateCode": "24",
    "latitude": "35.16061000",
    "longitude": "136.50788000"
  },
  {
    "name": "Inagi-shi",
    "countryCode": "JP",
    "stateCode": "13",
    "latitude": "35.63290000",
    "longitude": "139.49291000"
  },
  {
    "name": "Inashiki",
    "countryCode": "JP",
    "stateCode": "08",
    "latitude": "35.95633000",
    "longitude": "140.32356000"
  },
  {
    "name": "Inashiki-shi",
    "countryCode": "JP",
    "stateCode": "08",
    "latitude": "35.94563000",
    "longitude": "140.36889000"
  },
  {
    "name": "Inawashiro",
    "countryCode": "JP",
    "stateCode": "07",
    "latitude": "37.56667000",
    "longitude": "140.11667000"
  },
  {
    "name": "Inazawa",
    "countryCode": "JP",
    "stateCode": "23",
    "latitude": "35.25000000",
    "longitude": "136.78333000"
  },
  {
    "name": "Inazawa-shi",
    "countryCode": "JP",
    "stateCode": "23",
    "latitude": "35.24814000",
    "longitude": "136.77979000"
  },
  {
    "name": "Innoshima",
    "countryCode": "JP",
    "stateCode": "34",
    "latitude": "34.28333000",
    "longitude": "133.18333000"
  },
  {
    "name": "Ino",
    "countryCode": "JP",
    "stateCode": "39",
    "latitude": "33.55000000",
    "longitude": "133.43333333"
  },
  {
    "name": "Inuyama",
    "countryCode": "JP",
    "stateCode": "23",
    "latitude": "35.37995000",
    "longitude": "136.94295000"
  },
  {
    "name": "Inuyama-shi",
    "countryCode": "JP",
    "stateCode": "23",
    "latitude": "35.36232000",
    "longitude": "136.98072000"
  },
  {
    "name": "Inzai-shi",
    "countryCode": "JP",
    "stateCode": "12",
    "latitude": "35.81207000",
    "longitude": "140.14098000"
  },
  {
    "name": "Iruma-shi",
    "countryCode": "JP",
    "stateCode": "11",
    "latitude": "35.81802000",
    "longitude": "139.36754000"
  },
  {
    "name": "Isa Shi",
    "countryCode": "JP",
    "stateCode": "46",
    "latitude": "32.05835000",
    "longitude": "130.60104000"
  },
  {
    "name": "Isahaya",
    "countryCode": "JP",
    "stateCode": "42",
    "latitude": "32.84111000",
    "longitude": "130.04306000"
  },
  {
    "name": "Isahaya-shi",
    "countryCode": "JP",
    "stateCode": "42",
    "latitude": "32.86912000",
    "longitude": "130.06369000"
  },
  {
    "name": "Isawa",
    "countryCode": "JP",
    "stateCode": "19",
    "latitude": "35.65000000",
    "longitude": "138.63333000"
  },
  {
    "name": "Ise",
    "countryCode": "JP",
    "stateCode": "24",
    "latitude": "34.48333000",
    "longitude": "136.70000000"
  },
  {
    "name": "Ise-shi",
    "countryCode": "JP",
    "stateCode": "24",
    "latitude": "34.46740000",
    "longitude": "136.71585000"
  },
  {
    "name": "Isehara",
    "countryCode": "JP",
    "stateCode": "14",
    "latitude": "35.39932000",
    "longitude": "139.31019000"
  },
  {
    "name": "Isehara Shi",
    "countryCode": "JP",
    "stateCode": "14",
    "latitude": "35.41011000",
    "longitude": "139.29203000"
  },
  {
    "name": "Isesaki",
    "countryCode": "JP",
    "stateCode": "10",
    "latitude": "36.31667000",
    "longitude": "139.20000000"
  },
  {
    "name": "Isesaki Shi",
    "countryCode": "JP",
    "stateCode": "10",
    "latitude": "36.32126000",
    "longitude": "139.21823000"
  },
  {
    "name": "Ishigaki",
    "countryCode": "JP",
    "stateCode": "47",
    "latitude": "24.34478000",
    "longitude": "124.15717000"
  },
  {
    "name": "Ishigaki-shi",
    "countryCode": "JP",
    "stateCode": "47",
    "latitude": "24.39401000",
    "longitude": "124.20113000"
  },
  {
    "name": "Ishige",
    "countryCode": "JP",
    "stateCode": "08",
    "latitude": "36.11667000",
    "longitude": "139.96667000"
  },
  {
    "name": "Ishii",
    "countryCode": "JP",
    "stateCode": "36",
    "latitude": "34.06752000",
    "longitude": "134.44208000"
  },
  {
    "name": "Ishikari",
    "countryCode": "JP",
    "stateCode": "01",
    "latitude": "43.23972000",
    "longitude": "141.35389000"
  },
  {
    "name": "Ishikari-shi",
    "countryCode": "JP",
    "stateCode": "01",
    "latitude": "43.46596000",
    "longitude": "141.44298000"
  },
  {
    "name": "Ishikawa",
    "countryCode": "JP",
    "stateCode": "07",
    "latitude": "37.15000000",
    "longitude": "140.45000000"
  },
  {
    "name": "Ishikawa",
    "countryCode": "JP",
    "stateCode": "47",
    "latitude": "26.42333000",
    "longitude": "127.82139000"
  },
  {
    "name": "Ishiki",
    "countryCode": "JP",
    "stateCode": "23",
    "latitude": "34.80000000",
    "longitude": "137.01667000"
  },
  {
    "name": "Ishinomaki",
    "countryCode": "JP",
    "stateCode": "04",
    "latitude": "38.41667000",
    "longitude": "141.30000000"
  },
  {
    "name": "Ishinomaki Shi",
    "countryCode": "JP",
    "stateCode": "04",
    "latitude": "38.47918000",
    "longitude": "141.37226000"
  },
  {
    "name": "Ishioka",
    "countryCode": "JP",
    "stateCode": "08",
    "latitude": "36.18333000",
    "longitude": "140.26667000"
  },
  {
    "name": "Ishioka-shi",
    "countryCode": "JP",
    "stateCode": "08",
    "latitude": "36.22776000",
    "longitude": "140.21786000"
  },
  {
    "name": "Isumi",
    "countryCode": "JP",
    "stateCode": "12",
    "latitude": "35.23005000",
    "longitude": "140.40492000"
  },
  {
    "name": "Isumi Shi",
    "countryCode": "JP",
    "stateCode": "12",
    "latitude": "35.27777000",
    "longitude": "140.34335000"
  },
  {
    "name": "Itabashi-ku",
    "countryCode": "JP",
    "stateCode": "13",
    "latitude": "35.75118000",
    "longitude": "139.70927000"
  },
  {
    "name": "Itako",
    "countryCode": "JP",
    "stateCode": "08",
    "latitude": "35.93333000",
    "longitude": "140.55000000"
  },
  {
    "name": "Itako-shi",
    "countryCode": "JP",
    "stateCode": "08",
    "latitude": "35.96100000",
    "longitude": "140.56210000"
  },
  {
    "name": "Itami",
    "countryCode": "JP",
    "stateCode": "28",
    "latitude": "34.78427000",
    "longitude": "135.40126000"
  },
  {
    "name": "Itami Shi",
    "countryCode": "JP",
    "stateCode": "28",
    "latitude": "34.78675000",
    "longitude": "135.40562000"
  },
  {
    "name": "Itoigawa",
    "countryCode": "JP",
    "stateCode": "15",
    "latitude": "37.03333000",
    "longitude": "137.85000000"
  },
  {
    "name": "Itoigawa Shi",
    "countryCode": "JP",
    "stateCode": "15",
    "latitude": "36.96626000",
    "longitude": "137.89402000"
  },
  {
    "name": "Itoman",
    "countryCode": "JP",
    "stateCode": "47",
    "latitude": "26.12647000",
    "longitude": "127.66918000"
  },
  {
    "name": "Itoman Shi",
    "countryCode": "JP",
    "stateCode": "47",
    "latitude": "26.11795000",
    "longitude": "127.68710000"
  },
  {
    "name": "Itoshima-shi",
    "countryCode": "JP",
    "stateCode": "40",
    "latitude": "33.53317000",
    "longitude": "130.17975000"
  },
  {
    "name": "Itsukaichi",
    "countryCode": "JP",
    "stateCode": "13",
    "latitude": "35.72528000",
    "longitude": "139.21778000"
  },
  {
    "name": "Itō",
    "countryCode": "JP",
    "stateCode": "22",
    "latitude": "34.96667000",
    "longitude": "139.08333000"
  },
  {
    "name": "Itō Shi",
    "countryCode": "JP",
    "stateCode": "22",
    "latitude": "34.93563000",
    "longitude": "139.08725000"
  },
  {
    "name": "Iwade",
    "countryCode": "JP",
    "stateCode": "30",
    "latitude": "34.25000000",
    "longitude": "135.31667000"
  },
  {
    "name": "Iwade Shi",
    "countryCode": "JP",
    "stateCode": "30",
    "latitude": "34.28089000",
    "longitude": "135.30560000"
  },
  {
    "name": "Iwai",
    "countryCode": "JP",
    "stateCode": "08",
    "latitude": "36.05000000",
    "longitude": "139.90000000"
  },
  {
    "name": "Iwaki",
    "countryCode": "JP",
    "stateCode": "07",
    "latitude": "37.05000000",
    "longitude": "140.88333000"
  },
  {
    "name": "Iwaki-shi",
    "countryCode": "JP",
    "stateCode": "07",
    "latitude": "37.08333000",
    "longitude": "140.83333000"
  },
  {
    "name": "Iwakuni Shi",
    "countryCode": "JP",
    "stateCode": "35",
    "latitude": "34.20608000",
    "longitude": "132.06286000"
  },
  {
    "name": "Iwakura",
    "countryCode": "JP",
    "stateCode": "23",
    "latitude": "35.28333000",
    "longitude": "136.86667000"
  },
  {
    "name": "Iwakura-shi",
    "countryCode": "JP",
    "stateCode": "23",
    "latitude": "35.27927000",
    "longitude": "136.86885000"
  },
  {
    "name": "Iwamizawa",
    "countryCode": "JP",
    "stateCode": "01",
    "latitude": "43.20028000",
    "longitude": "141.75972000"
  },
  {
    "name": "Iwamizawa-shi",
    "countryCode": "JP",
    "stateCode": "01",
    "latitude": "43.18086000",
    "longitude": "141.79744000"
  },
  {
    "name": "Iwanai",
    "countryCode": "JP",
    "stateCode": "01",
    "latitude": "42.97444000",
    "longitude": "140.50889000"
  },
  {
    "name": "Iwanuma",
    "countryCode": "JP",
    "stateCode": "04",
    "latitude": "38.10472000",
    "longitude": "140.85944000"
  },
  {
    "name": "Iwanuma-shi",
    "countryCode": "JP",
    "stateCode": "04",
    "latitude": "38.11667000",
    "longitude": "140.88333000"
  },
  {
    "name": "Iwase",
    "countryCode": "JP",
    "stateCode": "08",
    "latitude": "36.35000000",
    "longitude": "140.10000000"
  },
  {
    "name": "Iwata",
    "countryCode": "JP",
    "stateCode": "22",
    "latitude": "34.70000000",
    "longitude": "137.85000000"
  },
  {
    "name": "Iwata-shi",
    "countryCode": "JP",
    "stateCode": "22",
    "latitude": "34.74451000",
    "longitude": "137.85043000"
  },
  {
    "name": "Iwate-gun",
    "countryCode": "JP",
    "stateCode": "03",
    "latitude": "39.97238000",
    "longitude": "141.22719000"
  },
  {
    "name": "Iwatsuki",
    "countryCode": "JP",
    "stateCode": "11",
    "latitude": "35.96474000",
    "longitude": "139.69644000"
  },
  {
    "name": "Iyo",
    "countryCode": "JP",
    "stateCode": "38",
    "latitude": "33.75139000",
    "longitude": "132.70139000"
  },
  {
    "name": "Iyo-shi",
    "countryCode": "JP",
    "stateCode": "38",
    "latitude": "33.68493000",
    "longitude": "132.68909000"
  },
  {
    "name": "Izu",
    "countryCode": "JP",
    "stateCode": "22",
    "latitude": "34.97159000",
    "longitude": "138.94643000"
  },
  {
    "name": "Izu-shi",
    "countryCode": "JP",
    "stateCode": "22",
    "latitude": "34.92201000",
    "longitude": "138.92585000"
  },
  {
    "name": "Izumi",
    "countryCode": "JP",
    "stateCode": "27",
    "latitude": "34.48333000",
    "longitude": "135.43333000"
  },
  {
    "name": "Izumi",
    "countryCode": "JP",
    "stateCode": "46",
    "latitude": "32.08333000",
    "longitude": "130.36667000"
  },
  {
    "name": "Izumi Shi",
    "countryCode": "JP",
    "stateCode": "27",
    "latitude": "34.43135000",
    "longitude": "135.47164000"
  },
  {
    "name": "Izumi Shi",
    "countryCode": "JP",
    "stateCode": "46",
    "latitude": "32.06412000",
    "longitude": "130.36097000"
  },
  {
    "name": "Izumisano",
    "countryCode": "JP",
    "stateCode": "27",
    "latitude": "34.41667000",
    "longitude": "135.31667000"
  },
  {
    "name": "Izumisano Shi",
    "countryCode": "JP",
    "stateCode": "27",
    "latitude": "34.37398000",
    "longitude": "135.33682000"
  },
  {
    "name": "Izumiōtsu",
    "countryCode": "JP",
    "stateCode": "27",
    "latitude": "34.50000000",
    "longitude": "135.40000000"
  },
  {
    "name": "Izumiōtsu Shi",
    "countryCode": "JP",
    "stateCode": "27",
    "latitude": "34.50647000",
    "longitude": "135.40462000"
  },
  {
    "name": "Izumo",
    "countryCode": "JP",
    "stateCode": "32",
    "latitude": "35.36667000",
    "longitude": "132.76667000"
  },
  {
    "name": "Izumo Shi",
    "countryCode": "JP",
    "stateCode": "32",
    "latitude": "35.33858000",
    "longitude": "132.73903000"
  },
  {
    "name": "Izunokuni-shi",
    "countryCode": "JP",
    "stateCode": "22",
    "latitude": "35.03799000",
    "longitude": "138.97295000"
  },
  {
    "name": "Jōetsu",
    "countryCode": "JP",
    "stateCode": "15",
    "latitude": "37.14828000",
    "longitude": "138.23642000"
  },
  {
    "name": "Jōetsu Shi",
    "countryCode": "JP",
    "stateCode": "15",
    "latitude": "37.12010000",
    "longitude": "138.33752000"
  },
  {
    "name": "Jōsō-shi",
    "countryCode": "JP",
    "stateCode": "08",
    "latitude": "36.06409000",
    "longitude": "139.96397000"
  },
  {
    "name": "Jōyō Shi",
    "countryCode": "JP",
    "stateCode": "26",
    "latitude": "34.84566000",
    "longitude": "135.79760000"
  },
  {
    "name": "Kadoma",
    "countryCode": "JP",
    "stateCode": "27",
    "latitude": "34.73810000",
    "longitude": "135.57442000"
  },
  {
    "name": "Kadoma Shi",
    "countryCode": "JP",
    "stateCode": "27",
    "latitude": "34.73215000",
    "longitude": "135.59935000"
  },
  {
    "name": "Kaga Shi",
    "countryCode": "JP",
    "stateCode": "17",
    "latitude": "36.25503000",
    "longitude": "136.37963000"
  },
  {
    "name": "Kagoshima",
    "countryCode": "JP",
    "stateCode": "46",
    "latitude": "31.56667000",
    "longitude": "130.55000000"
  },
  {
    "name": "Kagoshima Shi",
    "countryCode": "JP",
    "stateCode": "46",
    "latitude": "31.58003000",
    "longitude": "130.52806000"
  },
  {
    "name": "Kahoku Shi",
    "countryCode": "JP",
    "stateCode": "17",
    "latitude": "36.74365000",
    "longitude": "136.73273000"
  },
  {
    "name": "Kai-shi",
    "countryCode": "JP",
    "stateCode": "19",
    "latitude": "35.71627000",
    "longitude": "138.51871000"
  },
  {
    "name": "Kainan",
    "countryCode": "JP",
    "stateCode": "30",
    "latitude": "34.15166000",
    "longitude": "135.21398000"
  },
  {
    "name": "Kainan Shi",
    "countryCode": "JP",
    "stateCode": "30",
    "latitude": "34.14182000",
    "longitude": "135.22400000"
  },
  {
    "name": "Kaizu-shi",
    "countryCode": "JP",
    "stateCode": "21",
    "latitude": "35.21381000",
    "longitude": "136.62443000"
  },
  {
    "name": "Kaizuka",
    "countryCode": "JP",
    "stateCode": "27",
    "latitude": "34.45000000",
    "longitude": "135.35000000"
  },
  {
    "name": "Kaizuka Shi",
    "countryCode": "JP",
    "stateCode": "27",
    "latitude": "34.40105000",
    "longitude": "135.38510000"
  },
  {
    "name": "Kajiki",
    "countryCode": "JP",
    "stateCode": "46",
    "latitude": "31.73333000",
    "longitude": "130.66667000"
  },
  {
    "name": "Kakamigahara-shi",
    "countryCode": "JP",
    "stateCode": "21",
    "latitude": "35.40283000",
    "longitude": "136.87829000"
  },
  {
    "name": "Kakegawa",
    "countryCode": "JP",
    "stateCode": "22",
    "latitude": "34.76667000",
    "longitude": "138.01667000"
  },
  {
    "name": "Kakegawa Shi",
    "countryCode": "JP",
    "stateCode": "22",
    "latitude": "34.77993000",
    "longitude": "138.01897000"
  },
  {
    "name": "Kakogawa Shi",
    "countryCode": "JP",
    "stateCode": "28",
    "latitude": "34.78472000",
    "longitude": "134.84897000"
  },
  {
    "name": "Kakogawachō-honmachi",
    "countryCode": "JP",
    "stateCode": "28",
    "latitude": "34.76943000",
    "longitude": "134.82905000"
  },
  {
    "name": "Kakuda",
    "countryCode": "JP",
    "stateCode": "04",
    "latitude": "37.97451000",
    "longitude": "140.77202000"
  },
  {
    "name": "Kakuda Shi",
    "countryCode": "JP",
    "stateCode": "04",
    "latitude": "37.98828000",
    "longitude": "140.77903000"
  },
  {
    "name": "Kakunodatemachi",
    "countryCode": "JP",
    "stateCode": "05",
    "latitude": "39.58926000",
    "longitude": "140.56724000"
  },
  {
    "name": "Kama Shi",
    "countryCode": "JP",
    "stateCode": "40",
    "latitude": "33.53663000",
    "longitude": "130.74028000"
  },
  {
    "name": "Kamagaya Shi",
    "countryCode": "JP",
    "stateCode": "12",
    "latitude": "35.77289000",
    "longitude": "139.99883000"
  },
  {
    "name": "Kamaishi",
    "countryCode": "JP",
    "stateCode": "03",
    "latitude": "39.27694000",
    "longitude": "141.86801000"
  },
  {
    "name": "Kamaishi-shi",
    "countryCode": "JP",
    "stateCode": "03",
    "latitude": "39.28748000",
    "longitude": "141.79854000"
  },
  {
    "name": "Kamakura",
    "countryCode": "JP",
    "stateCode": "14",
    "latitude": "35.30889000",
    "longitude": "139.55028000"
  },
  {
    "name": "Kamakura Shi",
    "countryCode": "JP",
    "stateCode": "14",
    "latitude": "35.33000000",
    "longitude": "139.53798000"
  },
  {
    "name": "Kameda-honchō",
    "countryCode": "JP",
    "stateCode": "15",
    "latitude": "37.87214000",
    "longitude": "139.10990000"
  },
  {
    "name": "Kameoka",
    "countryCode": "JP",
    "stateCode": "26",
    "latitude": "35.00000000",
    "longitude": "135.58333000"
  },
  {
    "name": "Kameoka-shi",
    "countryCode": "JP",
    "stateCode": "26",
    "latitude": "35.01021000",
    "longitude": "135.53900000"
  },
  {
    "name": "Kameyama",
    "countryCode": "JP",
    "stateCode": "24",
    "latitude": "34.85000000",
    "longitude": "136.45000000"
  },
  {
    "name": "Kameyama Shi",
    "countryCode": "JP",
    "stateCode": "24",
    "latitude": "34.86866000",
    "longitude": "136.39345000"
  },
  {
    "name": "Kamiamakusa Shi",
    "countryCode": "JP",
    "stateCode": "43",
    "latitude": "32.49550000",
    "longitude": "130.40816000"
  },
  {
    "name": "Kamifukuoka",
    "countryCode": "JP",
    "stateCode": "11",
    "latitude": "35.87266000",
    "longitude": "139.51369000"
  },
  {
    "name": "Kamigyō-ku",
    "countryCode": "JP",
    "stateCode": "26",
    "latitude": "35.02954000",
    "longitude": "135.75666000"
  },
  {
    "name": "Kamiichi",
    "countryCode": "JP",
    "stateCode": "16",
    "latitude": "36.70000000",
    "longitude": "137.36667000"
  },
  {
    "name": "Kamiiso",
    "countryCode": "JP",
    "stateCode": "01",
    "latitude": "41.82013000",
    "longitude": "140.64482000"
  },
  {
    "name": "Kamikawa",
    "countryCode": "JP",
    "stateCode": "01",
    "latitude": "43.84000000",
    "longitude": "142.77111000"
  },
  {
    "name": "Kamimaruko",
    "countryCode": "JP",
    "stateCode": "20",
    "latitude": "36.31865000",
    "longitude": "138.27329000"
  },
  {
    "name": "Kaminokawa",
    "countryCode": "JP",
    "stateCode": "09",
    "latitude": "36.43333000",
    "longitude": "139.91667000"
  },
  {
    "name": "Kaminoyama",
    "countryCode": "JP",
    "stateCode": "06",
    "latitude": "38.15389000",
    "longitude": "140.27361000"
  },
  {
    "name": "Kaminoyama-shi",
    "countryCode": "JP",
    "stateCode": "06",
    "latitude": "38.13333000",
    "longitude": "140.33333000"
  },
  {
    "name": "Kamirenjaku",
    "countryCode": "JP",
    "stateCode": "13",
    "latitude": "35.69423000",
    "longitude": "139.55495000"
  },
  {
    "name": "Kamisu-shi",
    "countryCode": "JP",
    "stateCode": "08",
    "latitude": "35.85126000",
    "longitude": "140.71171000"
  },
  {
    "name": "Kamo",
    "countryCode": "JP",
    "stateCode": "15",
    "latitude": "37.66442000",
    "longitude": "139.03502000"
  },
  {
    "name": "Kamo Shi",
    "countryCode": "JP",
    "stateCode": "15",
    "latitude": "37.62209000",
    "longitude": "139.11068000"
  },
  {
    "name": "Kamogatachō-kamogata",
    "countryCode": "JP",
    "stateCode": "33",
    "latitude": "34.53745000",
    "longitude": "133.58967000"
  },
  {
    "name": "Kamogawa",
    "countryCode": "JP",
    "stateCode": "12",
    "latitude": "35.09690000",
    "longitude": "140.10030000"
  },
  {
    "name": "Kamogawa-shi",
    "countryCode": "JP",
    "stateCode": "12",
    "latitude": "35.10000000",
    "longitude": "140.10000000"
  },
  {
    "name": "Kamojimachō-jōgejima",
    "countryCode": "JP",
    "stateCode": "36",
    "latitude": "34.06803000",
    "longitude": "134.35033000"
  },
  {
    "name": "Kanaya",
    "countryCode": "JP",
    "stateCode": "22",
    "latitude": "34.82022000",
    "longitude": "138.12775000"
  },
  {
    "name": "Kanazawa",
    "countryCode": "JP",
    "stateCode": "17",
    "latitude": "36.60000000",
    "longitude": "136.61667000"
  },
  {
    "name": "Kanazawa-shi",
    "countryCode": "JP",
    "stateCode": "17",
    "latitude": "36.51919000",
    "longitude": "136.70836000"
  },
  {
    "name": "Kanda",
    "countryCode": "JP",
    "stateCode": "40",
    "latitude": "33.78333000",
    "longitude": "130.98333000"
  },
  {
    "name": "Kanekomachi",
    "countryCode": "JP",
    "stateCode": "10",
    "latitude": "36.41097000",
    "longitude": "138.99621000"
  },
  {
    "name": "Kani-shi",
    "countryCode": "JP",
    "stateCode": "21",
    "latitude": "35.40589000",
    "longitude": "137.06602000"
  },
  {
    "name": "Kanie",
    "countryCode": "JP",
    "stateCode": "23",
    "latitude": "35.13333000",
    "longitude": "136.80000000"
  },
  {
    "name": "Kannabechō-yahiro",
    "countryCode": "JP",
    "stateCode": "34",
    "latitude": "34.55808000",
    "longitude": "133.41796000"
  },
  {
    "name": "Kanoya",
    "countryCode": "JP",
    "stateCode": "46",
    "latitude": "31.38333000",
    "longitude": "130.85000000"
  },
  {
    "name": "Kanoya Shi",
    "countryCode": "JP",
    "stateCode": "46",
    "latitude": "31.42664000",
    "longitude": "130.86735000"
  },
  {
    "name": "Kanuma",
    "countryCode": "JP",
    "stateCode": "09",
    "latitude": "36.55000000",
    "longitude": "139.73333000"
  },
  {
    "name": "Kanuma-shi",
    "countryCode": "JP",
    "stateCode": "09",
    "latitude": "36.57550000",
    "longitude": "139.64149000"
  },
  {
    "name": "Kanzaki Shi",
    "countryCode": "JP",
    "stateCode": "41",
    "latitude": "33.34446000",
    "longitude": "130.35883000"
  },
  {
    "name": "Kan’onji Shi",
    "countryCode": "JP",
    "stateCode": "37",
    "latitude": "34.08457000",
    "longitude": "133.67448000"
  },
  {
    "name": "Kan’onjichō",
    "countryCode": "JP",
    "stateCode": "37",
    "latitude": "34.12760000",
    "longitude": "133.64598000"
  },
  {
    "name": "Karasuyama",
    "countryCode": "JP",
    "stateCode": "09",
    "latitude": "36.65000000",
    "longitude": "140.15000000"
  },
  {
    "name": "Karatsu",
    "countryCode": "JP",
    "stateCode": "41",
    "latitude": "33.44250000",
    "longitude": "129.96972000"
  },
  {
    "name": "Karatsu Shi",
    "countryCode": "JP",
    "stateCode": "41",
    "latitude": "33.41802000",
    "longitude": "129.99775000"
  },
  {
    "name": "Kariya",
    "countryCode": "JP",
    "stateCode": "23",
    "latitude": "34.98333000",
    "longitude": "136.98333000"
  },
  {
    "name": "Kariya",
    "countryCode": "JP",
    "stateCode": "28",
    "latitude": "34.75136000",
    "longitude": "134.38734000"
  },
  {
    "name": "Kariya-shi",
    "countryCode": "JP",
    "stateCode": "23",
    "latitude": "35.01098000",
    "longitude": "137.00166000"
  },
  {
    "name": "Karuizawa",
    "countryCode": "JP",
    "stateCode": "39",
    "latitude": "36.34833333",
    "longitude": "138.59694444"
  },
  {
    "name": "Kasai Shi",
    "countryCode": "JP",
    "stateCode": "28",
    "latitude": "34.92476000",
    "longitude": "134.85359000"
  },
  {
    "name": "Kasama",
    "countryCode": "JP",
    "stateCode": "08",
    "latitude": "36.38333000",
    "longitude": "140.26667000"
  },
  {
    "name": "Kasama-shi",
    "countryCode": "JP",
    "stateCode": "08",
    "latitude": "36.35651000",
    "longitude": "140.26935000"
  },
  {
    "name": "Kasamatsuchō",
    "countryCode": "JP",
    "stateCode": "21",
    "latitude": "35.36667000",
    "longitude": "136.76667000"
  },
  {
    "name": "Kasaoka",
    "countryCode": "JP",
    "stateCode": "33",
    "latitude": "34.50597000",
    "longitude": "133.50391000"
  },
  {
    "name": "Kasaoka Shi",
    "countryCode": "JP",
    "stateCode": "33",
    "latitude": "34.51520000",
    "longitude": "133.50618000"
  },
  {
    "name": "Kaseda-shirakame",
    "countryCode": "JP",
    "stateCode": "46",
    "latitude": "31.41667000",
    "longitude": "130.31667000"
  },
  {
    "name": "Kashiba-shi",
    "countryCode": "JP",
    "stateCode": "29",
    "latitude": "34.54107000",
    "longitude": "135.69918000"
  },
  {
    "name": "Kashihara",
    "countryCode": "JP",
    "stateCode": "27",
    "latitude": "34.58333000",
    "longitude": "135.61667000"
  },
  {
    "name": "Kashihara-shi",
    "countryCode": "JP",
    "stateCode": "29",
    "latitude": "34.50352000",
    "longitude": "135.78986000"
  },
  {
    "name": "Kashima",
    "countryCode": "JP",
    "stateCode": "41",
    "latitude": "33.10611000",
    "longitude": "130.09056000"
  },
  {
    "name": "Kashima Shi",
    "countryCode": "JP",
    "stateCode": "41",
    "latitude": "33.06203000",
    "longitude": "130.09396000"
  },
  {
    "name": "Kashima-shi",
    "countryCode": "JP",
    "stateCode": "08",
    "latitude": "35.96536000",
    "longitude": "140.64474000"
  },
  {
    "name": "Kashiwa",
    "countryCode": "JP",
    "stateCode": "12",
    "latitude": "35.86224000",
    "longitude": "139.97732000"
  },
  {
    "name": "Kashiwa Shi",
    "countryCode": "JP",
    "stateCode": "12",
    "latitude": "35.86017000",
    "longitude": "139.99386000"
  },
  {
    "name": "Kashiwara-shi",
    "countryCode": "JP",
    "stateCode": "27",
    "latitude": "34.57920000",
    "longitude": "135.62867000"
  },
  {
    "name": "Kashiwazaki",
    "countryCode": "JP",
    "stateCode": "15",
    "latitude": "37.36667000",
    "longitude": "138.55000000"
  },
  {
    "name": "Kashiwazaki Shi",
    "countryCode": "JP",
    "stateCode": "15",
    "latitude": "37.29913000",
    "longitude": "138.58654000"
  },
  {
    "name": "Kasuga Shi",
    "countryCode": "JP",
    "stateCode": "40",
    "latitude": "33.52404000",
    "longitude": "130.45641000"
  },
  {
    "name": "Kasugai",
    "countryCode": "JP",
    "stateCode": "23",
    "latitude": "35.24762000",
    "longitude": "136.97229000"
  },
  {
    "name": "Kasugai-shi",
    "countryCode": "JP",
    "stateCode": "23",
    "latitude": "35.24762000",
    "longitude": "136.97226000"
  },
  {
    "name": "Kasukabe",
    "countryCode": "JP",
    "stateCode": "11",
    "latitude": "35.98308000",
    "longitude": "139.74966000"
  },
  {
    "name": "Kasukabe Shi",
    "countryCode": "JP",
    "stateCode": "11",
    "latitude": "35.98270000",
    "longitude": "139.77574000"
  },
  {
    "name": "Kasumigaura",
    "countryCode": "JP",
    "stateCode": "08",
    "latitude": "36.15326000",
    "longitude": "140.24635000"
  },
  {
    "name": "Kasumigaura-shi",
    "countryCode": "JP",
    "stateCode": "08",
    "latitude": "36.10937000",
    "longitude": "140.30205000"
  },
  {
    "name": "Katagami",
    "countryCode": "JP",
    "stateCode": "05",
    "latitude": "39.87869000",
    "longitude": "139.99767000"
  },
  {
    "name": "Katagami-shi",
    "countryCode": "JP",
    "stateCode": "05",
    "latitude": "39.87209000",
    "longitude": "140.04910000"
  },
  {
    "name": "Katano Shi",
    "countryCode": "JP",
    "stateCode": "27",
    "latitude": "34.77215000",
    "longitude": "135.68693000"
  },
  {
    "name": "Katori-shi",
    "countryCode": "JP",
    "stateCode": "12",
    "latitude": "35.88333000",
    "longitude": "140.51667000"
  },
  {
    "name": "Katsuragi",
    "countryCode": "JP",
    "stateCode": "29",
    "latitude": "34.48562000",
    "longitude": "135.69698000"
  },
  {
    "name": "Katsuragi Shi",
    "countryCode": "JP",
    "stateCode": "29",
    "latitude": "34.49682000",
    "longitude": "135.70464000"
  },
  {
    "name": "Katsuren-haebaru",
    "countryCode": "JP",
    "stateCode": "47",
    "latitude": "26.33294000",
    "longitude": "127.87403000"
  },
  {
    "name": "Katsushika Ku",
    "countryCode": "JP",
    "stateCode": "13",
    "latitude": "35.75324000",
    "longitude": "139.85567000"
  },
  {
    "name": "Katsuta",
    "countryCode": "JP",
    "stateCode": "08",
    "latitude": "36.38333000",
    "longitude": "140.53333000"
  },
  {
    "name": "Katsuura",
    "countryCode": "JP",
    "stateCode": "12",
    "latitude": "35.14621000",
    "longitude": "140.31507000"
  },
  {
    "name": "Katsuura Gun",
    "countryCode": "JP",
    "stateCode": "36",
    "latitude": "33.91380000",
    "longitude": "134.42641000"
  },
  {
    "name": "Katsuura-shi",
    "countryCode": "JP",
    "stateCode": "12",
    "latitude": "35.17535000",
    "longitude": "140.26760000"
  },
  {
    "name": "Katsuyama",
    "countryCode": "JP",
    "stateCode": "18",
    "latitude": "36.06173000",
    "longitude": "136.50101000"
  },
  {
    "name": "Katsuyama Shi",
    "countryCode": "JP",
    "stateCode": "18",
    "latitude": "36.08440000",
    "longitude": "136.52178000"
  },
  {
    "name": "Katō Shi",
    "countryCode": "JP",
    "stateCode": "28",
    "latitude": "34.92714000",
    "longitude": "135.02134000"
  },
  {
    "name": "Kawachi-nagano Shi",
    "countryCode": "JP",
    "stateCode": "27",
    "latitude": "34.40547000",
    "longitude": "135.56692000"
  },
  {
    "name": "Kawage",
    "countryCode": "JP",
    "stateCode": "24",
    "latitude": "34.80447000",
    "longitude": "136.54645000"
  },
  {
    "name": "Kawagoe",
    "countryCode": "JP",
    "stateCode": "11",
    "latitude": "35.90861000",
    "longitude": "139.48528000"
  },
  {
    "name": "Kawagoe-shi",
    "countryCode": "JP",
    "stateCode": "11",
    "latitude": "35.91149000",
    "longitude": "139.47924000"
  },
  {
    "name": "Kawaguchi",
    "countryCode": "JP",
    "stateCode": "11",
    "latitude": "35.80521000",
    "longitude": "139.71072000"
  },
  {
    "name": "Kawaguchi-shi",
    "countryCode": "JP",
    "stateCode": "11",
    "latitude": "35.83389000",
    "longitude": "139.73252000"
  },
  {
    "name": "Kawakami",
    "countryCode": "JP",
    "stateCode": "39",
    "latitude": "35.97555556",
    "longitude": "138.57833333"
  },
  {
    "name": "Kawanishi",
    "countryCode": "JP",
    "stateCode": "28",
    "latitude": "34.81667000",
    "longitude": "135.41667000"
  },
  {
    "name": "Kawanishi Shi",
    "countryCode": "JP",
    "stateCode": "28",
    "latitude": "34.87955000",
    "longitude": "135.40919000"
  },
  {
    "name": "Kawanoechō",
    "countryCode": "JP",
    "stateCode": "38",
    "latitude": "34.01654000",
    "longitude": "133.57844000"
  },
  {
    "name": "Kawasaki",
    "countryCode": "JP",
    "stateCode": "14",
    "latitude": "35.52056000",
    "longitude": "139.71722000"
  },
  {
    "name": "Kawasaki",
    "countryCode": "JP",
    "stateCode": "40",
    "latitude": "33.59993000",
    "longitude": "130.81495000"
  },
  {
    "name": "Kawasaki-shi",
    "countryCode": "JP",
    "stateCode": "14",
    "latitude": "35.56996000",
    "longitude": "139.62854000"
  },
  {
    "name": "Kazo",
    "countryCode": "JP",
    "stateCode": "11",
    "latitude": "36.11667000",
    "longitude": "139.60000000"
  },
  {
    "name": "Kazo-shi",
    "countryCode": "JP",
    "stateCode": "11",
    "latitude": "36.13670000",
    "longitude": "139.61992000"
  },
  {
    "name": "Kazuno Shi",
    "countryCode": "JP",
    "stateCode": "05",
    "latitude": "40.21035000",
    "longitude": "140.83030000"
  },
  {
    "name": "Kesennuma",
    "countryCode": "JP",
    "stateCode": "04",
    "latitude": "38.90112000",
    "longitude": "141.57746000"
  },
  {
    "name": "Kesennuma Shi",
    "countryCode": "JP",
    "stateCode": "04",
    "latitude": "38.91377000",
    "longitude": "141.55711000"
  },
  {
    "name": "Kihoku-chō",
    "countryCode": "JP",
    "stateCode": "38",
    "latitude": "33.25592000",
    "longitude": "132.68343000"
  },
  {
    "name": "Kijimadaira",
    "countryCode": "JP",
    "stateCode": "39",
    "latitude": "36.85861111",
    "longitude": "138.40666667"
  },
  {
    "name": "Kikuchi",
    "countryCode": "JP",
    "stateCode": "43",
    "latitude": "32.98333000",
    "longitude": "130.81667000"
  },
  {
    "name": "Kikuchi Shi",
    "countryCode": "JP",
    "stateCode": "43",
    "latitude": "32.99107000",
    "longitude": "130.85523000"
  },
  {
    "name": "Kikugawa-shi",
    "countryCode": "JP",
    "stateCode": "22",
    "latitude": "34.75000000",
    "longitude": "138.10000000"
  },
  {
    "name": "Kimitsu",
    "countryCode": "JP",
    "stateCode": "12",
    "latitude": "35.35043000",
    "longitude": "139.87029000"
  },
  {
    "name": "Kinokawa Shi",
    "countryCode": "JP",
    "stateCode": "30",
    "latitude": "34.25400000",
    "longitude": "135.39412000"
  },
  {
    "name": "Kirishima Shi",
    "countryCode": "JP",
    "stateCode": "46",
    "latitude": "31.80558000",
    "longitude": "130.78164000"
  },
  {
    "name": "Kiryū",
    "countryCode": "JP",
    "stateCode": "10",
    "latitude": "36.40000000",
    "longitude": "139.33333000"
  },
  {
    "name": "Kiryū Shi",
    "countryCode": "JP",
    "stateCode": "10",
    "latitude": "36.45702000",
    "longitude": "139.30962000"
  },
  {
    "name": "Kisai",
    "countryCode": "JP",
    "stateCode": "11",
    "latitude": "36.10000000",
    "longitude": "139.58333000"
  },
  {
    "name": "Kisarazu",
    "countryCode": "JP",
    "stateCode": "12",
    "latitude": "35.38329000",
    "longitude": "139.93254000"
  },
  {
    "name": "Kisarazu Shi",
    "countryCode": "JP",
    "stateCode": "12",
    "latitude": "35.36981000",
    "longitude": "139.98749000"
  },
  {
    "name": "Kishiwada",
    "countryCode": "JP",
    "stateCode": "27",
    "latitude": "34.46667000",
    "longitude": "135.36667000"
  },
  {
    "name": "Kishiwada Shi",
    "countryCode": "JP",
    "stateCode": "27",
    "latitude": "34.42747000",
    "longitude": "135.41605000"
  },
  {
    "name": "Kiso",
    "countryCode": "JP",
    "stateCode": "39",
    "latitude": "35.93638889",
    "longitude": "137.78305556"
  },
  {
    "name": "Kita-ku",
    "countryCode": "JP",
    "stateCode": "13",
    "latitude": "35.75264000",
    "longitude": "139.73348000"
  },
  {
    "name": "Kitaaiki",
    "countryCode": "JP",
    "stateCode": "39",
    "latitude": "36.05916667",
    "longitude": "138.55111111"
  },
  {
    "name": "Kitaakita-shi",
    "countryCode": "JP",
    "stateCode": "05",
    "latitude": "40.23446000",
    "longitude": "140.39978000"
  },
  {
    "name": "Kitagawa",
    "countryCode": "JP",
    "stateCode": "39",
    "latitude": "33.44777778",
    "longitude": "134.04222222"
  },
  {
    "name": "Kitahama",
    "countryCode": "JP",
    "stateCode": "25",
    "latitude": "35.16667000",
    "longitude": "135.91667000"
  },
  {
    "name": "Kitahiroshima",
    "countryCode": "JP",
    "stateCode": "01",
    "latitude": "42.97583000",
    "longitude": "141.56722000"
  },
  {
    "name": "Kitahiroshima-shi",
    "countryCode": "JP",
    "stateCode": "01",
    "latitude": "42.98581000",
    "longitude": "141.55678000"
  },
  {
    "name": "Kitaibaraki",
    "countryCode": "JP",
    "stateCode": "08",
    "latitude": "36.78671000",
    "longitude": "140.74901000"
  },
  {
    "name": "Kitaibaraki-shi",
    "countryCode": "JP",
    "stateCode": "08",
    "latitude": "36.83987000",
    "longitude": "140.68736000"
  },
  {
    "name": "Kitakami",
    "countryCode": "JP",
    "stateCode": "03",
    "latitude": "39.28333000",
    "longitude": "141.11667000"
  },
  {
    "name": "Kitakami-shi",
    "countryCode": "JP",
    "stateCode": "03",
    "latitude": "39.30765000",
    "longitude": "141.00795000"
  },
  {
    "name": "Kitakata",
    "countryCode": "JP",
    "stateCode": "07",
    "latitude": "37.65000000",
    "longitude": "139.86667000"
  },
  {
    "name": "Kitakata-shi",
    "countryCode": "JP",
    "stateCode": "07",
    "latitude": "37.68333000",
    "longitude": "139.90000000"
  },
  {
    "name": "Kitakyushu",
    "countryCode": "JP",
    "stateCode": "40",
    "latitude": "33.85181000",
    "longitude": "130.85034000"
  },
  {
    "name": "Kitami",
    "countryCode": "JP",
    "stateCode": "01",
    "latitude": "43.80306000",
    "longitude": "143.89083000"
  },
  {
    "name": "Kitamoto Shi",
    "countryCode": "JP",
    "stateCode": "11",
    "latitude": "36.02615000",
    "longitude": "139.53043000"
  },
  {
    "name": "Kitanagoya",
    "countryCode": "JP",
    "stateCode": "23",
    "latitude": "35.24702000",
    "longitude": "136.87832000"
  },
  {
    "name": "Kitanagoya-shi",
    "countryCode": "JP",
    "stateCode": "23",
    "latitude": "35.24640000",
    "longitude": "136.87293000"
  },
  {
    "name": "Kitsuki",
    "countryCode": "JP",
    "stateCode": "44",
    "latitude": "33.41998000",
    "longitude": "131.61837000"
  },
  {
    "name": "Kitsuki Shi",
    "countryCode": "JP",
    "stateCode": "44",
    "latitude": "33.44729000",
    "longitude": "131.53670000"
  },
  {
    "name": "Kiyose-shi",
    "countryCode": "JP",
    "stateCode": "13",
    "latitude": "35.78551000",
    "longitude": "139.52628000"
  },
  {
    "name": "Kiyosu-shi",
    "countryCode": "JP",
    "stateCode": "23",
    "latitude": "35.21325000",
    "longitude": "136.84771000"
  },
  {
    "name": "Kizugawa-shi",
    "countryCode": "JP",
    "stateCode": "26",
    "latitude": "34.73781000",
    "longitude": "135.82128000"
  },
  {
    "name": "Kobayashi",
    "countryCode": "JP",
    "stateCode": "45",
    "latitude": "31.98333000",
    "longitude": "130.98333000"
  },
  {
    "name": "Kobayashi Shi",
    "countryCode": "JP",
    "stateCode": "45",
    "latitude": "32.04556000",
    "longitude": "131.02762000"
  },
  {
    "name": "Kobe",
    "countryCode": "JP",
    "stateCode": "28",
    "latitude": "34.69130000",
    "longitude": "135.18300000"
  },
  {
    "name": "Kodaira-shi",
    "countryCode": "JP",
    "stateCode": "13",
    "latitude": "35.72738000",
    "longitude": "139.48173000"
  },
  {
    "name": "Kodamachō-kodamaminami",
    "countryCode": "JP",
    "stateCode": "11",
    "latitude": "36.18497000",
    "longitude": "139.13191000"
  },
  {
    "name": "Koga",
    "countryCode": "JP",
    "stateCode": "08",
    "latitude": "36.18333000",
    "longitude": "139.71667000"
  },
  {
    "name": "Koga",
    "countryCode": "JP",
    "stateCode": "40",
    "latitude": "33.73333000",
    "longitude": "130.46667000"
  },
  {
    "name": "Koga-shi",
    "countryCode": "JP",
    "stateCode": "08",
    "latitude": "36.17975000",
    "longitude": "139.77534000"
  },
  {
    "name": "Koga-shi",
    "countryCode": "JP",
    "stateCode": "40",
    "latitude": "33.72139000",
    "longitude": "130.49947000"
  },
  {
    "name": "Koganei-shi",
    "countryCode": "JP",
    "stateCode": "13",
    "latitude": "35.70108000",
    "longitude": "139.51104000"
  },
  {
    "name": "Kogota",
    "countryCode": "JP",
    "stateCode": "04",
    "latitude": "38.55000000",
    "longitude": "141.05000000"
  },
  {
    "name": "Kokubu-matsuki",
    "countryCode": "JP",
    "stateCode": "46",
    "latitude": "31.73333000",
    "longitude": "130.76667000"
  },
  {
    "name": "Kokubunji",
    "countryCode": "JP",
    "stateCode": "13",
    "latitude": "35.70222000",
    "longitude": "139.47556000"
  },
  {
    "name": "Kokubunji-shi",
    "countryCode": "JP",
    "stateCode": "13",
    "latitude": "35.70552000",
    "longitude": "139.46125000"
  },
  {
    "name": "Komae-shi",
    "countryCode": "JP",
    "stateCode": "13",
    "latitude": "35.63487000",
    "longitude": "139.57723000"
  },
  {
    "name": "Komagane",
    "countryCode": "JP",
    "stateCode": "20",
    "latitude": "35.71657000",
    "longitude": "137.93745000"
  },
  {
    "name": "Komagane-shi",
    "countryCode": "JP",
    "stateCode": "20",
    "latitude": "35.72770000",
    "longitude": "137.94783000"
  },
  {
    "name": "Komaki",
    "countryCode": "JP",
    "stateCode": "23",
    "latitude": "35.28333000",
    "longitude": "136.91667000"
  },
  {
    "name": "Komaki-shi",
    "countryCode": "JP",
    "stateCode": "23",
    "latitude": "35.29103000",
    "longitude": "136.91196000"
  },
  {
    "name": "Komatsu",
    "countryCode": "JP",
    "stateCode": "17",
    "latitude": "36.40263000",
    "longitude": "136.45088000"
  },
  {
    "name": "Komatsushima Shi",
    "countryCode": "JP",
    "stateCode": "36",
    "latitude": "33.98071000",
    "longitude": "134.59529000"
  },
  {
    "name": "Komatsushimachō",
    "countryCode": "JP",
    "stateCode": "36",
    "latitude": "34.00000000",
    "longitude": "134.58333000"
  },
  {
    "name": "Komono",
    "countryCode": "JP",
    "stateCode": "24",
    "latitude": "35.00000000",
    "longitude": "136.51667000"
  },
  {
    "name": "Komoro",
    "countryCode": "JP",
    "stateCode": "20",
    "latitude": "36.31667000",
    "longitude": "138.43333000"
  },
  {
    "name": "Komoro",
    "countryCode": "JP",
    "stateCode": "39",
    "latitude": "36.32750000",
    "longitude": "138.42583333"
  },
  {
    "name": "Komoro Shi",
    "countryCode": "JP",
    "stateCode": "20",
    "latitude": "36.33905000",
    "longitude": "138.43503000"
  },
  {
    "name": "Konan-shi",
    "countryCode": "JP",
    "stateCode": "25",
    "latitude": "35.01667000",
    "longitude": "136.08333000"
  },
  {
    "name": "Konosu-Shi",
    "countryCode": "JP",
    "stateCode": "11",
    "latitude": "36.06634000",
    "longitude": "139.52010000"
  },
  {
    "name": "Kosai",
    "countryCode": "JP",
    "stateCode": "22",
    "latitude": "34.70053000",
    "longitude": "137.52253000"
  },
  {
    "name": "Kosai-shi",
    "countryCode": "JP",
    "stateCode": "22",
    "latitude": "34.73092000",
    "longitude": "137.51643000"
  },
  {
    "name": "Koseda",
    "countryCode": "JP",
    "stateCode": "46",
    "latitude": "30.38796000",
    "longitude": "130.64924000"
  },
  {
    "name": "Koshigaya Shi",
    "countryCode": "JP",
    "stateCode": "11",
    "latitude": "35.90108000",
    "longitude": "139.79023000"
  },
  {
    "name": "Koshima",
    "countryCode": "JP",
    "stateCode": "46",
    "latitude": "30.23461000",
    "longitude": "130.53517000"
  },
  {
    "name": "Kozakai-chō",
    "countryCode": "JP",
    "stateCode": "23",
    "latitude": "34.80000000",
    "longitude": "137.35889000"
  },
  {
    "name": "Ktiami Shi",
    "countryCode": "JP",
    "stateCode": "01",
    "latitude": "43.85160000",
    "longitude": "143.71520000"
  },
  {
    "name": "Kudamatsu",
    "countryCode": "JP",
    "stateCode": "35",
    "latitude": "34.00000000",
    "longitude": "131.86667000"
  },
  {
    "name": "Kudamatsu Shi",
    "countryCode": "JP",
    "stateCode": "35",
    "latitude": "34.03243000",
    "longitude": "131.88683000"
  },
  {
    "name": "Kuji",
    "countryCode": "JP",
    "stateCode": "03",
    "latitude": "40.18778000",
    "longitude": "141.76889000"
  },
  {
    "name": "Kuji-shi",
    "countryCode": "JP",
    "stateCode": "03",
    "latitude": "40.14364000",
    "longitude": "141.65918000"
  },
  {
    "name": "Kuki-shi",
    "countryCode": "JP",
    "stateCode": "11",
    "latitude": "36.07664000",
    "longitude": "139.64941000"
  },
  {
    "name": "Kukichūō",
    "countryCode": "JP",
    "stateCode": "11",
    "latitude": "36.06739000",
    "longitude": "139.67498000"
  },
  {
    "name": "Kumagaya Shi",
    "countryCode": "JP",
    "stateCode": "11",
    "latitude": "36.16028000",
    "longitude": "139.37256000"
  },
  {
    "name": "Kumamoto",
    "countryCode": "JP",
    "stateCode": "43",
    "latitude": "32.80589000",
    "longitude": "130.69181000"
  },
  {
    "name": "Kumamoto Shi",
    "countryCode": "JP",
    "stateCode": "43",
    "latitude": "32.79733000",
    "longitude": "130.69171000"
  },
  {
    "name": "Kumano",
    "countryCode": "JP",
    "stateCode": "24",
    "latitude": "33.90389000",
    "longitude": "136.12214000"
  },
  {
    "name": "Kumano-shi",
    "countryCode": "JP",
    "stateCode": "24",
    "latitude": "33.92290000",
    "longitude": "136.02646000"
  },
  {
    "name": "Kunisaki-shi",
    "countryCode": "JP",
    "stateCode": "44",
    "latitude": "33.56543000",
    "longitude": "131.73157000"
  },
  {
    "name": "Kunitachi-shi",
    "countryCode": "JP",
    "stateCode": "13",
    "latitude": "35.68634000",
    "longitude": "139.43878000"
  },
  {
    "name": "Kurashiki",
    "countryCode": "JP",
    "stateCode": "33",
    "latitude": "34.58333000",
    "longitude": "133.76667000"
  },
  {
    "name": "Kurashiki Shi",
    "countryCode": "JP",
    "stateCode": "33",
    "latitude": "34.55466000",
    "longitude": "133.74826000"
  },
  {
    "name": "Kurayoshi-shi",
    "countryCode": "JP",
    "stateCode": "31",
    "latitude": "35.39110000",
    "longitude": "133.74577000"
  },