[
  {
    "name": "Butha-Buthe",
    "countryCode": "LS",
    "stateCode": "B",
    "latitude": "-28.76659000",
    "longitude": "28.24937000"
  },
  {
    "name": "Leribe",
    "countryCode": "LS",
    "stateCode": "C",
    "latitude": "-28.87185000",
    "longitude": "28.04501000"
  },
  {
    "name": "Mafeteng",
    "countryCode": "LS",
    "stateCode": "E",
    "latitude": "-29.82299000",
    "longitude": "27.23744000"
  },
  {
    "name": "Maputsoe",
    "countryCode": "LS",
    "stateCode": "C",
    "latitude": "-28.88660000",
    "longitude": "27.89915000"
  },
  {
    "name": "Maseru",
    "countryCode": "LS",
    "stateCode": "A",
    "latitude": "-29.31667000",
    "longitude": "27.48333000"
  },
  {
    "name": "Mohale’s Hoek",
    "countryCode": "LS",
    "stateCode": "F",
    "latitude": "-30.15137000",
    "longitude": "27.47691000"
  },
  {
    "name": "Mokhotlong",
    "countryCode": "LS",
    "stateCode": "J",
    "latitude": "-29.28939000",
    "longitude": "29.06751000"
  },
  {
    "name": "Nako",
    "countryCode": "LS",
    "stateCode": "A",
    "latitude": "-29.61667000",
    "longitude": "27.76667000"
  },
  {
    "name": "Qacha’s Nek",
    "countryCode": "LS",
    "stateCode": "H",
    "latitude": "-30.11537000",
    "longitude": "28.68936000"
  },
  {
    "name": "Quthing",
    "countryCode": "LS",
    "stateCode": "G",
    "latitude": "-30.40001000",
    "longitude": "27.70027000"
  },
  {
    "name": "Teyateyaneng",
    "countryCode": "LS",
    "stateCode": "D",
    "latitude": "-29.14719000",
    "longitude": "27.74895000"
  },
  {
    "name": "Thaba-Tseka",
    "countryCode": "LS",
    "stateCode": "K",
    "latitude": "-29.52204000",
    "longitude": "28.60840000"
  }
]