[
  {
    "name": "Alzingen",
    "countryCode": "LU",
    "stateCode": "LU",
    "latitude": "49.56500000",
    "longitude": "6.16361000"
  },
  {
    "name": "Aspelt",
    "countryCode": "LU",
    "stateCode": "ES",
    "latitude": "49.52278000",
    "longitude": "6.22472000"
  },
  {
    "name": "Bascharage",
    "countryCode": "LU",
    "stateCode": "CA",
    "latitude": "49.56727000",
    "longitude": "5.90730000"
  },
  {
    "name": "Bavigne",
    "countryCode": "LU",
    "stateCode": "WI",
    "latitude": "49.92194000",
    "longitude": "5.84944000"
  },
  {
    "name": "Beaufort",
    "countryCode": "LU",
    "stateCode": "EC",
    "latitude": "49.83583000",
    "longitude": "6.29167000"
  },
  {
    "name": "Bech",
    "countryCode": "LU",
    "stateCode": "EC",
    "latitude": "49.75260000",
    "longitude": "6.36379000"
  },
  {
    "name": "Beckerich",
    "countryCode": "LU",
    "stateCode": "RD",
    "latitude": "49.73056000",
    "longitude": "5.88722000"
  },
  {
    "name": "Belvaux",
    "countryCode": "LU",
    "stateCode": "ES",
    "latitude": "49.51014000",
    "longitude": "5.92414000"
  },
  {
    "name": "Berdorf",
    "countryCode": "LU",
    "stateCode": "EC",
    "latitude": "49.82051000",
    "longitude": "6.34945000"
  },
  {
    "name": "Bergem",
    "countryCode": "LU",
    "stateCode": "ES",
    "latitude": "49.52500000",
    "longitude": "6.04222000"
  },
  {
    "name": "Bertrange",
    "countryCode": "LU",
    "stateCode": "LU",
    "latitude": "49.61111000",
    "longitude": "6.05000000"
  },
  {
    "name": "Bettborn",
    "countryCode": "LU",
    "stateCode": "RD",
    "latitude": "49.79528000",
    "longitude": "5.94111000"
  },
  {
    "name": "Bettembourg",
    "countryCode": "LU",
    "stateCode": "ES",
    "latitude": "49.51861000",
    "longitude": "6.10278000"
  },
  {
    "name": "Bettendorf",
    "countryCode": "LU",
    "stateCode": "DI",
    "latitude": "49.87667000",
    "longitude": "6.21806000"
  },
  {
    "name": "Betzdorf",
    "countryCode": "LU",
    "stateCode": "GR",
    "latitude": "49.68333000",
    "longitude": "6.35000000"
  },
  {
    "name": "Bissen",
    "countryCode": "LU",
    "stateCode": "ME",
    "latitude": "49.78733000",
    "longitude": "6.06540000"
  },
  {
    "name": "Biwer",
    "countryCode": "LU",
    "stateCode": "GR",
    "latitude": "49.70605000",
    "longitude": "6.37201000"
  },
  {
    "name": "Boevange-sur-Attert",
    "countryCode": "LU",
    "stateCode": "ME",
    "latitude": "49.77256000",
    "longitude": "6.01532000"
  },
  {
    "name": "Boulaide",
    "countryCode": "LU",
    "stateCode": "WI",
    "latitude": "49.88778000",
    "longitude": "5.81639000"
  },
  {
    "name": "Bourscheid",
    "countryCode": "LU",
    "stateCode": "DI",
    "latitude": "49.90862000",
    "longitude": "6.06750000"
  },
  {
    "name": "Bous",
    "countryCode": "LU",
    "stateCode": "RM",
    "latitude": "49.55389000",
    "longitude": "6.32917000"
  },
  {
    "name": "Bridel",
    "countryCode": "LU",
    "stateCode": "CA",
    "latitude": "49.65579000",
    "longitude": "6.07999000"
  },
  {
    "name": "Béreldange",
    "countryCode": "LU",
    "stateCode": "LU",
    "latitude": "49.65507000",
    "longitude": "6.11874000"
  },
  {
    "name": "Capellen",
    "countryCode": "LU",
    "stateCode": "CA",
    "latitude": "49.64500000",
    "longitude": "5.99083000"
  },
  {
    "name": "Clemency",
    "countryCode": "LU",
    "stateCode": "CA",
    "latitude": "49.59667000",
    "longitude": "5.87583000"
  },
  {
    "name": "Clervaux",
    "countryCode": "LU",
    "stateCode": "CL",
    "latitude": "50.05472000",
    "longitude": "6.03139000"
  },
  {
    "name": "Colmar",
    "countryCode": "LU",
    "stateCode": "ME",
    "latitude": "49.81028000",
    "longitude": "6.09722000"
  },
  {
    "name": "Commune de Préizerdaul",
    "countryCode": "LU",
    "stateCode": "RD",
    "latitude": "49.80114000",
    "longitude": "5.93299000"
  },
  {
    "name": "Commune de la Vallée de l’Ernz",
    "countryCode": "LU",
    "stateCode": "DI",
    "latitude": "49.82149000",
    "longitude": "6.21746000"
  },
  {
    "name": "Consdorf",
    "countryCode": "LU",
    "stateCode": "EC",
    "latitude": "49.78018000",
    "longitude": "6.33950000"
  },
  {
    "name": "Contern",
    "countryCode": "LU",
    "stateCode": "LU",
    "latitude": "49.58194000",
    "longitude": "6.22667000"
  },
  {
    "name": "Crauthem",
    "countryCode": "LU",
    "stateCode": "ES",
    "latitude": "49.53556000",
    "longitude": "6.14694000"
  },
  {
    "name": "Dalheim",
    "countryCode": "LU",
    "stateCode": "RM",
    "latitude": "49.54083000",
    "longitude": "6.25972000"
  },
  {
    "name": "Diekirch",
    "countryCode": "LU",
    "stateCode": "DI",
    "latitude": "49.86778000",
    "longitude": "6.15583000"
  },
  {
    "name": "Differdange",
    "countryCode": "LU",
    "stateCode": "ES",
    "latitude": "49.52417000",
    "longitude": "5.89139000"
  },
  {
    "name": "Dippach",
    "countryCode": "LU",
    "stateCode": "CA",
    "latitude": "49.58701000",
    "longitude": "5.98330000"
  },
  {
    "name": "Dudelange",
    "countryCode": "LU",
    "stateCode": "ES",
    "latitude": "49.48056000",
    "longitude": "6.08750000"
  },
  {
    "name": "Echternach",
    "countryCode": "LU",
    "stateCode": "EC",
    "latitude": "49.81212000",
    "longitude": "6.41846000"
  },
  {
    "name": "Eischen",
    "countryCode": "LU",
    "stateCode": "CA",
    "latitude": "49.68556000",
    "longitude": "5.87861000"
  },
  {
    "name": "Ell",
    "countryCode": "LU",
    "stateCode": "RD",
    "latitude": "49.76389000",
    "longitude": "5.85722000"
  },
  {
    "name": "Erpeldange",
    "countryCode": "LU",
    "stateCode": "DI",
    "latitude": "49.86472000",
    "longitude": "6.11472000"
  },
  {
    "name": "Esch-sur-Alzette",
    "countryCode": "LU",
    "stateCode": "ES",
    "latitude": "49.49583000",
    "longitude": "5.98056000"
  },
  {
    "name": "Esch-sur-Sûre",
    "countryCode": "LU",
    "stateCode": "WI",
    "latitude": "49.91139000",
    "longitude": "5.93639000"
  },
  {
    "name": "Ettelbruck",
    "countryCode": "LU",
    "stateCode": "DI",
    "latitude": "49.84750000",
    "longitude": "6.10417000"
  },
  {
    "name": "Fentange",
    "countryCode": "LU",
    "stateCode": "LU",
    "latitude": "49.56278000",
    "longitude": "6.15389000"
  },
  {
    "name": "Feulen",
    "countryCode": "LU",
    "stateCode": "DI",
    "latitude": "49.85000000",
    "longitude": "6.01667000"
  },
  {
    "name": "Fischbach",
    "countryCode": "LU",
    "stateCode": "ME",
    "latitude": "49.74600000",
    "longitude": "6.18702000"
  },
  {
    "name": "Flaxweiler",
    "countryCode": "LU",
    "stateCode": "GR",
    "latitude": "49.66602000",
    "longitude": "6.34321000"
  },
  {
    "name": "Frisange",
    "countryCode": "LU",
    "stateCode": "ES",
    "latitude": "49.51616000",
    "longitude": "6.18858000"
  },
  {
    "name": "Garnich",
    "countryCode": "LU",
    "stateCode": "CA",
    "latitude": "49.61667000",
    "longitude": "5.95250000"
  },
  {
    "name": "Goesdorf",
    "countryCode": "LU",
    "stateCode": "WI",
    "latitude": "49.92131000",
    "longitude": "5.96601000"
  },
  {
    "name": "Gonderange",
    "countryCode": "LU",
    "stateCode": "GR",
    "latitude": "49.69537000",
    "longitude": "6.24577000"
  },
  {
    "name": "Grevenmacher",
    "countryCode": "LU",
    "stateCode": "GR",
    "latitude": "49.67751000",
    "longitude": "6.44022000"
  },
  {
    "name": "Grosbous",
    "countryCode": "LU",
    "stateCode": "RD",
    "latitude": "49.82778000",
    "longitude": "5.96722000"
  },
  {
    "name": "Hautcharage",
    "countryCode": "LU",
    "stateCode": "CA",
    "latitude": "49.57499000",
    "longitude": "5.90970000"
  },
  {
    "name": "Heffingen",
    "countryCode": "LU",
    "stateCode": "ME",
    "latitude": "49.76907000",
    "longitude": "6.24049000"
  },
  {
    "name": "Heisdorf",
    "countryCode": "LU",
    "stateCode": "LU",
    "latitude": "49.67207000",
    "longitude": "6.14202000"
  },
  {
    "name": "Helmsange",
    "countryCode": "LU",
    "stateCode": "LU",
    "latitude": "49.65278000",
    "longitude": "6.14139000"
  },
  {
    "name": "Hesperange",
    "countryCode": "LU",
    "stateCode": "LU",
    "latitude": "49.56806000",
    "longitude": "6.15139000"
  },
  {
    "name": "Hobscheid",
    "countryCode": "LU",
    "stateCode": "CA",
    "latitude": "49.68861000",
    "longitude": "5.91472000"
  },
  {
    "name": "Hosingen",
    "countryCode": "LU",
    "stateCode": "CL",
    "latitude": "50.01218000",
    "longitude": "6.09089000"
  },
  {
    "name": "Itzig",
    "countryCode": "LU",
    "stateCode": "LU",
    "latitude": "49.58769000",
    "longitude": "6.17065000"
  },
  {
    "name": "Junglinster",
    "countryCode": "LU",
    "stateCode": "GR",
    "latitude": "49.70722000",
    "longitude": "6.25306000"
  },
  {
    "name": "Kayl",
    "countryCode": "LU",
    "stateCode": "ES",
    "latitude": "49.48917000",
    "longitude": "6.03972000"
  },
  {
    "name": "Kehlen",
    "countryCode": "LU",
    "stateCode": "CA",
    "latitude": "49.66833000",
    "longitude": "6.03583000"
  },
  {
    "name": "Kiischpelt",
    "countryCode": "LU",
    "stateCode": "WI",
    "latitude": "49.97835000",
    "longitude": "6.00760000"
  },
  {
    "name": "Kirchberg",
    "countryCode": "LU",
    "stateCode": "LU",
    "latitude": "49.62389000",
    "longitude": "6.14944000"
  },
  {
    "name": "Koerich",
    "countryCode": "LU",
    "stateCode": "CA",
    "latitude": "49.67000000",
    "longitude": "5.95000000"
  },
  {
    "name": "Kopstal",
    "countryCode": "LU",
    "stateCode": "CA",
    "latitude": "49.66444000",
    "longitude": "6.07306000"
  },
  {
    "name": "Käerjeng",
    "countryCode": "LU",
    "stateCode": "CA",
    "latitude": "49.58311000",
    "longitude": "5.89892000"
  },
  {
    "name": "Lac de la Haute-Sûre",
    "countryCode": "LU",
    "stateCode": "WI",
    "latitude": "49.91667000",
    "longitude": "5.83333000"
  },
  {
    "name": "Lamadelaine",
    "countryCode": "LU",
    "stateCode": "ES",
    "latitude": "49.54639000",
    "longitude": "5.85639000"
  },
  {
    "name": "Larochette",
    "countryCode": "LU",
    "stateCode": "ME",
    "latitude": "49.78362000",
    "longitude": "6.21891000"
  },
  {
    "name": "Lenningen",
    "countryCode": "LU",
    "stateCode": "RM",
    "latitude": "49.59861000",
    "longitude": "6.36806000"
  },
  {
    "name": "Leudelange",
    "countryCode": "LU",
    "stateCode": "ES",
    "latitude": "49.56833000",
    "longitude": "6.06528000"
  },
  {
    "name": "Lintgen",
    "countryCode": "LU",
    "stateCode": "ME",
    "latitude": "49.72243000",
    "longitude": "6.13016000"
  },
  {
    "name": "Lorentzweiler",
    "countryCode": "LU",
    "stateCode": "ME",
    "latitude": "49.70131000",
    "longitude": "6.14234000"
  },
  {
    "name": "Luxembourg",
    "countryCode": "LU",
    "stateCode": "LU",
    "latitude": "49.61167000",
    "longitude": "6.13000000"
  },
  {
    "name": "Mamer",
    "countryCode": "LU",
    "stateCode": "CA",
    "latitude": "49.62750000",
    "longitude": "6.02333000"
  },
  {
    "name": "Manternach",
    "countryCode": "LU",
    "stateCode": "GR",
    "latitude": "49.70278000",
    "longitude": "6.42639000"
  },
  {
    "name": "Medernach",
    "countryCode": "LU",
    "stateCode": "DI",
    "latitude": "49.80955000",
    "longitude": "6.21521000"
  },
  {
    "name": "Mersch",
    "countryCode": "LU",
    "stateCode": "ME",
    "latitude": "49.74889000",
    "longitude": "6.10611000"
  },
  {
    "name": "Mertert",
    "countryCode": "LU",
    "stateCode": "GR",
    "latitude": "49.70261000",
    "longitude": "6.47966000"
  },
  {
    "name": "Mertzig",
    "countryCode": "LU",
    "stateCode": "DI",
    "latitude": "49.83389000",
    "longitude": "6.00750000"
  },
  {
    "name": "Mompach",
    "countryCode": "LU",
    "stateCode": "EC",
    "latitude": "49.74611000",
    "longitude": "6.46500000"
  },
  {
    "name": "Mondercange",
    "countryCode": "LU",
    "stateCode": "ES",
    "latitude": "49.53306000",
    "longitude": "5.98833000"
  },
  {
    "name": "Mondorf-les-Bains",
    "countryCode": "LU",
    "stateCode": "RM",
    "latitude": "49.50500000",
    "longitude": "6.28111000"
  },
  {
    "name": "Moutfort",
    "countryCode": "LU",
    "stateCode": "LU",
    "latitude": "49.58528000",
    "longitude": "6.25556000"
  },
  {
    "name": "Müllendorf",
    "countryCode": "LU",
    "stateCode": "LU",
    "latitude": "49.68028000",
    "longitude": "6.13000000"
  },
  {
    "name": "Niederanven",
    "countryCode": "LU",
    "stateCode": "LU",
    "latitude": "49.65196000",
    "longitude": "6.26199000"
  },
  {
    "name": "Niedercorn",
    "countryCode": "LU",
    "stateCode": "ES",
    "latitude": "49.53611000",
    "longitude": "5.89306000"
  },
  {
    "name": "Niederfeulen",
    "countryCode": "LU",
    "stateCode": "DI",
    "latitude": "49.85556000",
    "longitude": "6.04722000"
  },
  {
    "name": "Nommern",
    "countryCode": "LU",
    "stateCode": "ME",
    "latitude": "49.78694000",
    "longitude": "6.17472000"
  },
  {
    "name": "Obercorn",
    "countryCode": "LU",
    "stateCode": "ES",
    "latitude": "49.51361000",
    "longitude": "5.89611000"
  },
  {
    "name": "Olm",
    "countryCode": "LU",
    "stateCode": "LU",
    "latitude": "49.65722000",
    "longitude": "6.00028000"
  },
  {
    "name": "Parc Hosingen",
    "countryCode": "LU",
    "stateCode": "CL",
    "latitude": "49.99744000",
    "longitude": "6.09067000"
  },
  {
    "name": "Pontpierre",
    "countryCode": "LU",
    "stateCode": "ES",
    "latitude": "49.53639000",
    "longitude": "6.02944000"
  },
  {
    "name": "Putscheid",
    "countryCode": "LU",
    "stateCode": "VD",
    "latitude": "49.96083000",
    "longitude": "6.14306000"
  },
  {
    "name": "Pétange",
    "countryCode": "LU",
    "stateCode": "ES",
    "latitude": "49.55833000",
    "longitude": "5.88056000"
  },
  {
    "name": "Rambrouch",
    "countryCode": "LU",
    "stateCode": "RD",
    "latitude": "49.83083000",
    "longitude": "5.84500000"
  },
  {
    "name": "Reckange-sur-Mess",
    "countryCode": "LU",
    "stateCode": "ES",
    "latitude": "49.56250000",
    "longitude": "6.00889000"
  },
  {
    "name": "Redange-sur-Attert",
    "countryCode": "LU",
    "stateCode": "RD",
    "latitude": "49.76437000",
    "longitude": "5.88997000"
  },
  {
    "name": "Reisdorf",
    "countryCode": "LU",
    "stateCode": "DI",
    "latitude": "49.86861000",
    "longitude": "6.26778000"
  },
  {
    "name": "Remich",
    "countryCode": "LU",
    "stateCode": "RM",
    "latitude": "49.54500000",
    "longitude": "6.36694000"
  },
  {
    "name": "Rodange",
    "countryCode": "LU",
    "stateCode": "ES",
    "latitude": "49.54639000",
    "longitude": "5.84083000"
  },
  {
    "name": "Roeser",
    "countryCode": "LU",
    "stateCode": "ES",
    "latitude": "49.53721000",
    "longitude": "6.14629000"
  },
  {
    "name": "Rollingen",
    "countryCode": "LU",
    "stateCode": "ME",
    "latitude": "49.74167000",
    "longitude": "6.11444000"
  },
  {
    "name": "Rosport",
    "countryCode": "LU",
    "stateCode": "EC",
    "latitude": "49.80470000",
    "longitude": "6.50532000"
  },
  {
    "name": "Rumelange",
    "countryCode": "LU",
    "stateCode": "ES",
    "latitude": "49.45964000",
    "longitude": "6.03089000"
  },
  {
    "name": "Saeul",
    "countryCode": "LU",
    "stateCode": "RD",
    "latitude": "49.72722000",
    "longitude": "5.98639000"
  },
  {
    "name": "Sandweiler",
    "countryCode": "LU",
    "stateCode": "LU",
    "latitude": "49.61471000",
    "longitude": "6.22221000"
  },
  {
    "name": "Sanem",
    "countryCode": "LU",
    "stateCode": "ES",
    "latitude": "49.54806000",
    "longitude": "5.92889000"
  },
  {
    "name": "Schengen",
    "countryCode": "LU",
    "stateCode": "RM",
    "latitude": "49.47000000",
    "longitude": "6.36200000"
  },
  {
    "name": "Schieren",
    "countryCode": "LU",
    "stateCode": "DI",
    "latitude": "49.83056000",
    "longitude": "6.09861000"
  },
  {
    "name": "Schifflange",
    "countryCode": "LU",
    "stateCode": "ES",
    "latitude": "49.50639000",
    "longitude": "6.01278000"
  },
  {
    "name": "Schouweiler",
    "countryCode": "LU",
    "stateCode": "CA",
    "latitude": "49.58250000",
    "longitude": "5.95639000"
  },
  {
    "name": "Schrassig",
    "countryCode": "LU",
    "stateCode": "LU",
    "latitude": "49.61014000",
    "longitude": "6.25903000"
  },
  {
    "name": "Schuttrange",
    "countryCode": "LU",
    "stateCode": "LU",
    "latitude": "49.62056000",
    "longitude": "6.26861000"
  },
  {
    "name": "Septfontaines",
    "countryCode": "LU",
    "stateCode": "CA",
    "latitude": "49.70111000",
    "longitude": "5.96722000"
  },
  {
    "name": "Soleuvre",
    "countryCode": "LU",
    "stateCode": "ES",
    "latitude": "49.52148000",
    "longitude": "5.93781000"
  },
  {
    "name": "Stadtbredimus",
    "countryCode": "LU",
    "stateCode": "RM",
    "latitude": "49.56278000",
    "longitude": "6.36444000"
  },
  {
    "name": "Steinfort",
    "countryCode": "LU",
    "stateCode": "CA",
    "latitude": "49.66139000",
    "longitude": "5.91917000"
  },
  {
    "name": "Steinsel",
    "countryCode": "LU",
    "stateCode": "LU",
    "latitude": "49.67694000",
    "longitude": "6.12389000"
  },
  {
    "name": "Strassen",
    "countryCode": "LU",
    "stateCode": "LU",
    "latitude": "49.62056000",
    "longitude": "6.07333000"
  },
  {
    "name": "Tandel",
    "countryCode": "LU",
    "stateCode": "VD",
    "latitude": "49.89750000",
    "longitude": "6.18333000"
  },
  {
    "name": "Troisvierges",
    "countryCode": "LU",
    "stateCode": "CL",
    "latitude": "50.12111000",
    "longitude": "6.00028000"
  },
  {
    "name": "Tuntange",
    "countryCode": "LU",
    "stateCode": "ME",
    "latitude": "49.71778000",
    "longitude": "6.01028000"
  },
  {
    "name": "Tétange",
    "countryCode": "LU",
    "stateCode": "ES",
    "latitude": "49.47583000",
    "longitude": "6.04222000"
  },
  {
    "name": "Useldange",
    "countryCode": "LU",
    "stateCode": "RD",
    "latitude": "49.76972000",
    "longitude": "5.98222000"
  },
  {
    "name": "Vianden",
    "countryCode": "LU",
    "stateCode": "VD",
    "latitude": "49.93500000",
    "longitude": "6.20889000"
  },
  {
    "name": "Vichten",
    "countryCode": "LU",
    "stateCode": "RD",
    "latitude": "49.80306000",
    "longitude": "6.00000000"
  },
  {
    "name": "Wahl",
    "countryCode": "LU",
    "stateCode": "RD",
    "latitude": "49.83667000",
    "longitude": "5.90639000"
  },
  {
    "name": "Waldbillig",
    "countryCode": "LU",
    "stateCode": "EC",
    "latitude": "49.79636000",
    "longitude": "6.28431000"
  },
  {
    "name": "Waldbredimus",
    "countryCode": "LU",
    "stateCode": "RM",
    "latitude": "49.55676000",
    "longitude": "6.28789000"
  },
  {
    "name": "Walferdange",
    "countryCode": "LU",
    "stateCode": "LU",
    "latitude": "49.66321000",
    "longitude": "6.13224000"
  },
  {
    "name": "Warken",
    "countryCode": "LU",
    "stateCode": "DI",
    "latitude": "49.85918000",
    "longitude": "6.08415000"
  },
  {
    "name": "Wasserbillig",
    "countryCode": "LU",
    "stateCode": "GR",
    "latitude": "49.71534000",
    "longitude": "6.49861000"
  },
  {
    "name": "Weiler-la-Tour",
    "countryCode": "LU",
    "stateCode": "LU",
    "latitude": "49.54083000",
    "longitude": "6.20083000"
  },
  {
    "name": "Weiswampach",
    "countryCode": "LU",
    "stateCode": "CL",
    "latitude": "50.13722000",
    "longitude": "6.07500000"
  },
  {
    "name": "Wiltz",
    "countryCode": "LU",
    "stateCode": "WI",
    "latitude": "49.96547000",
    "longitude": "5.93390000"
  },
  {
    "name": "Wilwerwiltz",
    "countryCode": "LU",
    "stateCode": "WI",
    "latitude": "49.98889000",
    "longitude": "5.99917000"
  },
  {
    "name": "Wincrange",
    "countryCode": "LU",
    "stateCode": "CL",
    "latitude": "50.05333000",
    "longitude": "5.91917000"
  },
  {
    "name": "Winseler",
    "countryCode": "LU",
    "stateCode": "WI",
    "latitude": "49.96778000",
    "longitude": "5.89028000"
  },
  {
    "name": "Wormeldange",
    "countryCode": "LU",
    "stateCode": "GR",
    "latitude": "49.61114000",
    "longitude": "6.40546000"
  }
]