[
  {
    "name": "Abadou",
    "countryCode": "MA",
    "stateCode": "SAF",
    "latitude": "31.57917000",
    "longitude": "-7.31308000"
  },
  {
    "name": "Adassil",
    "countryCode": "MA",
    "stateCode": "SAF",
    "latitude": "31.10783000",
    "longitude": "-8.49083000"
  },
  {
    "name": "Agadir",
    "countryCode": "MA",
    "stateCode": "ASZ",
    "latitude": "30.42018000",
    "longitude": "-9.59815000"
  },
  {
    "name": "Agadir Melloul",
    "countryCode": "MA",
    "stateCode": "ASZ",
    "latitude": "30.22492000",
    "longitude": "-7.79601000"
  },
  {
    "name": "Agadir-Ida-ou-Tnan",
    "countryCode": "MA",
    "stateCode": "ASZ",
    "latitude": "30.58333000",
    "longitude": "-9.50000000"
  },
  {
    "name": "Agdz",
    "countryCode": "MA",
    "stateCode": "08",
    "latitude": "30.69356000",
    "longitude": "-6.44628000"
  },
  {
    "name": "Aguelmous",
    "countryCode": "MA",
    "stateCode": "KHN",
    "latitude": "33.16139000",
    "longitude": "-5.84626000"
  },
  {
    "name": "Ahfir",
    "countryCode": "MA",
    "stateCode": "02",
    "latitude": "34.95368000",
    "longitude": "-2.10027000"
  },
  {
    "name": "Akhfennir",
    "countryCode": "MA",
    "stateCode": "11",
    "latitude": "28.09455000",
    "longitude": "-12.05157000"
  },
  {
    "name": "Aknoul",
    "countryCode": "MA",
    "stateCode": "03",
    "latitude": "34.65371000",
    "longitude": "-3.86754000"
  },
  {
    "name": "Al Aaroui",
    "countryCode": "MA",
    "stateCode": "02",
    "latitude": "35.01090000",
    "longitude": "-3.00938000"
  },
  {
    "name": "Al Fqih Ben Çalah",
    "countryCode": "MA",
    "stateCode": "KHN",
    "latitude": "32.50213000",
    "longitude": "-6.68771000"
  },
  {
    "name": "Al Hoceïma",
    "countryCode": "MA",
    "stateCode": "01",
    "latitude": "35.25165000",
    "longitude": "-3.93723000"
  },
  {
    "name": "Al-Haouz",
    "countryCode": "MA",
    "stateCode": "SAF",
    "latitude": "31.34083000",
    "longitude": "-7.91076000"
  },
  {
    "name": "Al-Hoceima",
    "countryCode": "MA",
    "stateCode": "01",
    "latitude": "35.00000000",
    "longitude": "-4.25000000"
  },
  {
    "name": "Almis Marmoucha",
    "countryCode": "MA",
    "stateCode": "03",
    "latitude": "33.32000000",
    "longitude": "-4.18000000"
  },
  {
    "name": "Alnif",
    "countryCode": "MA",
    "stateCode": "08",
    "latitude": "31.11411000",
    "longitude": "-5.17154000"
  },
  {
    "name": "Aoufous",
    "countryCode": "MA",
    "stateCode": "08",
    "latitude": "31.68000000",
    "longitude": "-4.17000000"
  },
  {
    "name": "Aoulouz",
    "countryCode": "MA",
    "stateCode": "ASZ",
    "latitude": "30.67307000",
    "longitude": "-8.18087000"
  },
  {
    "name": "Aourir",
    "countryCode": "MA",
    "stateCode": "ASZ",
    "latitude": "30.49238000",
    "longitude": "-9.63550000"
  },
  {
    "name": "Aousserd",
    "countryCode": "MA",
    "stateCode": "OUD",
    "latitude": "21.91977000",
    "longitude": "-15.02068000"
  },
  {
    "name": "Arazane",
    "countryCode": "MA",
    "stateCode": "ASZ",
    "latitude": "30.50346000",
    "longitude": "-8.60637000"
  },
  {
    "name": "Arbaoua",
    "countryCode": "MA",
    "stateCode": "KEN",
    "latitude": "34.90239000",
    "longitude": "-5.94871000"
  },
  {
    "name": "Arfoud",
    "countryCode": "MA",
    "stateCode": "08",
    "latitude": "31.43530000",
    "longitude": "-4.23258000"
  },
  {
    "name": "Argana",
    "countryCode": "MA",
    "stateCode": "ASZ",
    "latitude": "30.78250000",
    "longitude": "-9.11968000"
  },
  {
    "name": "Asilah",
    "countryCode": "MA",
    "stateCode": "01",
    "latitude": "35.46522000",
    "longitude": "-6.03415000"
  },
  {
    "name": "Assa-Zag",
    "countryCode": "MA",
    "stateCode": "10",
    "latitude": "28.16667000",
    "longitude": "-9.41667000"
  },
  {
    "name": "Azemmour",
    "countryCode": "MA",
    "stateCode": "06",
    "latitude": "33.28952000",
    "longitude": "-8.34250000"
  },
  {
    "name": "Azilal",
    "countryCode": "MA",
    "stateCode": "KHN",
    "latitude": "31.96156000",
    "longitude": "-6.57109000"
  },
  {
    "name": "Azilal Province",
    "countryCode": "MA",
    "stateCode": "KHN",
    "latitude": "31.91667000",
    "longitude": "-6.50000000"
  },
  {
    "name": "Azrou",
    "countryCode": "MA",
    "stateCode": "03",
    "latitude": "33.43443000",
    "longitude": "-5.22126000"
  },
  {
    "name": "Aïn Beni Mathar",
    "countryCode": "MA",
    "stateCode": "02",
    "latitude": "34.00970000",
    "longitude": "-2.03238000"
  },
  {
    "name": "Aïn Leuh",
    "countryCode": "MA",
    "stateCode": "03",
    "latitude": "33.28984000",
    "longitude": "-5.33863000"
  },
  {
    "name": "Beni Mellal",
    "countryCode": "MA",
    "stateCode": "KHN",
    "latitude": "32.33725000",
    "longitude": "-6.34983000"
  },
  {
    "name": "Beni-Mellal",
    "countryCode": "MA",
    "stateCode": "KHN",
    "latitude": "32.50000000",
    "longitude": "-6.33333000"
  },
  {
    "name": "Benslimane",
    "countryCode": "MA",
    "stateCode": "06",
    "latitude": "33.50000000",
    "longitude": "-7.16667000"
  },
  {
    "name": "Berkane",
    "countryCode": "MA",
    "stateCode": "02",
    "latitude": "34.61000000",
    "longitude": "-2.57000000"
  },
  {
    "name": "Berrechid",
    "countryCode": "MA",
    "stateCode": "06",
    "latitude": "33.26553000",
    "longitude": "-7.58754000"
  },
  {
    "name": "Berrechid Province",
    "countryCode": "MA",
    "stateCode": "06",
    "latitude": "33.26582000",
    "longitude": "-7.58142000"
  },
  {
    "name": "Bhalil",
    "countryCode": "MA",
    "stateCode": "03",
    "latitude": "33.85194000",
    "longitude": "-4.87228000"
  },
  {
    "name": "Bigoudine",
    "countryCode": "MA",
    "stateCode": "ASZ",
    "latitude": "30.72376000",
    "longitude": "-9.21097000"
  },
  {
    "name": "Bni Bouayach",
    "countryCode": "MA",
    "stateCode": "01",
    "latitude": "35.10506000",
    "longitude": "-3.84028000"
  },
  {
    "name": "Bouabout",
    "countryCode": "MA",
    "stateCode": "SAF",
    "latitude": "31.26554000",
    "longitude": "-9.17865000"
  },
  {
    "name": "Bouarfa",
    "countryCode": "MA",
    "stateCode": "02",
    "latitude": "32.53379000",
    "longitude": "-1.96209000"
  },
  {
    "name": "Bouarouss",
    "countryCode": "MA",
    "stateCode": "03",
    "latitude": "34.36000000",
    "longitude": "-4.81000000"
  },
  {
    "name": "Boujdour",
    "countryCode": "MA",
    "stateCode": "11",
    "latitude": "25.66172000",
    "longitude": "-13.68419000"
  },
  {
    "name": "Boujniba",
    "countryCode": "MA",
    "stateCode": "KHN",
    "latitude": "32.90046000",
    "longitude": "-6.77464000"
  },
  {
    "name": "Boulaouane",
    "countryCode": "MA",
    "stateCode": "06",
    "latitude": "32.85995000",
    "longitude": "-8.05555000"
  },
  {
    "name": "Boulemane",
    "countryCode": "MA",
    "stateCode": "03",
    "latitude": "33.16667000",
    "longitude": "-4.00000000"
  },
  {
    "name": "Bouskoura",
    "countryCode": "MA",
    "stateCode": "06",
    "latitude": "33.44976000",
    "longitude": "-7.65239000"
  },
  {
    "name": "Bouznika",
    "countryCode": "MA",
    "stateCode": "06",
    "latitude": "33.78942000",
    "longitude": "-7.15968000"
  },
  {
    "name": "Brikcha",
    "countryCode": "MA",
    "stateCode": "01",
    "latitude": "34.96732000",
    "longitude": "-5.57295000"
  },
  {
    "name": "Bzou",
    "countryCode": "MA",
    "stateCode": "KHN",
    "latitude": "32.09171000",
    "longitude": "-7.04786000"
  },
  {
    "name": "Cap Negro II",
    "countryCode": "MA",
    "stateCode": "01",
    "latitude": "35.65970000",
    "longitude": "-5.28525000"
  },
  {
    "name": "Casablanca",
    "countryCode": "MA",
    "stateCode": "06",
    "latitude": "33.58840000",
    "longitude": "-7.55785000"
  },
  {
    "name": "Chefchaouen Province",
    "countryCode": "MA",
    "stateCode": "01",
    "latitude": "35.00000000",
    "longitude": "-5.08333000"
  },
  {
    "name": "Chefchaouene",
    "countryCode": "MA",
    "stateCode": "01",
    "latitude": "35.16878000",
    "longitude": "-5.26360000"
  },
  {
    "name": "Chichaoua",
    "countryCode": "MA",
    "stateCode": "SAF",
    "latitude": "31.26365000",
    "longitude": "-8.84411000"
  },
  {
    "name": "Chtouka-Ait-Baha",
    "countryCode": "MA",
    "stateCode": "ASZ",
    "latitude": "30.02948000",
    "longitude": "-9.30909000"
  },
  {
    "name": "Dar Ould Zidouh",
    "countryCode": "MA",
    "stateCode": "KHN",
    "latitude": "32.31247000",
    "longitude": "-6.90494000"
  },
  {
    "name": "Debdou",
    "countryCode": "MA",
    "stateCode": "02",
    "latitude": "33.98228000",
    "longitude": "-3.04263000"
  },
  {
    "name": "Demnate",
    "countryCode": "MA",
    "stateCode": "KHN",
    "latitude": "31.73443000",
    "longitude": "-7.00505000"
  },
  {
    "name": "Derdara",
    "countryCode": "MA",
    "stateCode": "01",
    "latitude": "35.11041000",
    "longitude": "-5.29015000"
  },
  {
    "name": "Driouch Province",
    "countryCode": "MA",
    "stateCode": "02",
    "latitude": "34.97670000",
    "longitude": "-3.38842000"
  },
  {
    "name": "El Aïoun",
    "countryCode": "MA",
    "stateCode": "02",
    "latitude": "34.58319000",
    "longitude": "-2.50612000"
  },
  {
    "name": "El Hajeb",
    "countryCode": "MA",
    "stateCode": "03",
    "latitude": "33.68786000",
    "longitude": "-5.37100000"
  },
  {
    "name": "El Jadid",
    "countryCode": "MA",
    "stateCode": "06",
    "latitude": "33.25682000",
    "longitude": "-8.50882000"
  },
  {
    "name": "El Ksiba",
    "countryCode": "MA",
    "stateCode": "KHN",
    "latitude": "32.57286000",
    "longitude": "-6.01947000"
  },
  {
    "name": "El-Hajeb",
    "countryCode": "MA",
    "stateCode": "03",
    "latitude": "33.72883000",
    "longitude": "-5.46119000"
  },
  {
    "name": "El-Jadida",
    "countryCode": "MA",
    "stateCode": "06",
    "latitude": "32.90000000",
    "longitude": "-8.50000000"
  },
  {
    "name": "Errachidia",
    "countryCode": "MA",
    "stateCode": "08",
    "latitude": "31.75000000",
    "longitude": "-4.50000000"
  },
  {
    "name": "Es-Semara",
    "countryCode": "MA",
    "stateCode": "11",
    "latitude": "27.75000000",
    "longitude": "-11.00000000"
  },
  {
    "name": "Essaouira",
    "countryCode": "MA",
    "stateCode": "SAF",
    "latitude": "31.50675000",
    "longitude": "-9.75655000"
  },
  {
    "name": "Fahs-Anjra",
    "countryCode": "MA",
    "stateCode": "01",
    "latitude": "35.74000000",
    "longitude": "-5.68000000"
  },
  {
    "name": "Fes",
    "countryCode": "MA",
    "stateCode": "03",
    "latitude": "34.04000000",
    "longitude": "-4.87000000"
  },
  {
    "name": "Figuig",
    "countryCode": "MA",
    "stateCode": "02",
    "latitude": "32.83333000",
    "longitude": "-2.25000000"
  },
  {
    "name": "Fnidek",
    "countryCode": "MA",
    "stateCode": "01",
    "latitude": "35.84906000",
    "longitude": "-5.35747000"
  },
  {
    "name": "Fquih Ben Salah Province",
    "countryCode": "MA",
    "stateCode": "KHN",
    "latitude": "32.50108000",
    "longitude": "-6.68415000"
  },
  {
    "name": "Fès al Bali",
    "countryCode": "MA",
    "stateCode": "03",
    "latitude": "34.07010000",
    "longitude": "-4.95473000"
  },
  {
    "name": "Galaz",
    "countryCode": "MA",
    "stateCode": "03",
    "latitude": "34.54424000",
    "longitude": "-4.80355000"
  },
  {
    "name": "Ghouazi",
    "countryCode": "MA",
    "stateCode": "03",
    "latitude": "34.47737000",
    "longitude": "-5.30235000"
  },
  {
    "name": "Guelmim",
    "countryCode": "MA",
    "stateCode": "10",
    "latitude": "28.75000000",
    "longitude": "-10.00000000"
  },
  {
    "name": "Gueltat Zemmour",
    "countryCode": "MA",
    "stateCode": "11",
    "latitude": "25.14276000",
    "longitude": "-12.37168000"
  },
  {
    "name": "Guercif",
    "countryCode": "MA",
    "stateCode": "03",
    "latitude": "34.22568000",
    "longitude": "-3.35361000"
  },
  {
    "name": "Guercif Province",
    "countryCode": "MA",
    "stateCode": "02",
    "latitude": "34.25041000",
    "longitude": "-3.32542000"
  },
  {
    "name": "Had Kourt",
    "countryCode": "MA",
    "stateCode": "KEN",
    "latitude": "34.61588000",
    "longitude": "-5.74040000"
  },
  {
    "name": "Ifrane",
    "countryCode": "MA",
    "stateCode": "03",
    "latitude": "33.33333000",
    "longitude": "-5.25000000"
  },
  {
    "name": "Ifrane",
    "countryCode": "MA",
    "stateCode": "KHN",
    "latitude": "31.70217000",
    "longitude": "-6.34940000"
  },
  {
    "name": "Imilchil",
    "countryCode": "MA",
    "stateCode": "08",
    "latitude": "32.15309000",
    "longitude": "-5.62453000"
  },
  {
    "name": "Imlili",
    "countryCode": "MA",
    "stateCode": "OUD",
    "latitude": "22.65580000",
    "longitude": "-15.60719000"
  },
  {
    "name": "Imzouren",
    "countryCode": "MA",
    "stateCode": "01",
    "latitude": "35.14637000",
    "longitude": "-3.85063000"
  },
  {
    "name": "Inezgane",
    "countryCode": "MA",
    "stateCode": "ASZ",
    "latitude": "30.35535000",
    "longitude": "-9.53639000"
  },
  {
    "name": "Inezgane-Ait Melloul",
    "countryCode": "MA",
    "stateCode": "ASZ",
    "latitude": "30.10000000",
    "longitude": "-9.03333000"
  },
  {
    "name": "Isseksi",
    "countryCode": "MA",
    "stateCode": "KHN",
    "latitude": "32.22981000",
    "longitude": "-6.27661000"
  },
  {
    "name": "Itzer",
    "countryCode": "MA",
    "stateCode": "KHN",
    "latitude": "32.87830000",
    "longitude": "-5.05150000"
  },
  {
    "name": "Jebel Tiskaouine",
    "countryCode": "MA",
    "stateCode": "08",
    "latitude": "31.02722000",
    "longitude": "-5.11643000"
  },
  {
    "name": "Jerada",
    "countryCode": "MA",
    "stateCode": "02",
    "latitude": "34.23662000",
    "longitude": "-2.04284000"
  },
  {
    "name": "Jorf",
    "countryCode": "MA",
    "stateCode": "08",
    "latitude": "31.49442000",
    "longitude": "-4.40598000"
  },
  {
    "name": "Kasba Tadla",
    "countryCode": "MA",
    "stateCode": "KHN",
    "latitude": "32.59770000",
    "longitude": "-6.26844000"
  },
  {
    "name": "Kelaa-Des-Sraghna",
    "countryCode": "MA",
    "stateCode": "SAF",
    "latitude": "32.16667000",
    "longitude": "-7.75000000"
  },
  {
    "name": "Kelaat Mgouna",
    "countryCode": "MA",
    "stateCode": "08",
    "latitude": "31.24573000",
    "longitude": "-6.13260000"
  },
  {
    "name": "Kenitra",
    "countryCode": "MA",
    "stateCode": "KEN",
    "latitude": "34.26101000",
    "longitude": "-6.58020000"
  },
  {
    "name": "Kenitra Province",
    "countryCode": "MA",
    "stateCode": "KEN",
    "latitude": "34.58333000",
    "longitude": "-6.33333000"
  },
  {
    "name": "Kerrouchen",
    "countryCode": "MA",
    "stateCode": "KHN",
    "latitude": "32.79639000",
    "longitude": "-5.31880000"
  },
  {
    "name": "Khemisset",
    "countryCode": "MA",
    "stateCode": "KEN",
    "latitude": "33.66667000",
    "longitude": "-6.25000000"
  },
  {
    "name": "Khenifra",
    "countryCode": "MA",
    "stateCode": "KHN",
    "latitude": "32.93333000",
    "longitude": "-5.66667000"
  },
  {
    "name": "Khouribga",
    "countryCode": "MA",
    "stateCode": "KHN",
    "latitude": "32.88108000",
    "longitude": "-6.90630000"
  },
  {
    "name": "Khouribga Province",
    "countryCode": "MA",
    "stateCode": "KHN",
    "latitude": "32.93333000",
    "longitude": "-6.60000000"
  },
  {
    "name": "Ksar El Kebir",
    "countryCode": "MA",
    "stateCode": "01",
    "latitude": "35.00044000",
    "longitude": "-5.90378000"
  },
  {
    "name": "Laayoune",
    "countryCode": "MA",
    "stateCode": "11",
    "latitude": "27.83333000",
    "longitude": "-12.33333000"
  },
  {
    "name": "Larache",
    "countryCode": "MA",
    "stateCode": "01",
    "latitude": "35.16667000",
    "longitude": "-5.83333000"
  },
  {
    "name": "M'Diq-Fnideq",
    "countryCode": "MA",
    "stateCode": "01",
    "latitude": "35.85743000",
    "longitude": "-5.35858000"
  },
  {
    "name": "Madagh",
    "countryCode": "MA",
    "stateCode": "02",
    "latitude": "35.01032000",
    "longitude": "-2.33701000"
  },
  {
    "name": "Marrakech",
    "countryCode": "MA",
    "stateCode": "SAF",
    "latitude": "31.63623000",
    "longitude": "-8.01041000"
  },
  {
    "name": "Marrakesh",
    "countryCode": "MA",
    "stateCode": "SAF",
    "latitude": "31.63416000",
    "longitude": "-7.99994000"
  },
  {
    "name": "Martil",
    "countryCode": "MA",
    "stateCode": "01",
    "latitude": "35.61662000",
    "longitude": "-5.27522000"
  },
  {
    "name": "Mechraa Bel Ksiri",
    "countryCode": "MA",
    "stateCode": "KEN",
    "latitude": "34.57373000",
    "longitude": "-5.95585000"
  },
  {
    "name": "Mediouna",
    "countryCode": "MA",
    "stateCode": "06",
    "latitude": "33.52012000",
    "longitude": "-7.50350000"
  },
  {
    "name": "Meknes",
    "countryCode": "MA",
    "stateCode": "03",
    "latitude": "33.97761000",
    "longitude": "-5.52496000"
  },
  {
    "name": "Mhamid",
    "countryCode": "MA",
    "stateCode": "08",
    "latitude": "29.82000000",
    "longitude": "-5.72000000"
  },
  {
    "name": "Midar",
    "countryCode": "MA",
    "stateCode": "02",
    "latitude": "34.94025000",
    "longitude": "-3.53311000"
  },
  {
    "name": "Midelt",
    "countryCode": "MA",
    "stateCode": "08",
    "latitude": "32.68055000",
    "longitude": "-4.73691000"
  },
  {
    "name": "Midelt",
    "countryCode": "MA",
    "stateCode": "KHN",
    "latitude": "32.68520000",
    "longitude": "-4.74512000"
  },
  {
    "name": "Missour",
    "countryCode": "MA",
    "stateCode": "03",
    "latitude": "33.04893000",
    "longitude": "-3.98947000"
  },
  {
    "name": "Mohammedia",
    "countryCode": "MA",
    "stateCode": "06",
    "latitude": "33.68607000",
    "longitude": "-7.38298000"
  },
  {
    "name": "Moulay Bouchta",
    "countryCode": "MA",
    "stateCode": "03",
    "latitude": "34.48922000",
    "longitude": "-5.13023000"
  },
  {
    "name": "Moulay-Yacoub",
    "countryCode": "MA",
    "stateCode": "03",
    "latitude": "34.14558000",
    "longitude": "-5.10259000"
  },
  {
    "name": "Nador",
    "countryCode": "MA",
    "stateCode": "02",
    "latitude": "35.00000000",
    "longitude": "-3.00000000"
  },
  {
    "name": "Nouaceur",
    "countryCode": "MA",
    "stateCode": "06",
    "latitude": "33.45839000",
    "longitude": "-7.64726000"
  },
  {
    "name": "Oualidia",
    "countryCode": "MA",
    "stateCode": "06",
    "latitude": "32.73372000",
    "longitude": "-9.03059000"
  },
  {
    "name": "Ouaoula",
    "countryCode": "MA",
    "stateCode": "KHN",
    "latitude": "31.87000000",
    "longitude": "-6.75000000"
  },
  {
    "name": "Ouarzazat",
    "countryCode": "MA",
    "stateCode": "08",
    "latitude": "30.91894000",
    "longitude": "-6.89341000"
  },
  {
    "name": "Ouarzazate",
    "countryCode": "MA",
    "stateCode": "08",
    "latitude": "30.94130000",
    "longitude": "-6.90285000"
  },
  {
    "name": "Oued Amlil",
    "countryCode": "MA",
    "stateCode": "03",
    "latitude": "34.20000000",
    "longitude": "-4.28000000"
  },
  {
    "name": "Oued Laou",
    "countryCode": "MA",
    "stateCode": "01",
    "latitude": "35.44840000",
    "longitude": "-5.09627000"
  },
  {
    "name": "Oued Zem",
    "countryCode": "MA",
    "stateCode": "KHN",
    "latitude": "32.86270000",
    "longitude": "-6.57359000"
  },
  {
    "name": "Oued-Ed-Dahab",
    "countryCode": "MA",
    "stateCode": "OUD",
    "latitude": "23.64201000",
    "longitude": "-14.44934000"
  },
  {
    "name": "Ouezzane",
    "countryCode": "MA",
    "stateCode": "01",
    "latitude": "34.79584000",
    "longitude": "-5.57849000"
  },
  {
    "name": "Ouezzane Province",
    "countryCode": "MA",
    "stateCode": "01",
    "latitude": "34.79759000",
    "longitude": "-5.58603000"
  },
  {
    "name": "Ouijjane",
    "countryCode": "MA",
    "stateCode": "ASZ",
    "latitude": "29.62777000",
    "longitude": "-9.53959000"
  },
  {
    "name": "Oujda-Angad",
    "countryCode": "MA",
    "stateCode": "02",
    "latitude": "34.23600000",
    "longitude": "-2.29400000"
  },
  {
    "name": "Oukaïmedene",
    "countryCode": "MA",
    "stateCode": "SAF",
    "latitude": "31.20603000",
    "longitude": "-7.86089000"
  },
  {
    "name": "Oulad Frej",
    "countryCode": "MA",
    "stateCode": "06",
    "latitude": "32.95956000",
    "longitude": "-8.22740000"
  },
  {
    "name": "Oulad Tayeb",
    "countryCode": "MA",
    "stateCode": "03",
    "latitude": "33.94633000",
    "longitude": "-4.99509000"
  },
  {
    "name": "Oulad Teïma",
    "countryCode": "MA",
    "stateCode": "ASZ",
    "latitude": "30.39467000",
    "longitude": "-9.20897000"
  },
  {
    "name": "Oulmes",
    "countryCode": "MA",
    "stateCode": "KEN",
    "latitude": "33.42585000",
    "longitude": "-6.00137000"
  },
  {
    "name": "Ourtzagh",
    "countryCode": "MA",
    "stateCode": "03",
    "latitude": "34.53477000",
    "longitude": "-4.96878000"
  },
  {
    "name": "Rabat",
    "countryCode": "MA",
    "stateCode": "KEN",
    "latitude": "34.01325000",
    "longitude": "-6.83255000"
  },
  {
    "name": "Reggada",
    "countryCode": "MA",
    "stateCode": "ASZ",
    "latitude": "29.58016000",
    "longitude": "-9.70086000"
  },
  {
    "name": "Rehamna",
    "countryCode": "MA",
    "stateCode": "SAF",
    "latitude": "32.24581000",
    "longitude": "-7.93144000"
  },
  {
    "name": "Reçani",
    "countryCode": "MA",
    "stateCode": "08",
    "latitude": "31.28318000",
    "longitude": "-4.26565000"
  },
  {
    "name": "Safi",
    "countryCode": "MA",
    "stateCode": "SAF",
    "latitude": "32.16667000",
    "longitude": "-8.83333000"
  },
  {
    "name": "Saidia",
    "countryCode": "MA",
    "stateCode": "02",
    "latitude": "35.08195000",
    "longitude": "-2.22897000"
  },
  {
    "name": "Sale",
    "countryCode": "MA",
    "stateCode": "KEN",
    "latitude": "34.05310000",
    "longitude": "-6.79846000"
  },
  {
    "name": "Sefrou",
    "countryCode": "MA",
    "stateCode": "03",
    "latitude": "33.79979000",
    "longitude": "-4.68000000"
  },
  {
    "name": "Selouane",
    "countryCode": "MA",
    "stateCode": "02",
    "latitude": "35.07313000",
    "longitude": "-2.94230000"
  },
  {
    "name": "Senada",
    "countryCode": "MA",
    "stateCode": "01",
    "latitude": "35.07452000",
    "longitude": "-4.21583000"
  },
  {
    "name": "Settat",
    "countryCode": "MA",
    "stateCode": "06",
    "latitude": "33.00103000",
    "longitude": "-7.61662000"
  },
  {
    "name": "Settat Province",
    "countryCode": "MA",
    "stateCode": "06",
    "latitude": "33.08333000",
    "longitude": "-7.41667000"
  },
  {
    "name": "Setti Fatma",
    "countryCode": "MA",
    "stateCode": "SAF",
    "latitude": "31.22508000",
    "longitude": "-7.67751000"
  },
  {
    "name": "Sidi Bennour",
    "countryCode": "MA",
    "stateCode": "06",
    "latitude": "32.64896000",
    "longitude": "-8.42686000"
  },
  {
    "name": "Sidi Bousber",
    "countryCode": "MA",
    "stateCode": "KEN",
    "latitude": "34.56283000",
    "longitude": "-5.36208000"
  },
  {
    "name": "Sidi Ifni",
    "countryCode": "MA",
    "stateCode": "10",
    "latitude": "29.37719000",
    "longitude": "-10.17111000"
  },
  {
    "name": "Sidi Ifni",
    "countryCode": "MA",
    "stateCode": "ASZ",
    "latitude": "29.37975000",
    "longitude": "-10.17299000"
  },
  {
    "name": "Sidi Jaber",
    "countryCode": "MA",
    "stateCode": "KHN",
    "latitude": "32.38952000",
    "longitude": "-6.42095000"
  },
  {
    "name": "Sidi Qacem",
    "countryCode": "MA",
    "stateCode": "KEN",
    "latitude": "34.22149000",
    "longitude": "-5.70775000"
  },
  {
    "name": "Sidi Rahhal",
    "countryCode": "MA",
    "stateCode": "SAF",
    "latitude": "31.65031000",
    "longitude": "-7.47288000"
  },
  {
    "name": "Sidi Redouane",
    "countryCode": "MA",
    "stateCode": "KEN",
    "latitude": "34.68692000",
    "longitude": "-5.44538000"
  },
  {
    "name": "Sidi Slimane",
    "countryCode": "MA",
    "stateCode": "KEN",
    "latitude": "34.26479000",
    "longitude": "-5.92598000"
  },
  {
    "name": "Sidi Smai’il",
    "countryCode": "MA",
    "stateCode": "06",
    "latitude": "32.82461000",
    "longitude": "-8.51122000"
  },
  {
    "name": "Sidi Yahia El Gharb",
    "countryCode": "MA",
    "stateCode": "KEN",
    "latitude": "34.30494000",
    "longitude": "-6.30404000"
  },
  {
    "name": "Sidi-Kacem",
    "countryCode": "MA",
    "stateCode": "KEN",
    "latitude": "34.58333000",
    "longitude": "-5.75000000"
  },
  {
    "name": "Skhirate",
    "countryCode": "MA",
    "stateCode": "KEN",
    "latitude": "33.85270000",
    "longitude": "-7.03171000"
  },
  {
    "name": "Skhirate-Temara",
    "countryCode": "MA",
    "stateCode": "KEN",
    "latitude": "33.77000000",
    "longitude": "-6.87000000"
  },
  {
    "name": "Smara",
    "countryCode": "MA",
    "stateCode": "11",
    "latitude": "26.73841000",
    "longitude": "-11.67194000"
  },
  {
    "name": "Smimou",
    "countryCode": "MA",
    "stateCode": "SAF",
    "latitude": "31.21014000",
    "longitude": "-9.70863000"
  },
  {
    "name": "Souq Larb’a al Gharb",
    "countryCode": "MA",
    "stateCode": "KEN",
    "latitude": "34.68664000",
    "longitude": "-6.00272000"
  },
  {
    "name": "Tadrart",
    "countryCode": "MA",
    "stateCode": "ASZ",
    "latitude": "30.77477000",
    "longitude": "-9.45951000"
  },
  {
    "name": "Tafraout",
    "countryCode": "MA",
    "stateCode": "ASZ",
    "latitude": "29.72449000",
    "longitude": "-8.97470000"
  },
  {
    "name": "Taghazout",
    "countryCode": "MA",
    "stateCode": "ASZ",
    "latitude": "30.54259000",
    "longitude": "-9.71115000"
  },
  {
    "name": "Tahla",
    "countryCode": "MA",
    "stateCode": "03",
    "latitude": "34.04965000",
    "longitude": "-4.42162000"
  },
  {
    "name": "Taliouine",
    "countryCode": "MA",
    "stateCode": "ASZ",
    "latitude": "30.52917000",
    "longitude": "-7.91262000"
  },
  {
    "name": "Talzemt",
    "countryCode": "MA",
    "stateCode": "03",
    "latitude": "33.59000000",
    "longitude": "-4.19000000"
  },
  {
    "name": "Tamanar",
    "countryCode": "MA",
    "stateCode": "SAF",
    "latitude": "31.00087000",
    "longitude": "-9.67802000"
  },
  {
    "name": "Tamorot",
    "countryCode": "MA",
    "stateCode": "01",
    "latitude": "34.93632000",
    "longitude": "-4.77940000"
  },
  {
    "name": "Tamri",
    "countryCode": "MA",
    "stateCode": "ASZ",
    "latitude": "30.69602000",
    "longitude": "-9.82972000"
  },
  {
    "name": "Tan-Tan",
    "countryCode": "MA",
    "stateCode": "10",
    "latitude": "28.08333000",
    "longitude": "-11.08333000"
  },
  {
    "name": "Tanalt",
    "countryCode": "MA",
    "stateCode": "ASZ",
    "latitude": "29.77548000",
    "longitude": "-9.16796000"
  },
  {
    "name": "Tanger-Assilah",
    "countryCode": "MA",
    "stateCode": "01",
    "latitude": "35.59000000",
    "longitude": "-5.90000000"
  },
  {
    "name": "Tangier",
    "countryCode": "MA",
    "stateCode": "01",
    "latitude": "35.76727000",
    "longitude": "-5.79975000"
  },
  {
    "name": "Taouloukoult",
    "countryCode": "MA",
    "stateCode": "SAF",
    "latitude": "31.22218000",
    "longitude": "-9.07943000"
  },
  {
    "name": "Taounate",
    "countryCode": "MA",
    "stateCode": "03",
    "latitude": "34.50000000",
    "longitude": "-4.83333000"
  },
  {
    "name": "Taourirt",
    "countryCode": "MA",
    "stateCode": "02",
    "latitude": "34.40731000",
    "longitude": "-2.89732000"
  },
  {
    "name": "Tarfaya",
    "countryCode": "MA",
    "stateCode": "11",
    "latitude": "27.93901000",
    "longitude": "-12.92082000"
  },
  {
    "name": "Targuist",
    "countryCode": "MA",
    "stateCode": "01",
    "latitude": "34.93769000",
    "longitude": "-4.31856000"
  },
  {
    "name": "Taroudannt",
    "countryCode": "MA",
    "stateCode": "ASZ",
    "latitude": "30.50000000",
    "longitude": "-8.41667000"
  },
  {
    "name": "Taroudant",
    "countryCode": "MA",
    "stateCode": "ASZ",
    "latitude": "30.47028000",
    "longitude": "-8.87695000"
  },
  {
    "name": "Tarsouat",
    "countryCode": "MA",
    "stateCode": "ASZ",
    "latitude": "29.58153000",
    "longitude": "-9.02664000"
  },
  {
    "name": "Tata",
    "countryCode": "MA",
    "stateCode": "ASZ",
    "latitude": "29.66667000",
    "longitude": "-7.83333000"
  },
  {
    "name": "Taza",
    "countryCode": "MA",
    "stateCode": "03",
    "latitude": "34.25000000",
    "longitude": "-3.75000000"
  },
  {
    "name": "Taznakht",
    "countryCode": "MA",
    "stateCode": "08",
    "latitude": "30.57836000",
    "longitude": "-7.20341000"
  },
  {
    "name": "Telouet",
    "countryCode": "MA",
    "stateCode": "08",
    "latitude": "31.28925000",
    "longitude": "-7.23789000"
  },
  {
    "name": "Temara",
    "countryCode": "MA",
    "stateCode": "KEN",
    "latitude": "33.92866000",
    "longitude": "-6.90656000"
  },
  {
    "name": "Teroual",
    "countryCode": "MA",
    "stateCode": "KEN",
    "latitude": "34.67452000",
    "longitude": "-5.27331000"
  },
  {
    "name": "Tetouan",
    "countryCode": "MA",
    "stateCode": "01",
    "latitude": "35.58333000",
    "longitude": "-5.50000000"
  },
  {
    "name": "Tidili Mesfioua",
    "countryCode": "MA",
    "stateCode": "SAF",
    "latitude": "31.46586000",
    "longitude": "-7.61199000"
  },
  {
    "name": "Tiflet",
    "countryCode": "MA",
    "stateCode": "KEN",
    "latitude": "33.89469000",
    "longitude": "-6.30649000"
  },
  {
    "name": "Timezgadiouine",
    "countryCode": "MA",
    "stateCode": "SAF",
    "latitude": "30.88366000",
    "longitude": "-9.04548000"
  },
  {
    "name": "Timoulilt",
    "countryCode": "MA",
    "stateCode": "KHN",
    "latitude": "32.20368000",
    "longitude": "-6.46660000"
  },
  {
    "name": "Tinghir",
    "countryCode": "MA",
    "stateCode": "08",
    "latitude": "31.51472000",
    "longitude": "-5.53278000"
  },
  {
    "name": "Tinghir Province",
    "countryCode": "MA",
    "stateCode": "08",
    "latitude": "31.51965000",
    "longitude": "-5.52999000"
  },
  {
    "name": "Tirhanimîne",
    "countryCode": "MA",
    "stateCode": "01",
    "latitude": "35.23619000",
    "longitude": "-3.95453000"
  },
  {
    "name": "Tit Mellil",
    "countryCode": "MA",
    "stateCode": "06",
    "latitude": "33.55808000",
    "longitude": "-7.48647000"
  },
  {
    "name": "Tiznit",
    "countryCode": "MA",
    "stateCode": "ASZ",
    "latitude": "29.58333000",
    "longitude": "-9.50000000"
  },
  {
    "name": "Tiztoutine",
    "countryCode": "MA",
    "stateCode": "02",
    "latitude": "34.97159000",
    "longitude": "-3.15273000"
  },
  {
    "name": "Tmourghout",
    "countryCode": "MA",
    "stateCode": "03",
    "latitude": "33.90650000",
    "longitude": "-4.02696000"
  },
  {
    "name": "Youssoufia",
    "countryCode": "MA",
    "stateCode": "SAF",
    "latitude": "32.24634000",
    "longitude": "-8.52941000"
  },
  {
    "name": "Zagora",
    "countryCode": "MA",
    "stateCode": "08",
    "latitude": "30.34839000",
    "longitude": "-5.83649000"
  },
  {
    "name": "Zawyat an Nwaçer",
    "countryCode": "MA",
    "stateCode": "06",
    "latitude": "33.37981000",
    "longitude": "-7.61932000"
  },
  {
    "name": "Zawyat ech Cheïkh",
    "countryCode": "MA",
    "stateCode": "KHN",
    "latitude": "32.64445000",
    "longitude": "-5.91826000"
  },
  {
    "name": "Zaïo",
    "countryCode": "MA",
    "stateCode": "02",
    "latitude": "34.94282000",
    "longitude": "-2.73290000"
  },
  {
    "name": "Zerkten",
    "countryCode": "MA",
    "stateCode": "SAF",
    "latitude": "31.44470000",
    "longitude": "-7.39224000"
  },
  {
    "name": "Zinat",
    "countryCode": "MA",
    "stateCode": "01",
    "latitude": "35.43000000",
    "longitude": "-5.40000000"
  },
  {
    "name": "Zoumi",
    "countryCode": "MA",
    "stateCode": "01",
    "latitude": "34.80321000",
    "longitude": "-5.34458000"
  }
]