[
  {
    "name": "Bago",
    "countryCode": "MM",
    "stateCode": "02",
    "latitude": "17.33521000",
    "longitude": "96.48135000"
  },
  {
    "name": "Bhamo",
    "countryCode": "MM",
    "stateCode": "11",
    "latitude": "24.25256000",
    "longitude": "97.23357000"
  },
  {
    "name": "Bogale",
    "countryCode": "MM",
    "stateCode": "07",
    "latitude": "16.29415000",
    "longitude": "95.39742000"
  },
  {
    "name": "Chauk",
    "countryCode": "MM",
    "stateCode": "03",
    "latitude": "20.89921000",
    "longitude": "94.81784000"
  },
  {
    "name": "Dawei",
    "countryCode": "MM",
    "stateCode": "05",
    "latitude": "14.08230000",
    "longitude": "98.19151000"
  },
  {
    "name": "Dellok",
    "countryCode": "MM",
    "stateCode": "13",
    "latitude": "16.04072000",
    "longitude": "97.91773000"
  },
  {
    "name": "Falam",
    "countryCode": "MM",
    "stateCode": "14",
    "latitude": "22.91335000",
    "longitude": "93.67779000"
  },
  {
    "name": "Hakha",
    "countryCode": "MM",
    "stateCode": "14",
    "latitude": "22.64452000",
    "longitude": "93.61076000"
  },
  {
    "name": "Hinthada",
    "countryCode": "MM",
    "stateCode": "07",
    "latitude": "17.64944000",
    "longitude": "95.45705000"
  },
  {
    "name": "Hpa-An",
    "countryCode": "MM",
    "stateCode": "13",
    "latitude": "16.88953000",
    "longitude": "97.63482000"
  },
  {
    "name": "Kanbe",
    "countryCode": "MM",
    "stateCode": "06",
    "latitude": "16.70728000",
    "longitude": "96.00168000"
  },
  {
    "name": "Kawthoung",
    "countryCode": "MM",
    "stateCode": "05",
    "latitude": "9.98238000",
    "longitude": "98.55034000"
  },
  {
    "name": "Kayan",
    "countryCode": "MM",
    "stateCode": "06",
    "latitude": "16.90802000",
    "longitude": "96.56037000"
  },
  {
    "name": "Klonhtoug",
    "countryCode": "MM",
    "stateCode": "13",
    "latitude": "15.95411000",
    "longitude": "98.43250000"
  },
  {
    "name": "Kyaikkami",
    "countryCode": "MM",
    "stateCode": "15",
    "latitude": "16.07686000",
    "longitude": "97.56388000"
  },
  {
    "name": "Kyaiklat",
    "countryCode": "MM",
    "stateCode": "07",
    "latitude": "16.44502000",
    "longitude": "95.72373000"
  },
  {
    "name": "Kyaikto",
    "countryCode": "MM",
    "stateCode": "15",
    "latitude": "17.30858000",
    "longitude": "97.01124000"
  },
  {
    "name": "Kyain Seikgyi Township",
    "countryCode": "MM",
    "stateCode": "13",
    "latitude": "15.82288000",
    "longitude": "98.25257000"
  },
  {
    "name": "Kyaukse",
    "countryCode": "MM",
    "stateCode": "04",
    "latitude": "21.60560000",
    "longitude": "96.13508000"
  },
  {
    "name": "Lashio",
    "countryCode": "MM",
    "stateCode": "17",
    "latitude": "22.93590000",
    "longitude": "97.74980000"
  },
  {
    "name": "Letpandan",
    "countryCode": "MM",
    "stateCode": "02",
    "latitude": "17.78664000",
    "longitude": "95.75076000"
  },
  {
    "name": "Loikaw",
    "countryCode": "MM",
    "stateCode": "12",
    "latitude": "19.67798000",
    "longitude": "97.20975000"
  },
  {
    "name": "Magway",
    "countryCode": "MM",
    "stateCode": "03",
    "latitude": "20.14956000",
    "longitude": "94.93246000"
  },
  {
    "name": "Mandalay",
    "countryCode": "MM",
    "stateCode": "04",
    "latitude": "21.97473000",
    "longitude": "96.08359000"
  },
  {
    "name": "Martaban",
    "countryCode": "MM",
    "stateCode": "15",
    "latitude": "16.52834000",
    "longitude": "97.61570000"
  },
  {
    "name": "Maubin",
    "countryCode": "MM",
    "stateCode": "07",
    "latitude": "16.73148000",
    "longitude": "95.65441000"
  },
  {
    "name": "Mawlaik",
    "countryCode": "MM",
    "stateCode": "01",
    "latitude": "23.64254000",
    "longitude": "94.40478000"
  },
  {
    "name": "Mawlamyine",
    "countryCode": "MM",
    "stateCode": "15",
    "latitude": "16.49051000",
    "longitude": "97.62825000"
  },
  {
    "name": "Mawlamyinegyunn",
    "countryCode": "MM",
    "stateCode": "07",
    "latitude": "16.37720000",
    "longitude": "95.26488000"
  },
  {
    "name": "Meiktila",
    "countryCode": "MM",
    "stateCode": "04",
    "latitude": "20.87776000",
    "longitude": "95.85844000"
  },
  {
    "name": "Mikenaungea",
    "countryCode": "MM",
    "stateCode": "13",
    "latitude": "15.95846000",
    "longitude": "98.42721000"
  },
  {
    "name": "Minbu",
    "countryCode": "MM",
    "stateCode": "03",
    "latitude": "20.18059000",
    "longitude": "94.87595000"
  },
  {
    "name": "Mogok",
    "countryCode": "MM",
    "stateCode": "04",
    "latitude": "22.91766000",
    "longitude": "96.50982000"
  },
  {
    "name": "Monywa",
    "countryCode": "MM",
    "stateCode": "01",
    "latitude": "22.10856000",
    "longitude": "95.13583000"
  },
  {
    "name": "Mudon",
    "countryCode": "MM",
    "stateCode": "15",
    "latitude": "16.25624000",
    "longitude": "97.72460000"
  },
  {
    "name": "Myanaung",
    "countryCode": "MM",
    "stateCode": "07",
    "latitude": "18.28651000",
    "longitude": "95.32014000"
  },
  {
    "name": "Myawadi",
    "countryCode": "MM",
    "stateCode": "13",
    "latitude": "16.68911000",
    "longitude": "98.50893000"
  },
  {
    "name": "Myaydo",
    "countryCode": "MM",
    "stateCode": "03",
    "latitude": "19.36838000",
    "longitude": "95.21512000"
  },
  {
    "name": "Myeik",
    "countryCode": "MM",
    "stateCode": "05",
    "latitude": "12.43954000",
    "longitude": "98.60028000"
  },
  {
    "name": "Myingyan",
    "countryCode": "MM",
    "stateCode": "04",
    "latitude": "21.46002000",
    "longitude": "95.38840000"
  },
  {
    "name": "Myitkyina",
    "countryCode": "MM",
    "stateCode": "11",
    "latitude": "25.38327000",
    "longitude": "97.39637000"
  },
  {
    "name": "Nay Pyi Taw",
    "countryCode": "MM",
    "stateCode": "18",
    "latitude": "19.74500000",
    "longitude": "96.12972000"
  },
  {
    "name": "Nyaungdon",
    "countryCode": "MM",
    "stateCode": "07",
    "latitude": "17.04459000",
    "longitude": "95.63957000"
  },
  {
    "name": "Nyaunglebin",
    "countryCode": "MM",
    "stateCode": "02",
    "latitude": "17.95363000",
    "longitude": "96.72247000"
  },
  {
    "name": "Nyaungshwe",
    "countryCode": "MM",
    "stateCode": "04",
    "latitude": "20.66084000",
    "longitude": "96.93405000"
  },
  {
    "name": "Pakokku",
    "countryCode": "MM",
    "stateCode": "03",
    "latitude": "21.33489000",
    "longitude": "95.08438000"
  },
  {
    "name": "Pathein",
    "countryCode": "MM",
    "stateCode": "07",
    "latitude": "16.77919000",
    "longitude": "94.73212000"
  },
  {
    "name": "Paungde",
    "countryCode": "MM",
    "stateCode": "02",
    "latitude": "18.49167000",
    "longitude": "95.50591000"
  },
  {
    "name": "Pulei",
    "countryCode": "MM",
    "stateCode": "13",
    "latitude": "16.06243000",
    "longitude": "97.88280000"
  },
  {
    "name": "Pyapon",
    "countryCode": "MM",
    "stateCode": "07",
    "latitude": "16.28543000",
    "longitude": "95.67882000"
  },
  {
    "name": "Pyay",
    "countryCode": "MM",
    "stateCode": "02",
    "latitude": "18.82464000",
    "longitude": "95.22216000"
  },
  {
    "name": "Pyin Oo Lwin",
    "countryCode": "MM",
    "stateCode": "04",
    "latitude": "22.03501000",
    "longitude": "96.45683000"
  },
  {
    "name": "Pyinmana",
    "countryCode": "MM",
    "stateCode": "18",
    "latitude": "19.73810000",
    "longitude": "96.20742000"
  },
  {
    "name": "Pyu",
    "countryCode": "MM",
    "stateCode": "02",
    "latitude": "18.48130000",
    "longitude": "96.43742000"
  },
  {
    "name": "Sagaing",
    "countryCode": "MM",
    "stateCode": "01",
    "latitude": "21.87870000",
    "longitude": "95.97965000"
  },
  {
    "name": "Shwebo",
    "countryCode": "MM",
    "stateCode": "01",
    "latitude": "22.56925000",
    "longitude": "95.69818000"
  },
  {
    "name": "Sittwe",
    "countryCode": "MM",
    "stateCode": "16",
    "latitude": "20.14624000",
    "longitude": "92.89835000"
  },
  {
    "name": "Syriam",
    "countryCode": "MM",
    "stateCode": "06",
    "latitude": "16.76887000",
    "longitude": "96.24503000"
  },
  {
    "name": "Tachilek",
    "countryCode": "MM",
    "stateCode": "17",
    "latitude": "20.44750000",
    "longitude": "99.88083000"
  },
  {
    "name": "Tagondaing",
    "countryCode": "MM",
    "stateCode": "13",
    "latitude": "16.06750000",
    "longitude": "97.90694000"
  },
  {
    "name": "Tamoowoug",
    "countryCode": "MM",
    "stateCode": "13",
    "latitude": "16.03447000",
    "longitude": "97.91458000"
  },
  {
    "name": "Taungdwingyi",
    "countryCode": "MM",
    "stateCode": "03",
    "latitude": "20.00650000",
    "longitude": "95.54531000"
  },
  {
    "name": "Taunggyi",
    "countryCode": "MM",
    "stateCode": "17",
    "latitude": "20.78919000",
    "longitude": "97.03776000"
  },
  {
    "name": "Taungoo",
    "countryCode": "MM",
    "stateCode": "02",
    "latitude": "18.94291000",
    "longitude": "96.43408000"
  },
  {
    "name": "Thanatpin",
    "countryCode": "MM",
    "stateCode": "02",
    "latitude": "17.29136000",
    "longitude": "96.57523000"
  },
  {
    "name": "Tharyarwady",
    "countryCode": "MM",
    "stateCode": "02",
    "latitude": "17.65399000",
    "longitude": "95.78813000"
  },
  {
    "name": "Thaton",
    "countryCode": "MM",
    "stateCode": "15",
    "latitude": "16.91867000",
    "longitude": "97.37001000"
  },
  {
    "name": "Thayetmyo",
    "countryCode": "MM",
    "stateCode": "03",
    "latitude": "19.32076000",
    "longitude": "95.18272000"
  },
  {
    "name": "Thongwa",
    "countryCode": "MM",
    "stateCode": "06",
    "latitude": "16.75998000",
    "longitude": "96.52498000"
  },
  {
    "name": "Twante",
    "countryCode": "MM",
    "stateCode": "06",
    "latitude": "16.71047000",
    "longitude": "95.92866000"
  },
  {
    "name": "Wakema",
    "countryCode": "MM",
    "stateCode": "07",
    "latitude": "16.60333000",
    "longitude": "95.18278000"
  },
  {
    "name": "Yamethin",
    "countryCode": "MM",
    "stateCode": "04",
    "latitude": "20.43189000",
    "longitude": "96.13875000"
  },
  {
    "name": "Yangon",
    "countryCode": "MM",
    "stateCode": "06",
    "latitude": "16.80528000",
    "longitude": "96.15611000"
  },
  {
    "name": "Yenangyaung",
    "countryCode": "MM",
    "stateCode": "03",
    "latitude": "20.46504000",
    "longitude": "94.87120000"
  }
]