[
  {
    "name": "Albion",
    "countryCode": "MU",
    "stateCode": "BL",
    "latitude": "-20.20814000",
    "longitude": "57.40766000"
  },
  {
    "name": "Amaury",
    "countryCode": "MU",
    "stateCode": "RR",
    "latitude": "-20.13083000",
    "longitude": "57.65917000"
  },
  {
    "name": "Arsenal",
    "countryCode": "MU",
    "stateCode": "PA",
    "latitude": "-20.10556000",
    "longitude": "57.53528000"
  },
  {
    "name": "Baie aux Huîtres",
    "countryCode": "MU",
    "stateCode": "RO",
    "latitude": "-19.69444000",
    "longitude": "63.40833000"
  },
  {
    "name": "Bambous",
    "countryCode": "MU",
    "stateCode": "BL",
    "latitude": "-20.25667000",
    "longitude": "57.40611000"
  },
  {
    "name": "Bambous Virieux",
    "countryCode": "MU",
    "stateCode": "GP",
    "latitude": "-20.34278000",
    "longitude": "57.75750000"
  },
  {
    "name": "Beau Bassin-Rose Hill",
    "countryCode": "MU",
    "stateCode": "PW",
    "latitude": "-20.23325000",
    "longitude": "57.46609000"
  },
  {
    "name": "Beau Vallon",
    "countryCode": "MU",
    "stateCode": "GP",
    "latitude": "-20.41889000",
    "longitude": "57.69528000"
  },
  {
    "name": "Bel Air Rivière Sèche",
    "countryCode": "MU",
    "stateCode": "FL",
    "latitude": "-20.25777000",
    "longitude": "57.74976000"
  },
  {
    "name": "Bois des Amourettes",
    "countryCode": "MU",
    "stateCode": "GP",
    "latitude": "-20.36306000",
    "longitude": "57.73111000"
  },
  {
    "name": "Bon Accueil",
    "countryCode": "MU",
    "stateCode": "FL",
    "latitude": "-20.17083000",
    "longitude": "57.65639000"
  },
  {
    "name": "Brisée Verdière",
    "countryCode": "MU",
    "stateCode": "FL",
    "latitude": "-20.16389000",
    "longitude": "57.64667000"
  },
  {
    "name": "Calebasses",
    "countryCode": "MU",
    "stateCode": "PA",
    "latitude": "-20.11167000",
    "longitude": "57.55389000"
  },
  {
    "name": "Camp Diable",
    "countryCode": "MU",
    "stateCode": "SA",
    "latitude": "-20.46278000",
    "longitude": "57.57889000"
  },
  {
    "name": "Camp Ithier",
    "countryCode": "MU",
    "stateCode": "FL",
    "latitude": "-20.21583000",
    "longitude": "57.74556000"
  },
  {
    "name": "Camp Thorel",
    "countryCode": "MU",
    "stateCode": "MO",
    "latitude": "-20.21472000",
    "longitude": "57.61611000"
  },
  {
    "name": "Camp de Masque",
    "countryCode": "MU",
    "stateCode": "FL",
    "latitude": "-20.23694000",
    "longitude": "57.66333000"
  },
  {
    "name": "Cap Malheureux",
    "countryCode": "MU",
    "stateCode": "RR",
    "latitude": "-19.98417000",
    "longitude": "57.61417000"
  },
  {
    "name": "Cargados Carajos",
    "countryCode": "MU",
    "stateCode": "CC",
    "latitude": "-16.60329000",
    "longitude": "59.65851000"
  },
  {
    "name": "Cascavelle",
    "countryCode": "MU",
    "stateCode": "BL",
    "latitude": "-20.28694000",
    "longitude": "57.40722000"
  },
  {
    "name": "Centre de Flacq",
    "countryCode": "MU",
    "stateCode": "FL",
    "latitude": "-20.18972000",
    "longitude": "57.71444000"
  },
  {
    "name": "Chamouny",
    "countryCode": "MU",
    "stateCode": "SA",
    "latitude": "-20.48222000",
    "longitude": "57.46611000"
  },
  {
    "name": "Chemin Grenier",
    "countryCode": "MU",
    "stateCode": "SA",
    "latitude": "-20.48722000",
    "longitude": "57.46556000"
  },
  {
    "name": "Cluny",
    "countryCode": "MU",
    "stateCode": "GP",
    "latitude": "-20.36694000",
    "longitude": "57.60389000"
  },
  {
    "name": "Clémencia",
    "countryCode": "MU",
    "stateCode": "FL",
    "latitude": "-20.26389000",
    "longitude": "57.70611000"
  },
  {
    "name": "Congomah",
    "countryCode": "MU",
    "stateCode": "PA",
    "latitude": "-20.14889000",
    "longitude": "57.59083000"
  },
  {
    "name": "Cottage",
    "countryCode": "MU",
    "stateCode": "RR",
    "latitude": "-20.05972000",
    "longitude": "57.62917000"
  },
  {
    "name": "Crève Coeur",
    "countryCode": "MU",
    "stateCode": "PA",
    "latitude": "-20.19111000",
    "longitude": "57.55722000"
  },
  {
    "name": "Curepipe",
    "countryCode": "MU",
    "stateCode": "PW",
    "latitude": "-20.31628000",
    "longitude": "57.52594000"
  },
  {
    "name": "Dagotière",
    "countryCode": "MU",
    "stateCode": "MO",
    "latitude": "-20.24476000",
    "longitude": "57.56188000"
  },
  {
    "name": "Dubreuil",
    "countryCode": "MU",
    "stateCode": "MO",
    "latitude": "-20.30132000",
    "longitude": "57.59861000"
  },
  {
    "name": "Ebene",
    "countryCode": "MU",
    "stateCode": "PW",
    "latitude": "-20.24494000",
    "longitude": "57.49163000"
  },
  {
    "name": "Ecroignard",
    "countryCode": "MU",
    "stateCode": "FL",
    "latitude": "-20.22611000",
    "longitude": "57.73611000"
  },
  {
    "name": "Espérance Trébuchet",
    "countryCode": "MU",
    "stateCode": "RR",
    "latitude": "-20.06972000",
    "longitude": "57.64194000"
  },
  {
    "name": "Flic en Flac",
    "countryCode": "MU",
    "stateCode": "BL",
    "latitude": "-20.27417000",
    "longitude": "57.36306000"
  },
  {
    "name": "Fond du Sac",
    "countryCode": "MU",
    "stateCode": "PA",
    "latitude": "-20.04732000",
    "longitude": "57.58400000"
  },
  {
    "name": "Goodlands",
    "countryCode": "MU",
    "stateCode": "RR",
    "latitude": "-20.03841000",
    "longitude": "57.65055000"
  },
  {
    "name": "Grand Baie",
    "countryCode": "MU",
    "stateCode": "RR",
    "latitude": "-20.01816000",
    "longitude": "57.58015000"
  },
  {
    "name": "Grand Bois",
    "countryCode": "MU",
    "stateCode": "SA",
    "latitude": "-20.41889000",
    "longitude": "57.54417000"
  },
  {
    "name": "Grand Gaube",
    "countryCode": "MU",
    "stateCode": "RR",
    "latitude": "-20.00639000",
    "longitude": "57.66083000"
  },
  {
    "name": "Grand Sable",
    "countryCode": "MU",
    "stateCode": "GP",
    "latitude": "-20.31417000",
    "longitude": "57.76444000"
  },
  {
    "name": "Grande Rivière Noire",
    "countryCode": "MU",
    "stateCode": "BL",
    "latitude": "-20.36028000",
    "longitude": "57.36611000"
  },
  {
    "name": "Grande Rivière Sud Est",
    "countryCode": "MU",
    "stateCode": "FL",
    "latitude": "-20.28611000",
    "longitude": "57.77583000"
  },
  {
    "name": "Gros Cailloux",
    "countryCode": "MU",
    "stateCode": "BL",
    "latitude": "-20.20722000",
    "longitude": "57.43000000"
  },
  {
    "name": "Lalmatie",
    "countryCode": "MU",
    "stateCode": "FL",
    "latitude": "-20.18972000",
    "longitude": "57.66111000"
  },
  {
    "name": "Laventure",
    "countryCode": "MU",
    "stateCode": "FL",
    "latitude": "-20.14583000",
    "longitude": "57.67667000"
  },
  {
    "name": "Le Hochet",
    "countryCode": "MU",
    "stateCode": "PA",
    "latitude": "-20.13500000",
    "longitude": "57.52111000"
  },
  {
    "name": "Long Mountain",
    "countryCode": "MU",
    "stateCode": "PA",
    "latitude": "-20.14306000",
    "longitude": "57.56222000"
  },
  {
    "name": "Mahébourg",
    "countryCode": "MU",
    "stateCode": "GP",
    "latitude": "-20.40806000",
    "longitude": "57.70000000"
  },
  {
    "name": "Mapou",
    "countryCode": "MU",
    "stateCode": "RR",
    "latitude": "-20.07583000",
    "longitude": "57.60139000"
  },
  {
    "name": "Mare La Chaux",
    "countryCode": "MU",
    "stateCode": "FL",
    "latitude": "-20.19806000",
    "longitude": "57.74944000"
  },
  {
    "name": "Melrose",
    "countryCode": "MU",
    "stateCode": "MO",
    "latitude": "-20.26972000",
    "longitude": "57.63194000"
  },
  {
    "name": "Midlands",
    "countryCode": "MU",
    "stateCode": "PW",
    "latitude": "-20.31907000",
    "longitude": "57.57016000"
  },
  {
    "name": "Moka",
    "countryCode": "MU",
    "stateCode": "MO",
    "latitude": "-20.21889000",
    "longitude": "57.49583000"
  },
  {
    "name": "Morcellement Saint André",
    "countryCode": "MU",
    "stateCode": "PA",
    "latitude": "-20.07199000",
    "longitude": "57.56833000"
  },
  {
    "name": "New Grove",
    "countryCode": "MU",
    "stateCode": "GP",
    "latitude": "-20.40861000",
    "longitude": "57.61361000"
  },
  {
    "name": "Notre Dame",
    "countryCode": "MU",
    "stateCode": "PA",
    "latitude": "-20.14056000",
    "longitude": "57.55306000"
  },
  {
    "name": "Nouvelle France",
    "countryCode": "MU",
    "stateCode": "GP",
    "latitude": "-20.37056000",
    "longitude": "57.56111000"
  },
  {
    "name": "Olivia",
    "countryCode": "MU",
    "stateCode": "FL",
    "latitude": "-20.28778000",
    "longitude": "57.73097000"
  },
  {
    "name": "Pailles",
    "countryCode": "MU",
    "stateCode": "MO",
    "latitude": "-20.19271000",
    "longitude": "57.48826000"
  },
  {
    "name": "Pamplemousses",
    "countryCode": "MU",
    "stateCode": "PA",
    "latitude": "-20.10389000",
    "longitude": "57.57028000"
  },
  {
    "name": "Petit Raffray",
    "countryCode": "MU",
    "stateCode": "RR",
    "latitude": "-20.02022000",
    "longitude": "57.62296000"
  },
  {
    "name": "Petite Case Noyale",
    "countryCode": "MU",
    "stateCode": "BL",
    "latitude": "-20.39306000",
    "longitude": "57.36500000"
  },
  {
    "name": "Petite Rivière",
    "countryCode": "MU",
    "stateCode": "BL",
    "latitude": "-20.19551000",
    "longitude": "57.44592000"
  },
  {
    "name": "Piton",
    "countryCode": "MU",
    "stateCode": "RR",
    "latitude": "-20.09028000",
    "longitude": "57.63028000"
  },
  {
    "name": "Plaine Magnien",
    "countryCode": "MU",
    "stateCode": "GP",
    "latitude": "-20.42967000",
    "longitude": "57.66968000"
  },
  {
    "name": "Plaine des Papayes",
    "countryCode": "MU",
    "stateCode": "PA",
    "latitude": "-20.06500000",
    "longitude": "57.57250000"
  },
  {
    "name": "Plaines des Roches",
    "countryCode": "MU",
    "stateCode": "RR",
    "latitude": "-20.11167000",
    "longitude": "57.69083000"
  },
  {
    "name": "Pointe aux Piments",
    "countryCode": "MU",
    "stateCode": "PA",
    "latitude": "-20.06494000",
    "longitude": "57.52347000"
  },
  {
    "name": "Port Louis",
    "countryCode": "MU",
    "stateCode": "PL",
    "latitude": "-20.16194000",
    "longitude": "57.49889000"
  },
  {
    "name": "Port Mathurin",
    "countryCode": "MU",
    "stateCode": "RO",
    "latitude": "-19.68333000",
    "longitude": "63.41667000"
  },
  {
    "name": "Poste de Flacq",
    "countryCode": "MU",
    "stateCode": "FL",
    "latitude": "-20.16306000",
    "longitude": "57.73056000"
  },
  {
    "name": "Providence",
    "countryCode": "MU",
    "stateCode": "MO",
    "latitude": "-20.24472000",
    "longitude": "57.61222000"
  },
  {
    "name": "Quartier Militaire",
    "countryCode": "MU",
    "stateCode": "MO",
    "latitude": "-20.24790000",
    "longitude": "57.59737000"
  },
  {
    "name": "Quatre Bornes",
    "countryCode": "MU",
    "stateCode": "PW",
    "latitude": "-20.26381000",
    "longitude": "57.47910000"
  },
  {
    "name": "Quatre Cocos",
    "countryCode": "MU",
    "stateCode": "FL",
    "latitude": "-20.20151000",
    "longitude": "57.77448000"
  },
  {
    "name": "Quatre Soeurs",
    "countryCode": "MU",
    "stateCode": "FL",
    "latitude": "-20.29917000",
    "longitude": "57.77056000"
  },
  {
    "name": "Queen Victoria",
    "countryCode": "MU",
    "stateCode": "FL",
    "latitude": "-20.22000000",
    "longitude": "57.70750000"
  },
  {
    "name": "Rivière des Anguilles",
    "countryCode": "MU",
    "stateCode": "SA",
    "latitude": "-20.48528000",
    "longitude": "57.55083000"
  },
  {
    "name": "Rivière du Rempart",
    "countryCode": "MU",
    "stateCode": "RR",
    "latitude": "-20.10306000",
    "longitude": "57.68472000"
  },
  {
    "name": "Roche Terre",
    "countryCode": "MU",
    "stateCode": "RR",
    "latitude": "-20.01861000",
    "longitude": "57.64472000"
  },
  {
    "name": "Roches Noire",
    "countryCode": "MU",
    "stateCode": "RR",
    "latitude": "-20.11111000",
    "longitude": "57.71222000"
  },
  {
    "name": "Rose Belle",
    "countryCode": "MU",
    "stateCode": "GP",
    "latitude": "-20.40028000",
    "longitude": "57.59667000"
  },
  {
    "name": "Saint Aubin",
    "countryCode": "MU",
    "stateCode": "SA",
    "latitude": "-20.49600000",
    "longitude": "57.55000000"
  },
  {
    "name": "Saint Hubert",
    "countryCode": "MU",
    "stateCode": "GP",
    "latitude": "-20.36417000",
    "longitude": "57.63833000"
  },
  {
    "name": "Saint Julien",
    "countryCode": "MU",
    "stateCode": "FL",
    "latitude": "-20.22639000",
    "longitude": "57.63639000"
  },
  {
    "name": "Saint Pierre",
    "countryCode": "MU",
    "stateCode": "MO",
    "latitude": "-20.21750000",
    "longitude": "57.52083000"
  },
  {
    "name": "Sebastopol",
    "countryCode": "MU",
    "stateCode": "FL",
    "latitude": "-20.29070000",
    "longitude": "57.68779000"
  },
  {
    "name": "Souillac",
    "countryCode": "MU",
    "stateCode": "SA",
    "latitude": "-20.51667000",
    "longitude": "57.51667000"
  },
  {
    "name": "Surinam",
    "countryCode": "MU",
    "stateCode": "SA",
    "latitude": "-20.50972000",
    "longitude": "57.50528000"
  },
  {
    "name": "Tamarin",
    "countryCode": "MU",
    "stateCode": "BL",
    "latitude": "-20.32556000",
    "longitude": "57.37056000"
  },
  {
    "name": "Terre Rouge",
    "countryCode": "MU",
    "stateCode": "PA",
    "latitude": "-20.12611000",
    "longitude": "57.52444000"
  },
  {
    "name": "The Vale",
    "countryCode": "MU",
    "stateCode": "RR",
    "latitude": "-20.03018000",
    "longitude": "57.60219000"
  },
  {
    "name": "Triolet",
    "countryCode": "MU",
    "stateCode": "PA",
    "latitude": "-20.05760000",
    "longitude": "57.55025000"
  },
  {
    "name": "Vacoas",
    "countryCode": "MU",
    "stateCode": "PW",
    "latitude": "-20.29806000",
    "longitude": "57.47833000"
  },
  {
    "name": "Verdun",
    "countryCode": "MU",
    "stateCode": "MO",
    "latitude": "-20.23417000",
    "longitude": "57.55476000"
  },
  {
    "name": "Vingt Cinq",
    "countryCode": "MU",
    "stateCode": "AG",
    "latitude": "-10.38803000",
    "longitude": "56.61795000"
  }
]