[
  {
    "name": "10 de Abril",
    "countryCode": "MX",
    "stateCode": "GRO",
    "latitude": "16.82917000",
    "longitude": "-99.74083000"
  },
  {
    "name": "18 de Marzo",
    "countryCode": "MX",
    "stateCode": "PUE",
    "latitude": "18.96889000",
    "longitude": "-98.16028000"
  },
  {
    "name": "1ra. Sección de Izapa",
    "countryCode": "MX",
    "stateCode": "CHP",
    "latitude": "14.92083000",
    "longitude": "-92.17083000"
  },
  {
    "name": "2da. Sección de Medio Monte",
    "countryCode": "MX",
    "stateCode": "CHP",
    "latitude": "14.88194000",
    "longitude": "-92.18444000"
  },
  {
    "name": "31 de Octubre",
    "countryCode": "MX",
    "stateCode": "SON",
    "latitude": "27.29583000",
    "longitude": "-110.03750000"
  },
  {
    "name": "Abala",
    "countryCode": "MX",
    "stateCode": "YUC",
    "latitude": "20.64745000",
    "longitude": "-89.68094000"
  },
  {
    "name": "Abasolo",
    "countryCode": "MX",
    "stateCode": "CHP",
    "latitude": "16.82140000",
    "longitude": "-92.21611000"
  },
  {
    "name": "Abasolo",
    "countryCode": "MX",
    "stateCode": "COA",
    "latitude": "27.18219000",
    "longitude": "-101.42757000"
  },
  {
    "name": "Abasolo",
    "countryCode": "MX",
    "stateCode": "DUR",
    "latitude": "25.31145000",
    "longitude": "-104.65580000"
  },
  {
    "name": "Abasolo",
    "countryCode": "MX",
    "stateCode": "GUA",
    "latitude": "20.44997000",
    "longitude": "-101.53073000"
  },
  {
    "name": "Abasolo",
    "countryCode": "MX",
    "stateCode": "TAM",
    "latitude": "24.05844000",
    "longitude": "-98.37333000"
  },
  {
    "name": "Abasolo del Valle",
    "countryCode": "MX",
    "stateCode": "VER",
    "latitude": "17.78306000",
    "longitude": "-95.54556000"
  },
  {
    "name": "Abdenago C. García",
    "countryCode": "MX",
    "stateCode": "CHH",
    "latitude": "29.98937000",
    "longitude": "-107.55210000"
  },
  {
    "name": "Abelardo L. Rodríguez",
    "countryCode": "MX",
    "stateCode": "CAM",
    "latitude": "18.72842000",
    "longitude": "-90.90456000"
  },
  {
    "name": "Abelardo L. Rodríguez",
    "countryCode": "MX",
    "stateCode": "MOR",
    "latitude": "18.73750000",
    "longitude": "-98.98528000"
  },
  {
    "name": "Abrevadero",
    "countryCode": "MX",
    "stateCode": "VER",
    "latitude": "18.28222000",
    "longitude": "-95.21444000"
  },
  {
    "name": "Acachapan y Colmena 3ra. Sección",
    "countryCode": "MX",
    "stateCode": "TAB",
    "latitude": "18.04858000",
    "longitude": "-92.77750000"
  },
  {
    "name": "Acachuén",
    "countryCode": "MX",
    "stateCode": "MEX",
    "latitude": "19.84715000",
    "longitude": "-102.09272000"
  },
  {
    "name": "Acacoyagua",
    "countryCode": "MX",
    "stateCode": "CHP",
    "latitude": "15.41414000",
    "longitude": "-92.68169000"
  },
  {
    "name": "Acahuasco",
    "countryCode": "MX",
    "stateCode": "HID",
    "latitude": "20.96254000",
    "longitude": "-98.59656000"
  },
  {
    "name": "Acahuizotla",
    "countryCode": "MX",
    "stateCode": "GRO",
    "latitude": "17.36054000",
    "longitude": "-99.46759000"
  },
  {
    "name": "Acajete",
    "countryCode": "MX",
    "stateCode": "PUE",
    "latitude": "19.11154000",
    "longitude": "-97.95231000"
  },
  {
    "name": "Acajete",
    "countryCode": "MX",
    "stateCode": "VER",
    "latitude": "19.56815000",
    "longitude": "-97.03333000"
  },
  {
    "name": "Acala",
    "countryCode": "MX",
    "stateCode": "CHP",
    "latitude": "16.55625000",
    "longitude": "-92.80449000"
  },
  {
    "name": "Acalco",
    "countryCode": "MX",
    "stateCode": "GRO",
    "latitude": "17.50575000",
    "longitude": "-99.16670000"
  },
  {
    "name": "Acalpican de Morelos",
    "countryCode": "MX",
    "stateCode": "MEX",
    "latitude": "18.01854000",
    "longitude": "-102.34033000"
  },
  {
    "name": "Acambay",
    "countryCode": "MX",
    "stateCode": "MEX",
    "latitude": "19.95522000",
    "longitude": "-99.84428000"
  },
  {
    "name": "Acamilpa",
    "countryCode": "MX",
    "stateCode": "MOR",
    "latitude": "18.71695000",
    "longitude": "-99.15724000"
  },
  {
    "name": "Acamixtla",
    "countryCode": "MX",
    "stateCode": "GRO",
    "latitude": "18.56512000",
    "longitude": "-99.56599000"
  },
  {
    "name": "Acanceh",
    "countryCode": "MX",
    "stateCode": "YUC",
    "latitude": "20.81269000",
    "longitude": "-89.45295000"
  },
  {
    "name": "Acapetahua",
    "countryCode": "MX",
    "stateCode": "CHP",
    "latitude": "15.28189000",
    "longitude": "-92.68987000"
  },
  {
    "name": "Acapetlahuaya",
    "countryCode": "MX",
    "stateCode": "GRO",
    "latitude": "18.41942000",
    "longitude": "-100.07237000"
  },
  {
    "name": "Acaponeta",
    "countryCode": "MX",
    "stateCode": "NAY",
    "latitude": "22.49396000",
    "longitude": "-105.36369000"
  },
  {
    "name": "Acapulco de Juárez",
    "countryCode": "MX",
    "stateCode": "GRO",
    "latitude": "16.84942000",
    "longitude": "-99.90891000"
  },
  {
    "name": "Acatempa",
    "countryCode": "MX",
    "stateCode": "GRO",
    "latitude": "17.64333000",
    "longitude": "-99.36639000"
  },
  {
    "name": "Acatempan",
    "countryCode": "MX",
    "stateCode": "GRO",
    "latitude": "18.31809000",
    "longitude": "-99.88298000"
  },
  {
    "name": "Acateno",
    "countryCode": "MX",
    "stateCode": "PUE",
    "latitude": "20.11324000",
    "longitude": "-97.22710000"
  },
  {
    "name": "Acatepec",
    "countryCode": "MX",
    "stateCode": "GRO",
    "latitude": "17.17482000",
    "longitude": "-98.97603000"
  },
  {
    "name": "Acatepec",
    "countryCode": "MX",
    "stateCode": "HID",
    "latitude": "20.95367000",
    "longitude": "-98.27373000"
  },
  {
    "name": "Acatepec",
    "countryCode": "MX",
    "stateCode": "PUE",
    "latitude": "18.37236000",
    "longitude": "-97.03651000"
  },
  {
    "name": "Acatla",
    "countryCode": "MX",
    "stateCode": "VER",
    "latitude": "18.74944000",
    "longitude": "-97.21833000"
  },
  {
    "name": "Acatlán",
    "countryCode": "MX",
    "stateCode": "GRO",
    "latitude": "17.65807000",
    "longitude": "-99.16944000"
  },
  {
    "name": "Acatlán",
    "countryCode": "MX",
    "stateCode": "HID",
    "latitude": "20.14562000",
    "longitude": "-98.43959000"
  },
  {
    "name": "Acatlán",
    "countryCode": "MX",
    "stateCode": "PUE",
    "latitude": "18.22374000",
    "longitude": "-98.07685000"
  },
  {
    "name": "Acatlán",
    "countryCode": "MX",
    "stateCode": "VER",
    "latitude": "19.69648000",
    "longitude": "-96.84367000"
  },
  {
    "name": "Acatlán de Juárez Municipality",
    "countryCode": "MX",
    "stateCode": "JAL",
    "latitude": "20.42416667",
    "longitude": "-103.60138889"
  },
  {
    "name": "Acatlán de Osorio",
    "countryCode": "MX",
    "stateCode": "PUE",
    "latitude": "18.20250000",
    "longitude": "-98.04864000"
  },
  {
    "name": "Acatlán de Pérez Figueroa",
    "countryCode": "MX",
    "stateCode": "OAX",
    "latitude": "18.53973000",
    "longitude": "-96.60568000"
  },
  {
    "name": "Acatzingo",
    "countryCode": "MX",
    "stateCode": "PUE",
    "latitude": "18.98196000",
    "longitude": "-97.78363000"
  },
  {
    "name": "Acatzingo (Acatzingo de la Piedra)",
    "countryCode": "MX",
    "stateCode": "MEX",
    "latitude": "18.92389000",
    "longitude": "-99.58861000"
  },
  {
    "name": "Acaxochitlán",
    "countryCode": "MX",
    "stateCode": "HID",
    "latitude": "20.16674000",
    "longitude": "-98.18971000"
  },
  {
    "name": "Acaxtlahuacán de Albino Zertuche",
    "countryCode": "MX",
    "stateCode": "PUE",
    "latitude": "18.01714000",
    "longitude": "-98.54018000"
  },
  {
    "name": "Acayuca",
    "countryCode": "MX",
    "stateCode": "HID",
    "latitude": "20.02567000",
    "longitude": "-98.84110000"
  },
  {
    "name": "Acayucan",
    "countryCode": "MX",
    "stateCode": "VER",
    "latitude": "17.94979000",
    "longitude": "-94.91386000"
  },
  {
    "name": "Acazónica",
    "countryCode": "MX",
    "stateCode": "VER",
    "latitude": "19.21284000",
    "longitude": "-96.58978000"
  },
  {
    "name": "Achichipico",
    "countryCode": "MX",
    "stateCode": "MOR",
    "latitude": "18.94861000",
    "longitude": "-98.82611000"
  },
  {
    "name": "Achotal de Moreno",
    "countryCode": "MX",
    "stateCode": "VER",
    "latitude": "17.73652000",
    "longitude": "-95.13395000"
  },
  {
    "name": "Acoapa",
    "countryCode": "MX",
    "stateCode": "HID",
    "latitude": "21.12116000",
    "longitude": "-98.48701000"
  },
  {
    "name": "Acolman de Netzahualcóyotl",
    "countryCode": "MX",
    "stateCode": "MEX",
    "latitude": "19.63976000",
    "longitude": "-98.90777000"
  },
  {
    "name": "Aconchi",
    "countryCode": "MX",
    "stateCode": "SON",
    "latitude": "29.82628000",
    "longitude": "-110.22492000"
  },
  {
    "name": "Acontitla",
    "countryCode": "MX",
    "stateCode": "VER",
    "latitude": "20.68206000",
    "longitude": "-97.38469000"
  },
  {
    "name": "Acopinalco del Peñón",
    "countryCode": "MX",
    "stateCode": "TLA",
    "latitude": "19.65929000",
    "longitude": "-98.16299000"
  },
  {
    "name": "Acoxcatlán",
    "countryCode": "MX",
    "stateCode": "HID",
    "latitude": "20.97343000",
    "longitude": "-98.77793000"
  },
  {
    "name": "Acoyotla",
    "countryCode": "MX",
    "stateCode": "HID",
    "latitude": "21.12551000",
    "longitude": "-98.77729000"
  },
  {
    "name": "Acteopan",
    "countryCode": "MX",
    "stateCode": "PUE",
    "latitude": "18.76388000",
    "longitude": "-98.71366000"
  },
  {
    "name": "Actipan",
    "countryCode": "MX",
    "stateCode": "PUE",
    "latitude": "18.93689000",
    "longitude": "-97.90252000"
  },
  {
    "name": "Actipan de Morelos",
    "countryCode": "MX",
    "stateCode": "PUE",
    "latitude": "18.96003000",
    "longitude": "-97.79904000"
  },
  {
    "name": "Actopan",
    "countryCode": "MX",
    "stateCode": "HID",
    "latitude": "20.28451000",
    "longitude": "-98.91525000"
  },
  {
    "name": "Actopan",
    "countryCode": "MX",
    "stateCode": "VER",
    "latitude": "19.50427000",
    "longitude": "-96.61668000"
  },
  {
    "name": "Acuaco",
    "countryCode": "MX",
    "stateCode": "PUE",
    "latitude": "19.76250000",
    "longitude": "-97.56444000"
  },
  {
    "name": "Acuamanala",
    "countryCode": "MX",
    "stateCode": "TLA",
    "latitude": "19.22361000",
    "longitude": "-98.20056000"
  },
  {
    "name": "Acueducto Fraccionamiento",
    "countryCode": "MX",
    "stateCode": "JAL",
    "latitude": "19.47917000",
    "longitude": "-103.31806000"
  },
  {
    "name": "Acuexcomac",
    "countryCode": "MX",
    "stateCode": "PUE",
    "latitude": "19.03742000",
    "longitude": "-98.38501000"
  },
  {
    "name": "Acuitlapan",
    "countryCode": "MX",
    "stateCode": "GRO",
    "latitude": "18.60155000",
    "longitude": "-99.54260000"
  },
  {
    "name": "Acuitlapilco",
    "countryCode": "MX",
    "stateCode": "MEX",
    "latitude": "18.90873000",
    "longitude": "-99.78464000"
  },
  {
    "name": "Acuitlapilco",
    "countryCode": "MX",
    "stateCode": "TLA",
    "latitude": "19.27333000",
    "longitude": "-98.23542000"
  },
  {
    "name": "Acuitzio",
    "countryCode": "MX",
    "stateCode": "MIC",
    "latitude": "19.47178000",
    "longitude": "-101.32921000"
  },
  {
    "name": "Acula",
    "countryCode": "MX",
    "stateCode": "VER",
    "latitude": "18.50563000",
    "longitude": "-95.77427000"
  },
  {
    "name": "Aculco de Espinoza",
    "countryCode": "MX",
    "stateCode": "MEX",
    "latitude": "20.09867000",
    "longitude": "-99.82757000"
  },
  {
    "name": "Acultzingo",
    "countryCode": "MX",
    "stateCode": "VER",
    "latitude": "18.71894000",
    "longitude": "-97.30367000"
  },
  {
    "name": "Acuítzio del Canje",
    "countryCode": "MX",
    "stateCode": "MIC",
    "latitude": "19.49585000",
    "longitude": "-101.33321000"
  },
  {
    "name": "Acxotla del Monte",
    "countryCode": "MX",
    "stateCode": "TLA",
    "latitude": "19.25208000",
    "longitude": "-98.16777000"
  },
  {
    "name": "Acxotla del Río",
    "countryCode": "MX",
    "stateCode": "TLA",
    "latitude": "19.32417000",
    "longitude": "-98.23750000"
  },
  {
    "name": "Acámbaro",
    "countryCode": "MX",
    "stateCode": "GUA",
    "latitude": "20.03085000",
    "longitude": "-100.72194000"
  },
  {
    "name": "Adjuntas del Río",
    "countryCode": "MX",
    "stateCode": "GUA",
    "latitude": "21.11667000",
    "longitude": "-100.86806000"
  },
  {
    "name": "Adolfo López Mateos",
    "countryCode": "MX",
    "stateCode": "CHH",
    "latitude": "28.46667000",
    "longitude": "-107.30000000"
  },
  {
    "name": "Adolfo López Mateos",
    "countryCode": "MX",
    "stateCode": "CHP",
    "latitude": "17.21600000",
    "longitude": "-93.47895000"
  },
  {
    "name": "Adolfo López Mateos",
    "countryCode": "MX",
    "stateCode": "MOR",
    "latitude": "19.80083000",
    "longitude": "-100.00055000"
  },
  {
    "name": "Adolfo López Mateos (El Tamarindo)",
    "countryCode": "MX",
    "stateCode": "SIN",
    "latitude": "24.89639000",
    "longitude": "-107.63278000"
  },
  {
    "name": "Adolfo Moreno",
    "countryCode": "MX",
    "stateCode": "VER",
    "latitude": "19.72472000",
    "longitude": "-97.23806000"
  },
  {
    "name": "Adolfo Ruiz Cortines",
    "countryCode": "MX",
    "stateCode": "SIN",
    "latitude": "25.70275000",
    "longitude": "-108.71975000"
  },
  {
    "name": "Adolfo Ruíz Cortines",
    "countryCode": "MX",
    "stateCode": "VER",
    "latitude": "20.59585000",
    "longitude": "-97.30585000"
  },
  {
    "name": "Aduana del Sásabe",
    "countryCode": "MX",
    "stateCode": "SON",
    "latitude": "31.47076000",
    "longitude": "-111.54608000"
  },
  {
    "name": "Agiabampo Uno",
    "countryCode": "MX",
    "stateCode": "SON",
    "latitude": "26.36686000",
    "longitude": "-109.14572000"
  },
  {
    "name": "Agostitlán",
    "countryCode": "MX",
    "stateCode": "MIC",
    "latitude": "19.53818000",
    "longitude": "-100.61849000"
  },
  {
    "name": "Agrícola Lázaro Cárdenas",
    "countryCode": "MX",
    "stateCode": "VER",
    "latitude": "18.81361000",
    "longitude": "-97.19833000"
  },
  {
    "name": "Agrónomos Mexicanos",
    "countryCode": "MX",
    "stateCode": "CHP",
    "latitude": "16.35000000",
    "longitude": "-93.53000000"
  },
  {
    "name": "Agua Azul",
    "countryCode": "MX",
    "stateCode": "CHP",
    "latitude": "16.81432000",
    "longitude": "-91.52391000"
  },
  {
    "name": "Agua Azul",
    "countryCode": "MX",
    "stateCode": "QUE",
    "latitude": "20.60271000",
    "longitude": "-100.20472000"
  },
  {
    "name": "Agua Bermeja",
    "countryCode": "MX",
    "stateCode": "JAL",
    "latitude": "20.66750000",
    "longitude": "-102.97056000"
  },
  {
    "name": "Agua Blanca",
    "countryCode": "MX",
    "stateCode": "MEX",
    "latitude": "19.22056000",
    "longitude": "-99.47056000"
  },
  {
    "name": "Agua Blanca Serranía",
    "countryCode": "MX",
    "stateCode": "CHP",
    "latitude": "17.26781000",
    "longitude": "-91.83564000"
  },
  {
    "name": "Agua Buena",
    "countryCode": "MX",
    "stateCode": "SLP",
    "latitude": "21.95791000",
    "longitude": "-99.39416000"
  },
  {
    "name": "Agua Caliente",
    "countryCode": "MX",
    "stateCode": "JAL",
    "latitude": "21.77250000",
    "longitude": "-103.78806000"
  },
  {
    "name": "Agua Caliente",
    "countryCode": "MX",
    "stateCode": "MEX",
    "latitude": "19.90011000",
    "longitude": "-100.17186000"
  },
  {
    "name": "Agua Caliente",
    "countryCode": "MX",
    "stateCode": "MIC",
    "latitude": "20.06519000",
    "longitude": "-101.73466000"
  },
  {
    "name": "Agua Caliente Grande (De Gastélum)",
    "countryCode": "MX",
    "stateCode": "SIN",
    "latitude": "26.53762000",
    "longitude": "-108.34814000"
  },
  {
    "name": "Agua Colorada",
    "countryCode": "MX",
    "stateCode": "JAL",
    "latitude": "20.94694000",
    "longitude": "-103.20611000"
  },
  {
    "name": "Agua Delgada",
    "countryCode": "MX",
    "stateCode": "JAL",
    "latitude": "20.16222000",
    "longitude": "-103.82750000"
  },
  {
    "name": "Agua Dulce",
    "countryCode": "MX",
    "stateCode": "VER",
    "latitude": "18.13909000",
    "longitude": "-94.14527000"
  },
  {
    "name": "Agua Escondida",
    "countryCode": "MX",
    "stateCode": "JAL",
    "latitude": "20.86083000",
    "longitude": "-102.72500000"
  },
  {
    "name": "Agua Escondida",
    "countryCode": "MX",
    "stateCode": "MEX",
    "latitude": "19.97893000",
    "longitude": "-99.57829000"
  },
  {
    "name": "Agua Fría",
    "countryCode": "MX",
    "stateCode": "JAL",
    "latitude": "20.58778000",
    "longitude": "-102.55833000"
  },
  {
    "name": "Agua Fría",
    "countryCode": "MX",
    "stateCode": "QUE",
    "latitude": "21.15304000",
    "longitude": "-99.80638000"
  },
  {
    "name": "Agua Gorda",
    "countryCode": "MX",
    "stateCode": "ZAC",
    "latitude": "22.10669000",
    "longitude": "-101.92182000"
  },
  {
    "name": "Agua Nueva",
    "countryCode": "MX",
    "stateCode": "COA",
    "latitude": "25.18934000",
    "longitude": "-101.08840000"
  },
  {
    "name": "Agua Nueva",
    "countryCode": "MX",
    "stateCode": "JAL",
    "latitude": "20.67889000",
    "longitude": "-102.45111000"
  },
  {
    "name": "Agua Paloma",
    "countryCode": "MX",
    "stateCode": "JAL",
    "latitude": "19.67799000",
    "longitude": "-105.18473000"
  },
  {
    "name": "Agua Prieta",
    "countryCode": "MX",
    "stateCode": "JAL",
    "latitude": "20.79361000",
    "longitude": "-102.89194000"
  },
  {
    "name": "Agua Prieta",
    "countryCode": "MX",
    "stateCode": "SON",
    "latitude": "31.33071000",
    "longitude": "-109.54876000"
  },
  {
    "name": "Agua Rica",
    "countryCode": "MX",
    "stateCode": "JAL",
    "latitude": "20.83639000",
    "longitude": "-103.18778000"
  },
  {
    "name": "Agua Salada",
    "countryCode": "MX",
    "stateCode": "JAL",
    "latitude": "19.73111000",
    "longitude": "-103.19639000"
  },
  {
    "name": "Agua Señora",
    "countryCode": "MX",
    "stateCode": "SLP",
    "latitude": "22.23750000",
    "longitude": "-101.04222000"
  },
  {
    "name": "Agua Verde",
    "countryCode": "MX",
    "stateCode": "SIN",
    "latitude": "22.89259000",
    "longitude": "-105.97355000"
  },
  {
    "name": "Agua Zarca",
    "countryCode": "MX",
    "stateCode": "CHP",
    "latitude": "15.63417000",
    "longitude": "-92.14472000"
  },
  {
    "name": "Agua Zarca",
    "countryCode": "MX",
    "stateCode": "GRO",
    "latitude": "16.62365000",
    "longitude": "-98.70245000"
  },
  {
    "name": "Agua Zarca",
    "countryCode": "MX",
    "stateCode": "JAL",
    "latitude": "21.85035000",
    "longitude": "-103.49102000"
  },
  {
    "name": "Agua Zarca",
    "countryCode": "MX",
    "stateCode": "QUE",
    "latitude": "21.22003000",
    "longitude": "-99.09075000"
  },
  {
    "name": "Agua del Espino",
    "countryCode": "MX",
    "stateCode": "OAX",
    "latitude": "16.59095000",
    "longitude": "-96.80204000"
  },
  {
    "name": "Aguacatenango",
    "countryCode": "MX",
    "stateCode": "CHP",
    "latitude": "16.47388000",
    "longitude": "-92.40875000"
  },
  {
    "name": "Agualeguas",
    "countryCode": "MX",
    "stateCode": "NLE",
    "latitude": "26.31362000",
    "longitude": "-99.53728000"
  },
  {
    "name": "Aguas Blancas",
    "countryCode": "MX",
    "stateCode": "GRO",
    "latitude": "17.03654000",
    "longitude": "-100.06300000"
  },
  {
    "name": "Aguas Buenas",
    "countryCode": "MX",
    "stateCode": "GUA",
    "latitude": "20.97028000",
    "longitude": "-101.37250000"
  },
  {
    "name": "Aguas Calientes",
    "countryCode": "MX",
    "stateCode": "GRO",
    "latitude": "16.84250000",
    "longitude": "-99.64056000"
  },
  {
    "name": "Aguascalientes",
    "countryCode": "MX",
    "stateCode": "AGU",
    "latitude": "21.88333000",
    "longitude": "-102.30000000"
  },
  {
    "name": "Aguilera",
    "countryCode": "MX",
    "stateCode": "VER",
    "latitude": "17.81083000",
    "longitude": "-95.01500000"
  },
  {
    "name": "Aguililla",
    "countryCode": "MX",
    "stateCode": "MIC",
    "latitude": "18.73742000",
    "longitude": "-102.78934000"
  },
  {
    "name": "Agustín de Iturbide",
    "countryCode": "MX",
    "stateCode": "CHP",
    "latitude": "15.07523000",
    "longitude": "-92.19858000"
  },
  {
    "name": "Ahome",
    "countryCode": "MX",
    "stateCode": "SIN",
    "latitude": "25.91985000",
    "longitude": "-109.17320000"
  },
  {
    "name": "Ahuacachahue (Ndog'yo Itún Tichi)",
    "countryCode": "MX",
    "stateCode": "GRO",
    "latitude": "16.82861000",
    "longitude": "-98.98556000"
  },
  {
    "name": "Ahuacatitlán",
    "countryCode": "MX",
    "stateCode": "MEX",
    "latitude": "18.89414000",
    "longitude": "-99.70867000"
  },
  {
    "name": "Ahuacatitlán Cuarto y Quinto Cuartel",
    "countryCode": "MX",
    "stateCode": "MEX",
    "latitude": "19.96222000",
    "longitude": "-99.98694000"
  },
  {
    "name": "Ahuacatlán",
    "countryCode": "MX",
    "stateCode": "CHP",
    "latitude": "15.04030000",
    "longitude": "-92.18036000"
  },
  {
    "name": "Ahuacatlán",
    "countryCode": "MX",
    "stateCode": "NAY",
    "latitude": "21.05405000",
    "longitude": "-104.48398000"
  },
  {
    "name": "Ahuacatlán",
    "countryCode": "MX",
    "stateCode": "PUE",
    "latitude": "20.13722000",
    "longitude": "-98.00750000"
  },
  {
    "name": "Ahuacatlán de Guadalupe",
    "countryCode": "MX",
    "stateCode": "QUE",
    "latitude": "21.21472000",
    "longitude": "-99.54056000"
  },
  {
    "name": "Ahuacatán",
    "countryCode": "MX",
    "stateCode": "VER",
    "latitude": "19.78351000",
    "longitude": "-97.29780000"
  },
  {
    "name": "Ahuacuotzingo",
    "countryCode": "MX",
    "stateCode": "GRO",
    "latitude": "17.74253000",
    "longitude": "-98.91781000"
  },
  {
    "name": "Ahuajutla",
    "countryCode": "MX",
    "stateCode": "GRO",
    "latitude": "17.43043000",
    "longitude": "-98.29029000"
  },
  {
    "name": "Ahualulco de Mercado Municipality",
    "countryCode": "MX",
    "stateCode": "JAL",
    "latitude": "20.61666667",
    "longitude": "-103.86666667"
  },
  {
    "name": "Ahualulco del Sonido Trece",
    "countryCode": "MX",
    "stateCode": "SLP",
    "latitude": "22.40019000",
    "longitude": "-101.16614000"
  },
  {
    "name": "Ahuatempan",
    "countryCode": "MX",
    "stateCode": "PUE",
    "latitude": "18.41269000",
    "longitude": "-98.01850000"
  },
  {
    "name": "Ahuateno",
    "countryCode": "MX",
    "stateCode": "VER",
    "latitude": "21.00245000",
    "longitude": "-98.15055000"
  },
  {
    "name": "Ahuatepec",
    "countryCode": "MX",
    "stateCode": "PUE",
    "latitude": "18.85831000",
    "longitude": "-97.91764000"
  },
  {
    "name": "Ahuatepec Pueblo",
    "countryCode": "MX",
    "stateCode": "GRO",
    "latitude": "17.60577000",
    "longitude": "-98.58970000"
  },
  {
    "name": "Ahuatepec de Camino",
    "countryCode": "MX",
    "stateCode": "PUE",
    "latitude": "19.04087000",
    "longitude": "-97.43457000"
  },
  {
    "name": "Ahuatitla",
    "countryCode": "MX",
    "stateCode": "HID",
    "latitude": "21.16495000",
    "longitude": "-98.66594000"
  },
  {
    "name": "Ahuatlán",
    "countryCode": "MX",
    "stateCode": "JAL",
    "latitude": "20.41836000",
    "longitude": "-102.88759000"
  },
  {
    "name": "Ahuatlán",
    "countryCode": "MX",
    "stateCode": "PUE",
    "latitude": "18.57930000",
    "longitude": "-98.27791000"
  },
  {
    "name": "Ahuaxintitla",
    "countryCode": "MX",
    "stateCode": "PUE",
    "latitude": "20.25325000",
    "longitude": "-97.89561000"
  },
  {
    "name": "Ahuazotepec",
    "countryCode": "MX",
    "stateCode": "PUE",
    "latitude": "20.04535000",
    "longitude": "-98.16332000"
  },
  {
    "name": "Ahuehuepan",
    "countryCode": "MX",
    "stateCode": "GRO",
    "latitude": "18.00625000",
    "longitude": "-99.49995000"
  },
  {
    "name": "Ahuehuetitla",
    "countryCode": "MX",
    "stateCode": "HID",
    "latitude": "20.08444000",
    "longitude": "-98.41667000"
  },
  {
    "name": "Ahuehuetitla",
    "countryCode": "MX",
    "stateCode": "PUE",
    "latitude": "18.21272000",
    "longitude": "-98.21949000"
  },
  {
    "name": "Ahuehuetitlán",
    "countryCode": "MX",
    "stateCode": "OAX",
    "latitude": "17.67130000",
    "longitude": "-98.32024000"
  },
  {
    "name": "Ahuehuetzingo",
    "countryCode": "MX",
    "stateCode": "MOR",
    "latitude": "18.68024000",
    "longitude": "-99.30834000"
  },
  {
    "name": "Ahuehueyo Primero Centro",
    "countryCode": "MX",
    "stateCode": "SLP",
    "latitude": "21.34500000",
    "longitude": "-98.83722000"
  },
  {
    "name": "Ahuetita de Abajo",
    "countryCode": "MX",
    "stateCode": "JAL",
    "latitude": "21.41972000",
    "longitude": "-102.65278000"
  },
  {
    "name": "Ahuexotitlán",
    "countryCode": "MX",
    "stateCode": "GRO",
    "latitude": "17.52849000",
    "longitude": "-99.24398000"
  },
  {
    "name": "Ahueyahualco",
    "countryCode": "MX",
    "stateCode": "VER",
    "latitude": "19.71974000",
    "longitude": "-97.25984000"
  },
  {
    "name": "Ahuihuiyuco",
    "countryCode": "MX",
    "stateCode": "GRO",
    "latitude": "17.62958000",
    "longitude": "-99.22738000"
  },
  {
    "name": "Ahuirán",
    "countryCode": "MX",
    "stateCode": "MIC",
    "latitude": "19.66574000",
    "longitude": "-102.07347000"
  },
  {
    "name": "Ahuisculco",
    "countryCode": "MX",
    "stateCode": "JAL",
    "latitude": "20.56875000",
    "longitude": "-103.70313000"
  },
  {
    "name": "Ahumada",
    "countryCode": "MX",
    "stateCode": "CHH",
    "latitude": "30.48174000",
    "longitude": "-106.48832000"
  },
  {
    "name": "Ajacuba",
    "countryCode": "MX",
    "stateCode": "HID",
    "latitude": "20.14326000",
    "longitude": "-99.06141000"
  },
  {
    "name": "Ajalpan",
    "countryCode": "MX",
    "stateCode": "PUE",
    "latitude": "18.37908000",
    "longitude": "-97.25867000"
  },
  {
    "name": "Ajijic",
    "countryCode": "MX",
    "stateCode": "JAL",
    "latitude": "20.29944444",
    "longitude": "-103.25805556"
  },
  {
    "name": "Ajilhó",
    "countryCode": "MX",
    "stateCode": "CHP",
    "latitude": "16.98376000",
    "longitude": "-92.93804000"
  },
  {
    "name": "Ajuchitlancito",
    "countryCode": "MX",
    "stateCode": "QUE",
    "latitude": "20.47601000",
    "longitude": "-100.21583000"
  },
  {
    "name": "Ajuchitlán",
    "countryCode": "MX",
    "stateCode": "QUE",
    "latitude": "20.70713000",
    "longitude": "-100.02008000"
  },
  {
    "name": "Ajuchitlán del Progreso",
    "countryCode": "MX",
    "stateCode": "GRO",
    "latitude": "18.15189000",
    "longitude": "-100.48353000"
  },
  {
    "name": "Ajuno",
    "countryCode": "MX",
    "stateCode": "MIC",
    "latitude": "19.51262000",
    "longitude": "-101.72280000"
  },
  {
    "name": "Akil",
    "countryCode": "MX",
    "stateCode": "YUC",
    "latitude": "20.26547000",
    "longitude": "-89.34787000"
  },
  {
    "name": "Akumal",
    "countryCode": "MX",
    "stateCode": "ROO",
    "latitude": "20.39693000",
    "longitude": "-87.31444000"
  },
  {
    "name": "Alaquines",
    "countryCode": "MX",
    "stateCode": "SLP",
    "latitude": "22.12973000",
    "longitude": "-99.60093000"
  },
  {
    "name": "Albarradas",
    "countryCode": "MX",
    "stateCode": "OAX",
    "latitude": "17.06752000",
    "longitude": "-96.20012000"
  },
  {
    "name": "Alberto Carrera Torres",
    "countryCode": "MX",
    "stateCode": "SLP",
    "latitude": "21.77240000",
    "longitude": "-101.01193000"
  },
  {
    "name": "Albia",
    "countryCode": "MX",
    "stateCode": "COA",
    "latitude": "25.66537000",
    "longitude": "-103.36253000"
  },
  {
    "name": "Albino Zertuche",
    "countryCode": "MX",
    "stateCode": "PUE",
    "latitude": "18.01275000",
    "longitude": "-98.55511000"
  },
  {
    "name": "Alborada",
    "countryCode": "MX",
    "stateCode": "VER",
    "latitude": "19.44851000",
    "longitude": "-96.87109000"
  },
  {
    "name": "Alborada Jaltenco",
    "countryCode": "MX",
    "stateCode": "MEX",
    "latitude": "19.66194000",
    "longitude": "-99.06889000"
  },
  {
    "name": "Alcaraces",
    "countryCode": "MX",
    "stateCode": "COL",
    "latitude": "19.36433000",
    "longitude": "-103.57676000"
  },
  {
    "name": "Alcholoa",
    "countryCode": "MX",
    "stateCode": "GRO",
    "latitude": "17.15110000",
    "longitude": "-100.40837000"
  },
  {
    "name": "Alcocer",
    "countryCode": "MX",
    "stateCode": "GUA",
    "latitude": "20.86867000",
    "longitude": "-100.70456000"
  },
  {
    "name": "Alcozacán",
    "countryCode": "MX",
    "stateCode": "GRO",
    "latitude": "17.50444000",
    "longitude": "-99.09500000"
  },
  {
    "name": "Alcozauca de Guerrero",
    "countryCode": "MX",
    "stateCode": "GRO",
    "latitude": "17.46481000",
    "longitude": "-98.38428000"
  },
  {
    "name": "Aldama",
    "countryCode": "MX",
    "stateCode": "CHH",
    "latitude": "28.93636000",
    "longitude": "-105.71098000"
  },
  {
    "name": "Aldama",
    "countryCode": "MX",
    "stateCode": "CHP",
    "latitude": "16.91667000",
    "longitude": "-92.68333000"
  },
  {
    "name": "Aldama",
    "countryCode": "MX",
    "stateCode": "GUA",
    "latitude": "20.81641000",
    "longitude": "-101.31467000"
  },
  {
    "name": "Aldama",
    "countryCode": "MX",
    "stateCode": "TAM",
    "latitude": "22.92157000",
    "longitude": "-98.07519000"
  },
  {
    "name": "Alejo González (Bilbao)",
    "countryCode": "MX",
    "stateCode": "COA",
    "latitude": "25.82194000",
    "longitude": "-103.19472000"
  },
  {
    "name": "Alfajayucan",
    "countryCode": "MX",
    "stateCode": "HID",
    "latitude": "20.41183000",
    "longitude": "-99.38388000"
  },
  {
    "name": "Alfajayucan",
    "countryCode": "MX",
    "stateCode": "QUE",
    "latitude": "20.75370000",
    "longitude": "-100.21773000"
  },
  {
    "name": "Alfaro",
    "countryCode": "MX",
    "stateCode": "GUA",
    "latitude": "21.14941000",
    "longitude": "-101.60611000"
  },
  {
    "name": "Alfonso G. Calderón (Poblado Siete)",
    "countryCode": "MX",
    "stateCode": "SIN",
    "latitude": "26.06528000",
    "longitude": "-109.01972000"
  },
  {
    "name": "Alfonso G. Calderón Velarde",
    "countryCode": "MX",
    "stateCode": "SIN",
    "latitude": "25.78556000",
    "longitude": "-108.60222000"
  },
  {
    "name": "Alfonso Garzón [Granjas Familiares]",
    "countryCode": "MX",
    "stateCode": "BCN",
    "latitude": "32.54667000",
    "longitude": "-116.61722000"
  },
  {
    "name": "Alfonso Moguel",
    "countryCode": "MX",
    "stateCode": "CHP",
    "latitude": "16.66750000",
    "longitude": "-93.50639000"
  },
  {
    "name": "Alfredo V. Bonfil",
    "countryCode": "MX",
    "stateCode": "CAM",
    "latitude": "19.53032000",
    "longitude": "-90.18214000"
  },
  {
    "name": "Alfredo V. Bonfil",
    "countryCode": "MX",
    "stateCode": "JAL",
    "latitude": "20.66278000",
    "longitude": "-103.72278000"
  },
  {
    "name": "Alfredo V. Bonfil",
    "countryCode": "MX",
    "stateCode": "ROO",
    "latitude": "21.08776000",
    "longitude": "-86.84706000"
  },
  {
    "name": "Alfredo V. Bonfil",
    "countryCode": "MX",
    "stateCode": "TAM",
    "latitude": "25.56203000",
    "longitude": "-98.23952000"
  },
  {
    "name": "Alfredo V. Bonfil (Chacampalco)",
    "countryCode": "MX",
    "stateCode": "MOR",
    "latitude": "18.65528000",
    "longitude": "-99.15417000"
  },
  {
    "name": "Alfredo V. Bonfil (Siete Ejidos)",
    "countryCode": "MX",
    "stateCode": "SIN",
    "latitude": "25.64306000",
    "longitude": "-108.23333000"
  },
  {
    "name": "Alhuaca",
    "countryCode": "MX",
    "stateCode": "PUE",
    "latitude": "18.56795000",
    "longitude": "-97.16594000"
  },
  {
    "name": "Alhuey",
    "countryCode": "MX",
    "stateCode": "SIN",
    "latitude": "25.37806000",
    "longitude": "-108.13028000"
  },
  {
    "name": "Alianza Real",
    "countryCode": "MX",
    "stateCode": "NLE",
    "latitude": "25.85139000",
    "longitude": "-100.38278000"
  },
  {
    "name": "Alista",
    "countryCode": "MX",
    "stateCode": "JAL",
    "latitude": "19.63401000",
    "longitude": "-103.78890000"
  },
  {
    "name": "Aljojuca",
    "countryCode": "MX",
    "stateCode": "PUE",
    "latitude": "19.09933000",
    "longitude": "-97.52973000"
  },
  {
    "name": "Allende",
    "countryCode": "MX",
    "stateCode": "CHH",
    "latitude": "27.07787000",
    "longitude": "-105.28789000"
  },
  {
    "name": "Allende",
    "countryCode": "MX",
    "stateCode": "JAL",
    "latitude": "20.72054000",
    "longitude": "-102.08557000"
  },
  {
    "name": "Allende",
    "countryCode": "MX",
    "stateCode": "PUE",
    "latitude": "19.53879000",
    "longitude": "-97.59711000"
  },
  {
    "name": "Allende",
    "countryCode": "MX",
    "stateCode": "SON",
    "latitude": "27.19201000",
    "longitude": "-109.90730000"
  },
  {
    "name": "Allende",
    "countryCode": "MX",
    "stateCode": "VER",
    "latitude": "18.15514000",
    "longitude": "-94.39289000"
  },
  {
    "name": "Almagres",
    "countryCode": "MX",
    "stateCode": "VER",
    "latitude": "17.80750000",
    "longitude": "-94.91750000"
  },
  {
    "name": "Almecatla",
    "countryCode": "MX",
    "stateCode": "PUE",
    "latitude": "19.14286000",
    "longitude": "-98.23597000"
  },
  {
    "name": "Almolonga",
    "countryCode": "MX",
    "stateCode": "GRO",
    "latitude": "17.63826000",
    "longitude": "-99.29502000"
  },
  {
    "name": "Almolonga",
    "countryCode": "MX",
    "stateCode": "OAX",
    "latitude": "18.60848000",
    "longitude": "-96.66099000"
  },
  {
    "name": "Almolonga",
    "countryCode": "MX",
    "stateCode": "PUE",
    "latitude": "18.47627000",
    "longitude": "-97.96353000"
  },
  {
    "name": "Almoloya",
    "countryCode": "MX",
    "stateCode": "HID",
    "latitude": "19.74335000",
    "longitude": "-98.33939000"
  },
  {
    "name": "Almoloya de Alquisiras",
    "countryCode": "MX",
    "stateCode": "MEX",
    "latitude": "18.84217000",
    "longitude": "-99.86416000"
  },
  {
    "name": "Almoloya del Río",
    "countryCode": "MX",
    "stateCode": "MEX",
    "latitude": "19.16046000",
    "longitude": "-99.48740000"
  },
  {
    "name": "Alpatláhuac",
    "countryCode": "MX",
    "stateCode": "VER",
    "latitude": "19.10155000",
    "longitude": "-97.12174000"
  },
  {
    "name": "Alpoyeca",
    "countryCode": "MX",
    "stateCode": "GRO",
    "latitude": "17.64600000",
    "longitude": "-98.51004000"
  },
  {
    "name": "Alpuyeca",
    "countryCode": "MX",
    "stateCode": "MOR",
    "latitude": "18.74006000",
    "longitude": "-99.25937000"
  },
  {
    "name": "Alpuyecancingo de las Montañas",
    "countryCode": "MX",
    "stateCode": "GRO",
    "latitude": "17.67083000",
    "longitude": "-98.85194000"
  },
  {
    "name": "Altamira",
    "countryCode": "MX",
    "stateCode": "TAM",
    "latitude": "22.39215000",
    "longitude": "-97.93867000"
  },
  {
    "name": "Altamira",
    "countryCode": "MX",
    "stateCode": "ZAC",
    "latitude": "23.38173000",
    "longitude": "-102.98674000"
  },
  {
    "name": "Altamira de Zináparo",
    "countryCode": "MX",
    "stateCode": "CAM",
    "latitude": "18.58208000",
    "longitude": "-90.25610000"
  },
  {
    "name": "Altamirano",
    "countryCode": "MX",
    "stateCode": "CHP",
    "latitude": "16.88333000",
    "longitude": "-92.15000000"
  },
  {
    "name": "Altata",
    "countryCode": "MX",
    "stateCode": "SIN",
    "latitude": "24.63403000",
    "longitude": "-107.93101000"
  },
  {
    "name": "Altavista de Ramos",
    "countryCode": "MX",
    "stateCode": "JAL",
    "latitude": "20.43333333",
    "longitude": "-104.01666667"
  },
  {
    "name": "Altepexi",
    "countryCode": "MX",
    "stateCode": "PUE",
    "latitude": "18.37035000",
    "longitude": "-97.29966000"
  },
  {
    "name": "Alto Lucero",
    "countryCode": "MX",
    "stateCode": "VER",
    "latitude": "20.95361000",
    "longitude": "-97.44194000"
  },
  {
    "name": "Altotonga",
    "countryCode": "MX",
    "stateCode": "VER",
    "latitude": "19.76613000",
    "longitude": "-97.24514000"
  },
  {
    "name": "Altus Bosques",
    "countryCode": "MX",
    "stateCode": "JAL",
    "latitude": "20.56806000",
    "longitude": "-103.37250000"
  },
  {
    "name": "Altzayanca",
    "countryCode": "MX",
    "stateCode": "TLA",
    "latitude": "19.43121000",
    "longitude": "-97.79555000"
  },
  {
    "name": "Alvarado",
    "countryCode": "MX",
    "stateCode": "VER",
    "latitude": "18.77143000",
    "longitude": "-95.76181000"
  },
  {
    "name": "Amacuautitlán",
    "countryCode": "MX",
    "stateCode": "JAL",
    "latitude": "19.81619000",
    "longitude": "-104.02078000"
  },
  {
    "name": "Amacueca Municipality",
    "countryCode": "MX",
    "stateCode": "JAL",
    "latitude": "19.93333333",
    "longitude": "-103.06666667"
  },
  {
    "name": "Amacuitlapilco",
    "countryCode": "MX",
    "stateCode": "MOR",
    "latitude": "18.69611000",
    "longitude": "-98.81167000"
  },
  {
    "name": "Amacuzac",
    "countryCode": "MX",
    "stateCode": "MOR",
    "latitude": "18.60056000",
    "longitude": "-99.37252000"
  },
  {
    "name": "Amado Gómez",
    "countryCode": "MX",
    "stateCode": "TAB",
    "latitude": "18.14684000",
    "longitude": "-93.35618000"
  },
  {
    "name": "Amado Nervo",
    "countryCode": "MX",
    "stateCode": "CHP",
    "latitude": "17.23107000",
    "longitude": "-92.24581000"
  },
  {
    "name": "Amajaquillo",
    "countryCode": "MX",
    "stateCode": "JAL",
    "latitude": "20.92750000",
    "longitude": "-104.60028000"
  },
  {
    "name": "Amanalco de Becerra",
    "countryCode": "MX",
    "stateCode": "MEX",
    "latitude": "19.31667000",
    "longitude": "-100.01667000"
  },
  {
    "name": "Amapa",
    "countryCode": "MX",
    "stateCode": "NAY",
    "latitude": "21.78359000",
    "longitude": "-105.25482000"
  },
  {
    "name": "Amatanejo",
    "countryCode": "MX",
    "stateCode": "JAL",
    "latitude": "20.95241000",
    "longitude": "-104.73775000"
  },
  {
    "name": "Amatenango de la Frontera",
    "countryCode": "MX",
    "stateCode": "CHP",
    "latitude": "15.43333000",
    "longitude": "-92.11667000"
  },
  {
    "name": "Amatenango del Valle",
    "countryCode": "MX",
    "stateCode": "CHP",
    "latitude": "16.52722000",
    "longitude": "-92.43472000"
  },
  {
    "name": "Amatepec",
    "countryCode": "MX",
    "stateCode": "MEX",
    "latitude": "18.68222000",
    "longitude": "-100.18583000"
  },
  {
    "name": "Amatillo",
    "countryCode": "MX",
    "stateCode": "GRO",
    "latitude": "16.82028000",
    "longitude": "-99.66611000"
  },
  {
    "name": "Amatitlán",
    "countryCode": "MX",
    "stateCode": "VER",
    "latitude": "18.43371000",
    "longitude": "-95.68388000"
  },
  {
    "name": "Amatitlán de Azueta",
    "countryCode": "MX",
    "stateCode": "PUE",
    "latitude": "18.17631000",
    "longitude": "-98.07640000"
  },
  {
    "name": "Amatitán",
    "countryCode": "MX",
    "stateCode": "JAL",
    "latitude": "20.83333333",
    "longitude": "-103.71666667"
  },
  {
    "name": "Amatlán",
    "countryCode": "MX",
    "stateCode": "VER",
    "latitude": "21.33519000",
    "longitude": "-97.75704000"
  },
  {
    "name": "Amatlán de Cañas",
    "countryCode": "MX",
    "stateCode": "NAY",
    "latitude": "20.80699000",
    "longitude": "-104.40408000"
  },
  {
    "name": "Amatlán de Quetzalcoatl",
    "countryCode": "MX",
    "stateCode": "MOR",
    "latitude": "18.97537000",
    "longitude": "-99.03742000"
  },
  {
    "name": "Amatlán de los Reyes",
    "countryCode": "MX",
    "stateCode": "VER",
    "latitude": "18.84658000",
    "longitude": "-96.91595000"
  },
  {
    "name": "Amatán",
    "countryCode": "MX",
    "stateCode": "CHP",
    "latitude": "17.36667000",
    "longitude": "-92.81667000"
  },
  {
    "name": "Amaxac de Guerrero",
    "countryCode": "MX",
    "stateCode": "TLA",
    "latitude": "19.34661000",
    "longitude": "-98.17057000"
  },
  {
    "name": "Amayuca",
    "countryCode": "MX",
    "stateCode": "MOR",
    "latitude": "18.72408000",
    "longitude": "-98.79812000"
  },
  {
    "name": "Amazcala",
    "countryCode": "MX",
    "stateCode": "QUE",
    "latitude": "20.70339000",
    "longitude": "-100.26511000"
  },
  {
    "name": "Ambrosio",
    "countryCode": "MX",
    "stateCode": "JAL",
    "latitude": "20.27605000",
    "longitude": "-103.97092000"
  },
  {
    "name": "Amealco",
    "countryCode": "MX",
    "stateCode": "QUE",
    "latitude": "20.18758000",
    "longitude": "-100.14485000"
  },
  {
    "name": "Ameca",
    "countryCode": "MX",
    "stateCode": "JAL",
    "latitude": "20.67000000",
    "longitude": "-103.70000000"
  },
  {
    "name": "Ameca Municipality",
    "countryCode": "MX",
    "stateCode": "JAL",
    "latitude": "20.54831370",
    "longitude": "-104.04750230"
  },
  {
    "name": "Amecameca",
    "countryCode": "MX",
    "stateCode": "MEX",
    "latitude": "19.12384000",
    "longitude": "-98.76649000"
  },
  {
    "name": "Ameche",
    "countryCode": "MX",
    "stateCode": "GUA",
    "latitude": "20.55261000",
    "longitude": "-100.58367000"
  },
  {
    "name": "Ameluca",
    "countryCode": "MX",
    "stateCode": "PUE",
    "latitude": "20.56344000",
    "longitude": "-97.82571000"
  },
  {
    "name": "Amilcingo",
    "countryCode": "MX",
    "stateCode": "MOR",
    "latitude": "18.74274000",
    "longitude": "-98.77089000"
  },
  {
    "name": "Amixtlán",
    "countryCode": "MX",
    "stateCode": "PUE",
    "latitude": "20.04778000",
    "longitude": "-97.79918000"
  },
  {
    "name": "Amozoc",
    "countryCode": "MX",
    "stateCode": "PUE",
    "latitude": "19.05019000",
    "longitude": "-98.04154000"
  },
  {
    "name": "Amozoc de Mota",
    "countryCode": "MX",
    "stateCode": "PUE",
    "latitude": "19.04611000",
    "longitude": "-98.04500000"
  },
  {
    "name": "Ampliación Colonia Lázaro Cárdenas",
    "countryCode": "MX",
    "stateCode": "CHH",
    "latitude": "28.38333000",
    "longitude": "-105.61667000"
  },
  {
    "name": "Ampliación San Mateo (Colonia Solidaridad)",
    "countryCode": "MX",
    "stateCode": "MEX",
    "latitude": "19.61639000",
    "longitude": "-99.14722000"
  },
  {
    "name": "Ampliación Tezoyuca",
    "countryCode": "MX",
    "stateCode": "MEX",
    "latitude": "19.58057000",
    "longitude": "-98.92053000"
  },
  {
    "name": "Ampliación la Hincada",
    "countryCode": "MX",
    "stateCode": "SLP",
    "latitude": "22.21528000",
    "longitude": "-99.23611000"
  },
  {
    "name": "Amuco de la Reforma",
    "countryCode": "MX",
    "stateCode": "GRO",
    "latitude": "18.29361000",
    "longitude": "-100.63972000"
  },
  {
    "name": "América Libre",
    "countryCode": "MX",
    "stateCode": "CHP",
    "latitude": "16.61462000",
    "longitude": "-92.99185000"
  },
  {
    "name": "Anacleto Canabal 2da. Sección",
    "countryCode": "MX",
    "stateCode": "TAB",
    "latitude": "17.97556000",
    "longitude": "-93.02417000"
  },
  {
    "name": "Anacleto Canabal 3ra. Sección",
    "countryCode": "MX",
    "stateCode": "TAB",
    "latitude": "18.01830000",
    "longitude": "-92.98992000"
  },
  {
    "name": "Anahuac",
    "countryCode": "MX",
    "stateCode": "VER",
    "latitude": "22.20275000",
    "longitude": "-97.85506000"
  },
  {
    "name": "Analco",
    "countryCode": "MX",
    "stateCode": "JAL",
    "latitude": "21.38500000",
    "longitude": "-102.63417000"
  },
  {
    "name": "Analco de Ponciano Arriaga (Santa Cruz Analco)",
    "countryCode": "MX",
    "stateCode": "PUE",
    "latitude": "19.26444000",
    "longitude": "-98.50028000"
  },
  {
    "name": "Andrés Quintana Roo",
    "countryCode": "MX",
    "stateCode": "TAB",
    "latitude": "17.70771000",
    "longitude": "-93.01077000"
  },
  {
    "name": "Anenecuilco",
    "countryCode": "MX",
    "stateCode": "MOR",
    "latitude": "18.77738000",
    "longitude": "-98.98907000"
  },
  {
    "name": "Angahuán",
    "countryCode": "MX",
    "stateCode": "MIC",
    "latitude": "19.54790000",
    "longitude": "-102.22563000"
  },
  {
    "name": "Angamacutiro de la Unión",
    "countryCode": "MX",
    "stateCode": "MIC",
    "latitude": "20.14998000",
    "longitude": "-101.71113000"
  },
  {
    "name": "Angel R. Cabada",
    "countryCode": "MX",
    "stateCode": "VER",
    "latitude": "18.60798000",
    "longitude": "-95.39724000"
  },
  {
    "name": "Angostura",
    "countryCode": "MX",
    "stateCode": "SIN",
    "latitude": "25.36586000",
    "longitude": "-108.16107000"
  },
  {
    "name": "Animas Trujano",
    "countryCode": "MX",
    "stateCode": "OAX",
    "latitude": "16.99086000",
    "longitude": "-96.71319000"
  },
  {
    "name": "Anoca",
    "countryCode": "MX",
    "stateCode": "JAL",
    "latitude": "20.09222000",
    "longitude": "-103.54556000"
  },
  {
    "name": "Ansihuacuaro",
    "countryCode": "MX",
    "stateCode": "MIC",
    "latitude": "20.19984000",
    "longitude": "-101.80670000"
  },
  {
    "name": "Antiguo Morelos",
    "countryCode": "MX",
    "stateCode": "TAM",
    "latitude": "22.54950000",
    "longitude": "-99.08123000"
  },
  {
    "name": "Antonio Amaro",
    "countryCode": "MX",
    "stateCode": "DUR",
    "latitude": "24.27684000",
    "longitude": "-104.01873000"
  },
  {
    "name": "Antonio Escobedo",
    "countryCode": "MX",
    "stateCode": "JAL",
    "latitude": "20.80000000",
    "longitude": "-104.01667000"
  },
  {
    "name": "Antonio J Bermúdez",
    "countryCode": "MX",
    "stateCode": "VER",
    "latitude": "22.15046000",
    "longitude": "-98.15873000"
  },
  {
    "name": "Antonio Rosales",
    "countryCode": "MX",
    "stateCode": "SON",
    "latitude": "27.35111000",
    "longitude": "-109.85306000"
  },
  {
    "name": "Antón Lizardo",
    "countryCode": "MX",
    "stateCode": "VER",
    "latitude": "19.05962000",
    "longitude": "-95.99272000"
  },
  {
    "name": "Antúnez",
    "countryCode": "MX",
    "stateCode": "MIC",
    "latitude": "19.01451000",
    "longitude": "-102.20432000"
  },
  {
    "name": "Antúnez (Morelos)",
    "countryCode": "MX",
    "stateCode": "MIC",
    "latitude": "19.01278000",
    "longitude": "-102.20389000"
  },
  {
    "name": "Anáhuac",
    "countryCode": "MX",
    "stateCode": "CHH",
    "latitude": "28.48396000",
    "longitude": "-106.74720000"
  },
  {
    "name": "Anáhuac",
    "countryCode": "MX",
    "stateCode": "NLE",
    "latitude": "27.24457000",
    "longitude": "-100.13229000"
  },
  {
    "name": "Anáhuac",
    "countryCode": "MX",
    "stateCode": "TAM",
    "latitude": "25.77638000",
    "longitude": "-97.77413000"
  },
  {
    "name": "Apalani",
    "countryCode": "MX",
    "stateCode": "GRO",
    "latitude": "16.85361000",
    "longitude": "-99.58944000"
  },
  {
    "name": "Apan",
    "countryCode": "MX",
    "stateCode": "HID",
    "latitude": "19.71128000",
    "longitude": "-98.45086000"
  },
  {
    "name": "Apango",
    "countryCode": "MX",
    "stateCode": "GRO",
    "latitude": "17.74121000",
    "longitude": "-99.32909000"
  },
  {
    "name": "Apango de Zaragoza",
    "countryCode": "MX",
    "stateCode": "PUE",
    "latitude": "19.06833000",
    "longitude": "-97.94028000"
  },
  {
    "name": "Apantla",
    "countryCode": "MX",
    "stateCode": "GRO",
    "latitude": "17.03972000",
    "longitude": "-99.16944000"
  },
  {
    "name": "Apantéopan",
    "countryCode": "MX",
    "stateCode": "PUE",
    "latitude": "19.35820000",
    "longitude": "-97.19104000"
  },
  {
    "name": "Apapantilla",
    "countryCode": "MX",
    "stateCode": "PUE",
    "latitude": "20.40356000",
    "longitude": "-97.84665000"
  },
  {
    "name": "Apapátaro",
    "countryCode": "MX",
    "stateCode": "QUE",
    "latitude": "20.46806000",
    "longitude": "-100.36861000"
  },
  {
    "name": "Apas",
    "countryCode": "MX",
    "stateCode": "CHP",
    "latitude": "16.71066000",
    "longitude": "-92.79335000"
  },
  {
    "name": "Apaseo el Alto",
    "countryCode": "MX",
    "stateCode": "GUA",
    "latitude": "20.45798000",
    "longitude": "-100.62081000"
  },
  {
    "name": "Apaseo el Grande",
    "countryCode": "MX",
    "stateCode": "GUA",
    "latitude": "20.54495000",
    "longitude": "-100.68462000"
  },
  {
    "name": "Apatauyan",
    "countryCode": "MX",
    "stateCode": "PUE",
    "latitude": "19.79911000",
    "longitude": "-97.44440000"
  },
  {
    "name": "Apatzingán",
    "countryCode": "MX",
    "stateCode": "MIC",
    "latitude": "19.08864000",
    "longitude": "-102.35704000"
  },
  {
    "name": "Apatzingán",
    "countryCode": "MX",
    "stateCode": "TAB",
    "latitude": "17.60803000",
    "longitude": "-91.06687000"
  },
  {
    "name": "Apaxco de Ocampo",
    "countryCode": "MX",
    "stateCode": "MEX",
    "latitude": "19.97512000",
    "longitude": "-99.17112000"
  },
  {
    "name": "Apaxtla",
    "countryCode": "MX",
    "stateCode": "GRO",
    "latitude": "18.07628000",
    "longitude": "-99.99562000"
  },
  {
    "name": "Apaxtla de Castrejón",
    "countryCode": "MX",
    "stateCode": "GRO",
    "latitude": "18.13127000",
    "longitude": "-99.93255000"
  },
  {
    "name": "Apazapan",
    "countryCode": "MX",
    "stateCode": "VER",
    "latitude": "19.33175000",
    "longitude": "-96.65058000"
  },
  {
    "name": "Apazulco",
    "countryCode": "MX",
    "stateCode": "JAL",
    "latitude": "19.36972000",
    "longitude": "-104.87889000"
  },
  {
    "name": "Apeo",
    "countryCode": "MX",
    "stateCode": "MIC",
    "latitude": "19.88722000",
    "longitude": "-100.34194000"
  },
  {
    "name": "Apetatitlán Antonio Carbajal",
    "countryCode": "MX",
    "stateCode": "TLA",
    "latitude": "19.33622000",
    "longitude": "-98.17912000"
  },
  {
    "name": "Apipilulco",
    "countryCode": "MX",
    "stateCode": "GRO",
    "latitude": "18.19104000",
    "longitude": "-99.67205000"
  },
  {
    "name": "Apizaco",
    "countryCode": "MX",
    "stateCode": "TLA",
    "latitude": "19.41333000",
    "longitude": "-98.14358000"
  },
  {
    "name": "Apo",
    "countryCode": "MX",
    "stateCode": "MIC",
    "latitude": "19.42722000",
    "longitude": "-102.41126000"
  },
  {
    "name": "Apoala",
    "countryCode": "MX",
    "stateCode": "OAX",
    "latitude": "17.64845000",
    "longitude": "-97.13608000"
  },
  {
    "name": "Apoderado",
    "countryCode": "MX",
    "stateCode": "SIN",
    "latitude": "22.90867000",
    "longitude": "-105.92458000"
  },
  {
    "name": "Aporo",
    "countryCode": "MX",
    "stateCode": "MIC",
    "latitude": "19.67021000",
    "longitude": "-100.41068000"
  },
  {
    "name": "Apozol",
    "countryCode": "MX",
    "stateCode": "ZAC",
    "latitude": "21.46952000",
    "longitude": "-103.09076000"
  },
  {
    "name": "Apozol de Gutiérrez",
    "countryCode": "MX",
    "stateCode": "JAL",
    "latitude": "21.01778000",
    "longitude": "-102.82556000"
  },
  {
    "name": "Aputzio de Juárez",
    "countryCode": "MX",
    "stateCode": "MIC",
    "latitude": "19.34183000",
    "longitude": "-100.34689000"
  },
  {
    "name": "Aquila",
    "countryCode": "MX",
    "stateCode": "MIC",
    "latitude": "18.59970000",
    "longitude": "-103.50454000"
  },
  {
    "name": "Aquila",
    "countryCode": "MX",
    "stateCode": "VER",
    "latitude": "18.78958000",
    "longitude": "-97.32319000"
  },
  {
    "name": "Aquiles Córdova Morán",
    "countryCode": "MX",
    "stateCode": "MIC",
    "latitude": "19.70685000",
    "longitude": "-100.53615000"
  },
  {
    "name": "Aquiles Serdán",
    "countryCode": "MX",
    "stateCode": "CHH",
    "latitude": "28.58454000",
    "longitude": "-105.88108000"
  },
  {
    "name": "Aquiles Serdán",
    "countryCode": "MX",
    "stateCode": "CHP",
    "latitude": "14.93980000",
    "longitude": "-92.51444000"
  },
  {
    "name": "Aquiles Serdán",
    "countryCode": "MX",
    "stateCode": "JAL",
    "latitude": "20.30019000",
    "longitude": "-105.62230000"
  },
  {
    "name": "Aquiles Serdán",
    "countryCode": "MX",
    "stateCode": "MIC",
    "latitude": "20.00357000",
    "longitude": "-102.21609000"
  },
  {
    "name": "Aquiles Serdán",
    "countryCode": "MX",
    "stateCode": "NAY",
    "latitude": "21.38198000",
    "longitude": "-104.88891000"
  },
  {
    "name": "Aquiles Serdán",
    "countryCode": "MX",
    "stateCode": "TAB",
    "latitude": "17.78333000",
    "longitude": "-92.28333000"
  },
  {
    "name": "Aquiles Serdán",
    "countryCode": "MX",
    "stateCode": "VER",
    "latitude": "21.87206000",
    "longitude": "-98.14794000"
  },
  {
    "name": "Aquiles Serdán (San Fernando)",
    "countryCode": "MX",
    "stateCode": "TAB",
    "latitude": "17.80556000",
    "longitude": "-92.48972000"
  },
  {
    "name": "Aquiles Serdán 1ra. Sección",
    "countryCode": "MX",
    "stateCode": "TAB",
    "latitude": "17.82474000",
    "longitude": "-92.73977000"
  },
  {
    "name": "Aquismón",
    "countryCode": "MX",
    "stateCode": "SLP",
    "latitude": "21.62159000",
    "longitude": "-99.01984000"
  },
  {
    "name": "Aquixtla",
    "countryCode": "MX",
    "stateCode": "PUE",
    "latitude": "19.77957000",
    "longitude": "-97.93526000"
  },
  {
    "name": "Aramberri",
    "countryCode": "MX",
    "stateCode": "NLE",
    "latitude": "24.09984000",
    "longitude": "-99.81729000"
  },
  {
    "name": "Arandas",
    "countryCode": "MX",
    "stateCode": "GUA",
    "latitude": "20.72468000",
    "longitude": "-101.37296000"
  },
  {
    "name": "Arandas",
    "countryCode": "MX",
    "stateCode": "JAL",
    "latitude": "20.70519000",
    "longitude": "-102.34635000"
  },
  {
    "name": "Arantepacua",
    "countryCode": "MX",
    "stateCode": "MIC",
    "latitude": "19.59580000",
    "longitude": "-101.96860000"
  },
  {
    "name": "Aranza",
    "countryCode": "MX",
    "stateCode": "MIC",
    "latitude": "19.66418000",
    "longitude": "-102.02365000"
  },
  {
    "name": "Araró",
    "countryCode": "MX",
    "stateCode": "MIC",
    "latitude": "19.91136000",
    "longitude": "-100.82460000"
  },
  {
    "name": "Aratichanguío",
    "countryCode": "MX",
    "stateCode": "GRO",
    "latitude": "18.47877000",
    "longitude": "-101.36211000"
  },
  {
    "name": "Arbolada los Sauces",
    "countryCode": "MX",
    "stateCode": "MEX",
    "latitude": "19.81583000",
    "longitude": "-99.04417000"
  },
  {
    "name": "Arboledas",
    "countryCode": "MX",
    "stateCode": "VER",
    "latitude": "19.20722000",
    "longitude": "-96.21444000"
  },
  {
    "name": "Arboledas Paso Blanco [Fraccionamiento]",
    "countryCode": "MX",
    "stateCode": "AGU",
    "latitude": "21.96361000",
    "longitude": "-102.30194000"
  },
  {
    "name": "Arbolillo",
    "countryCode": "MX",
    "stateCode": "VER",
    "latitude": "18.81631000",
    "longitude": "-95.83601000"
  },
  {
    "name": "Arcelia",
    "countryCode": "MX",
    "stateCode": "GRO",
    "latitude": "18.26627000",
    "longitude": "-100.19066000"
  },
  {
    "name": "Arcelia de Rodríguez",
    "countryCode": "MX",
    "stateCode": "GRO",
    "latitude": "16.73668000",
    "longitude": "-98.64486000"
  },
  {
    "name": "Arcila",
    "countryCode": "MX",
    "stateCode": "QUE",
    "latitude": "20.41037000",
    "longitude": "-100.10993000"
  },
  {
    "name": "Arcinas",
    "countryCode": "MX",
    "stateCode": "DUR",
    "latitude": "25.77556000",
    "longitude": "-103.40913000"
  },
  {
    "name": "Arellano",
    "countryCode": "MX",
    "stateCode": "AGU",
    "latitude": "21.80106000",
    "longitude": "-102.27384000"
  },
  {
    "name": "Arena 1ra. Sección",
    "countryCode": "MX",
    "stateCode": "TAB",
    "latitude": "18.20139000",
    "longitude": "-93.36694000"
  },
  {
    "name": "Arena 6ta. Sección (La Bolsa)",
    "countryCode": "MX",
    "stateCode": "TAB",
    "latitude": "18.16218000",
    "longitude": "-93.39539000"
  },
  {
    "name": "Arena de Hidalgo",
    "countryCode": "MX",
    "stateCode": "TAB",
    "latitude": "17.45827000",
    "longitude": "-91.58847000"
  },
  {
    "name": "Arenal",
    "countryCode": "MX",
    "stateCode": "MEX",
    "latitude": "19.38111000",
    "longitude": "-98.94278000"
  },
  {
    "name": "Arenal Santa Ana",
    "countryCode": "MX",
    "stateCode": "VER",
    "latitude": "17.78951000",
    "longitude": "-95.76970000"
  },
  {
    "name": "Arenal de Álvarez (Arenal de Paco)",
    "countryCode": "MX",
    "stateCode": "GRO",
    "latitude": "17.12611000",
    "longitude": "-100.45500000"
  },
  {
    "name": "Arimatea",
    "countryCode": "MX",
    "stateCode": "CHP",
    "latitude": "17.34139000",
    "longitude": "-91.87639000"
  },
  {
    "name": "Ario de Rayón",
    "countryCode": "MX",
    "stateCode": "MIC",
    "latitude": "20.02651000",
    "longitude": "-102.34814000"
  },
  {
    "name": "Ario de Rosales",
    "countryCode": "MX",
    "stateCode": "MIC",
    "latitude": "19.20900000",
    "longitude": "-101.70743000"
  },
  {
    "name": "Arivechi",
    "countryCode": "MX",
    "stateCode": "SON",
    "latitude": "28.92765000",
    "longitude": "-109.18681000"
  },
  {
    "name": "Arizpe",
    "countryCode": "MX",
    "stateCode": "SON",
    "latitude": "30.33690000",
    "longitude": "-110.16649000"
  },
  {
    "name": "Armería",
    "countryCode": "MX",
    "stateCode": "COL",
    "latitude": "18.95554000",
    "longitude": "-103.98357000"
  },
  {
    "name": "Arriaga",
    "countryCode": "MX",
    "stateCode": "CHP",
    "latitude": "16.23589000",
    "longitude": "-93.89995000"
  },
  {
    "name": "Arroyo Chical (Nuevo Arroyo Chicali)",
    "countryCode": "MX",
    "stateCode": "OAX",
    "latitude": "18.21611000",
    "longitude": "-96.33667000"
  },
  {
    "name": "Arroyo Choápam",
    "countryCode": "MX",
    "stateCode": "OAX",
    "latitude": "17.97028000",
    "longitude": "-96.15722000"
  },
  {
    "name": "Arroyo Grande",
    "countryCode": "MX",
    "stateCode": "CHP",
    "latitude": "17.19122000",
    "longitude": "-92.87207000"
  },
  {
    "name": "Arroyo Granizo",
    "countryCode": "MX",
    "stateCode": "CHP",
    "latitude": "17.03716000",
    "longitude": "-91.42563000"
  },
  {
    "name": "Arroyo Hondo",
    "countryCode": "MX",
    "stateCode": "JAL",
    "latitude": "19.68222000",
    "longitude": "-103.30000000"
  },
  {
    "name": "Arroyo Hondo",
    "countryCode": "MX",
    "stateCode": "VER",
    "latitude": "20.02317000",
    "longitude": "-96.87372000"
  },
  {
    "name": "Arroyo Hondo Abejonal",
    "countryCode": "MX",
    "stateCode": "TAB",
    "latitude": "17.97739000",
    "longitude": "-93.41039000"
  },
  {
    "name": "Arroyo Limón",
    "countryCode": "MX",
    "stateCode": "OAX",
    "latitude": "17.90008000",
    "longitude": "-95.96175000"
  },
  {
    "name": "Arroyo Palenque",
    "countryCode": "MX",
    "stateCode": "CHP",
    "latitude": "17.39167000",
    "longitude": "-92.10444000"
  },
  {
    "name": "Arroyo San Isidro",
    "countryCode": "MX",
    "stateCode": "VER",
    "latitude": "18.48667000",
    "longitude": "-95.41333000"
  },
  {
    "name": "Arroyo Seco",
    "countryCode": "MX",
    "stateCode": "QUE",
    "latitude": "21.54777000",
    "longitude": "-99.68832000"
  },
  {
    "name": "Arroyo Vista Hermosa",
    "countryCode": "MX",
    "stateCode": "MOR",
    "latitude": "19.33082000",
    "longitude": "-99.53694000"
  },
  {
    "name": "Arroyo Zapotillo",
    "countryCode": "MX",
    "stateCode": "OAX",
    "latitude": "18.07639000",
    "longitude": "-96.54417000"
  },
  {
    "name": "Arroyo de Banco",
    "countryCode": "MX",
    "stateCode": "OAX",
    "latitude": "17.80312000",
    "longitude": "-96.34794000"
  },
  {
    "name": "Arroyo de Enmedio",
    "countryCode": "MX",
    "stateCode": "OAX",
    "latitude": "18.49750000",
    "longitude": "-96.54722000"
  },
  {
    "name": "Arroyo del Maíz Uno",
    "countryCode": "MX",
    "stateCode": "VER",
    "latitude": "20.53667000",
    "longitude": "-97.41528000"
  },
  {
    "name": "Arroyo del Potrero",
    "countryCode": "MX",
    "stateCode": "VER",
    "latitude": "20.14554000",
    "longitude": "-97.06520000"
  },
  {
    "name": "Arroyos",
    "countryCode": "MX",
    "stateCode": "SLP",
    "latitude": "22.05455000",
    "longitude": "-100.90520000"
  },
  {
    "name": "Arteaga",
    "countryCode": "MX",
    "stateCode": "COA",
    "latitude": "25.44528000",
    "longitude": "-100.84667000"
  },
  {
    "name": "Arteaga",
    "countryCode": "MX",
    "stateCode": "MIC",
    "latitude": "18.35779000",
    "longitude": "-102.29122000"
  },
  {
    "name": "Artemio Treviño",
    "countryCode": "MX",
    "stateCode": "NLE",
    "latitude": "25.83528000",
    "longitude": "-100.14278000"
  },
  {
    "name": "Arturo Martínez Adame",
    "countryCode": "MX",
    "stateCode": "DUR",
    "latitude": "25.83157000",
    "longitude": "-103.38291000"
  },
  {
    "name": "Artículo Primero Constitucional",
    "countryCode": "MX",
    "stateCode": "PUE",
    "latitude": "18.97412000",
    "longitude": "-98.15848000"
  },
  {
    "name": "Arvenza Uno",
    "countryCode": "MX",
    "stateCode": "CHP",
    "latitude": "16.77972000",
    "longitude": "-92.72028000"
  },
  {
    "name": "Ascensión",
    "countryCode": "MX",
    "stateCode": "CHH",
    "latitude": "31.27914000",
    "longitude": "-107.73149000"
  },
  {
    "name": "Asientos",
    "countryCode": "MX",
    "stateCode": "AGU",
    "latitude": "22.23333000",
    "longitude": "-102.08333000"
  },
  {
    "name": "Astacinga",
    "countryCode": "MX",
    "stateCode": "VER",
    "latitude": "18.56900000",
    "longitude": "-97.10376000"
  },
  {
    "name": "Astapa",
    "countryCode": "MX",
    "stateCode": "TAB",
    "latitude": "17.78165000",
    "longitude": "-92.84938000"
  },
  {
    "name": "Asunción Cacalotepec",
    "countryCode": "MX",
    "stateCode": "OAX",
    "latitude": "17.03470000",
    "longitude": "-95.93361000"
  },
  {
    "name": "Asunción Ixtaltepec",
    "countryCode": "MX",
    "stateCode": "OAX",
    "latitude": "16.50315000",
    "longitude": "-95.06121000"
  },
  {
    "name": "Asunción Nochixtlán",
    "countryCode": "MX",
    "stateCode": "OAX",
    "latitude": "17.45916000",
    "longitude": "-97.22605000"
  },
  {
    "name": "Asunción Ocotlán",
    "countryCode": "MX",
    "stateCode": "OAX",
    "latitude": "16.76195000",
    "longitude": "-96.72137000"
  },
  {
    "name": "Asunción Tlacolulita",
    "countryCode": "MX",
    "stateCode": "OAX",
    "latitude": "16.22612000",
    "longitude": "-95.76620000"
  },
  {
    "name": "Atacco",
    "countryCode": "MX",
    "stateCode": "JAL",
    "latitude": "19.92662000",
    "longitude": "-103.74249000"
  },
  {
    "name": "Atacheo de Regalado",
    "countryCode": "MX",
    "stateCode": "MIC",
    "latitude": "20.05874000",
    "longitude": "-102.18703000"
  },
  {
    "name": "Atalpan",
    "countryCode": "MX",
    "stateCode": "PUE",
    "latitude": "19.84374000",
    "longitude": "-97.56008000"
  },
  {
    "name": "Atapaneo",
    "countryCode": "MX",
    "stateCode": "MIC",
    "latitude": "19.73892000",
    "longitude": "-101.11576000"
  },
  {
    "name": "Atapán",
    "countryCode": "MX",
    "stateCode": "MIC",
    "latitude": "19.65057000",
    "longitude": "-102.42463000"
  },
  {
    "name": "Atarjea",
    "countryCode": "MX",
    "stateCode": "GUA",
    "latitude": "21.26777000",
    "longitude": "-99.71914000"
  },
  {
    "name": "Atarjeas de Covarrubias",
    "countryCode": "MX",
    "stateCode": "JAL",
    "latitude": "19.91944000",
    "longitude": "-103.94333000"
  },
  {
    "name": "Atasta",
    "countryCode": "MX",
    "stateCode": "CAM",
    "latitude": "18.61954000",
    "longitude": "-92.10326000"
  },
  {
    "name": "Atecax",
    "countryCode": "MX",
    "stateCode": "PUE",
    "latitude": "19.69870000",
    "longitude": "-97.36698000"
  },
  {
    "name": "Atecucario de la Constitución (Atecuario)",
    "countryCode": "MX",
    "stateCode": "MIC",
    "latitude": "20.06444000",
    "longitude": "-102.23861000"
  },
  {
    "name": "Atemanica",
    "countryCode": "MX",
    "stateCode": "JAL",
    "latitude": "21.07528000",
    "longitude": "-103.75028000"
  },
  {
    "name": "Atempan",
    "countryCode": "MX",
    "stateCode": "PUE",
    "latitude": "19.83945000",
    "longitude": "-97.45855000"
  },
  {
    "name": "Atenango del Río",
    "countryCode": "MX",
    "stateCode": "GRO",
    "latitude": "18.10526000",
    "longitude": "-99.10777000"
  },
  {
    "name": "Atencingo",
    "countryCode": "MX",
    "stateCode": "PUE",
    "latitude": "18.51347000",
    "longitude": "-98.60542000"
  },
  {
    "name": "Atengo",
    "countryCode": "MX",
    "stateCode": "HID",
    "latitude": "20.17526000",
    "longitude": "-99.32714000"
  },
  {
    "name": "Atengo",
    "countryCode": "MX",
    "stateCode": "JAL",
    "latitude": "20.21666667",
    "longitude": "-104.08333333"
  },
  {
    "name": "Atenguillo",
    "countryCode": "MX",
    "stateCode": "JAL",
    "latitude": "20.41553000",
    "longitude": "-104.49387000"
  },
  {
    "name": "Atenguillo",
    "countryCode": "MX",
    "stateCode": "MEX",
    "latitude": "19.56361000",
    "longitude": "-98.87639000"
  },
  {
    "name": "Atenxoxola",
    "countryCode": "MX",
    "stateCode": "GRO",
    "latitude": "17.48819000",
    "longitude": "-99.14285000"
  },
  {
    "name": "Atequiza",
    "countryCode": "MX",
    "stateCode": "JAL",
    "latitude": "20.39006000",
    "longitude": "-103.14065000"
  },
  {
    "name": "Atexcal",
    "countryCode": "MX",
    "stateCode": "PUE",
    "latitude": "18.36391000",
    "longitude": "-97.68770000"
  },
  {
    "name": "Atexcatzingo",
    "countryCode": "MX",
    "stateCode": "TLA",
    "latitude": "19.46882000",
    "longitude": "-98.14716000"
  },
  {
    "name": "Aticama",
    "countryCode": "MX",
    "stateCode": "NAY",
    "latitude": "21.48387000",
    "longitude": "-105.19787000"
  },
  {
    "name": "Atil",
    "countryCode": "MX",
    "stateCode": "SON",
    "latitude": "30.84361000",
    "longitude": "-111.58361000"
  },
  {
    "name": "Atitalaquia",
    "countryCode": "MX",
    "stateCode": "HID",
    "latitude": "20.05691000",
    "longitude": "-99.21779000"
  },
  {
    "name": "Atizapán",
    "countryCode": "MX",
    "stateCode": "MEX",
    "latitude": "19.25000000",
    "longitude": "-99.55000000"
  },
  {
    "name": "Atla",
    "countryCode": "MX",
    "stateCode": "PUE",
    "latitude": "20.27527000",
    "longitude": "-98.12469000"
  },
  {
    "name": "Atlacahualoya",
    "countryCode": "MX",
    "stateCode": "MOR",
    "latitude": "18.54057000",
    "longitude": "-98.72982000"
  },
  {
    "name": "Atlacholoaya",
    "countryCode": "MX",
    "stateCode": "MOR",
    "latitude": "18.74238000",
    "longitude": "-99.22656000"
  },
  {
    "name": "Atlacomulco de Fabela",
    "countryCode": "MX",
    "stateCode": "MEX",
    "latitude": "19.79919000",
    "longitude": "-99.87500000"
  },
  {
    "name": "Atlahuilco",
    "countryCode": "MX",
    "stateCode": "VER",
    "latitude": "18.68308000",
    "longitude": "-97.11553000"
  },
  {
    "name": "Atlamajac",
    "countryCode": "MX",
    "stateCode": "GRO",
    "latitude": "17.55528000",
    "longitude": "-98.54722000"
  },
  {
    "name": "Atlamajalcingo del Río",
    "countryCode": "MX",
    "stateCode": "GRO",
    "latitude": "17.52667000",
    "longitude": "-98.65556000"
  },
  {
    "name": "Atlangatepec",
    "countryCode": "MX",
    "stateCode": "TLA",
    "latitude": "19.53220000",
    "longitude": "-98.20888000"
  },
  {
    "name": "Atlapexco",
    "countryCode": "MX",
    "stateCode": "HID",
    "latitude": "21.02507000",
    "longitude": "-98.36834000"
  },
  {
    "name": "Atlatlahucan",
    "countryCode": "MX",
    "stateCode": "MOR",
    "latitude": "18.93554000",
    "longitude": "-98.89496000"
  },
  {
    "name": "Atlatongo",
    "countryCode": "MX",
    "stateCode": "MEX",
    "latitude": "19.66776000",
    "longitude": "-98.90402000"
  },
  {
    "name": "Atlautla",
    "countryCode": "MX",
    "stateCode": "MEX",
    "latitude": "19.02188000",
    "longitude": "-98.77859000"
  },
  {
    "name": "Atlequizayan",
    "countryCode": "MX",
    "stateCode": "PUE",
    "latitude": "20.01214000",
    "longitude": "-97.62423000"
  },
  {
    "name": "Atliaca",
    "countryCode": "MX",
    "stateCode": "GRO",
    "latitude": "17.65168000",
    "longitude": "-99.37471000"
  },
  {
    "name": "Atlixco",
    "countryCode": "MX",
    "stateCode": "PUE",
    "latitude": "18.90815000",
    "longitude": "-98.43613000"
  },
  {
    "name": "Atlixtac",
    "countryCode": "MX",
    "stateCode": "GRO",
    "latitude": "17.51434000",
    "longitude": "-98.90305000"
  },
  {
    "name": "Atlzayanca",
    "countryCode": "MX",
    "stateCode": "TLA",
    "latitude": "19.43111000",
    "longitude": "-97.79556000"
  },
  {
    "name": "Atolinga",
    "countryCode": "MX",
    "stateCode": "ZAC",
    "latitude": "21.80659000",
    "longitude": "-103.46496000"
  },
  {
    "name": "Atoluca",
    "countryCode": "MX",
    "stateCode": "PUE",
    "latitude": "19.85500000",
    "longitude": "-97.35361000"
  },
  {
    "name": "Atonalisco",
    "countryCode": "MX",
    "stateCode": "NAY",
    "latitude": "21.66551000",
    "longitude": "-104.83949000"
  },
  {
    "name": "Atongo",
    "countryCode": "MX",
    "stateCode": "QUE",
    "latitude": "20.77288000",
    "longitude": "-100.23953000"
  },
  {
    "name": "Atotonilco",
    "countryCode": "MX",
    "stateCode": "MIC",
    "latitude": "19.94111000",
    "longitude": "-100.22306000"
  },
  {
    "name": "Atotonilco",
    "countryCode": "MX",
    "stateCode": "MOR",
    "latitude": "18.64947000",
    "longitude": "-98.83117000"
  },
  {
    "name": "Atotonilco de Tula",
    "countryCode": "MX",
    "stateCode": "HID",
    "latitude": "19.97025000",
    "longitude": "-99.23866000"
  },
  {
    "name": "Atotonilco el Alto Municipality",
    "countryCode": "MX",
    "stateCode": "JAL",
    "latitude": "20.53333333",
    "longitude": "-102.50000000"
  },
  {
    "name": "Atotonilco el Bajo",
    "countryCode": "MX",
    "stateCode": "JAL",
    "latitude": "20.34833333",
    "longitude": "-103.67083333"
  },
  {
    "name": "Atotonilco el Grande",
    "countryCode": "MX",
    "stateCode": "HID",
    "latitude": "20.28632000",
    "longitude": "-98.66850000"
  },
  {
    "name": "Atotonilquillo",
    "countryCode": "MX",
    "stateCode": "JAL",
    "latitude": "20.39287000",
    "longitude": "-103.12356000"
  },
  {
    "name": "Atoyac",
    "countryCode": "MX",
    "stateCode": "JAL",
    "latitude": "20.01700000",
    "longitude": "-103.53300000"
  },
  {
    "name": "Atoyac",
    "countryCode": "MX",
    "stateCode": "VER",
    "latitude": "18.93182000",
    "longitude": "-96.80203000"
  },
  {
    "name": "Atoyac de Álvarez",
    "countryCode": "MX",
    "stateCode": "GRO",
    "latitude": "17.20667000",
    "longitude": "-100.43306000"
  },
  {
    "name": "Atoyatempan",
    "countryCode": "MX",
    "stateCode": "PUE",
    "latitude": "18.81925000",
    "longitude": "-97.91390000"
  },
  {
    "name": "Atzacan",
    "countryCode": "MX",
    "stateCode": "VER",
    "latitude": "18.90724000",
    "longitude": "-97.08307000"
  },
  {
    "name": "Atzacoaloya",
    "countryCode": "MX",
    "stateCode": "GRO",
    "latitude": "17.54659000",
    "longitude": "-99.13757000"
  },
  {
    "name": "Atzala",
    "countryCode": "MX",
    "stateCode": "PUE",
    "latitude": "18.54639000",
    "longitude": "-98.55306000"
  },
  {
    "name": "Atzalan",
    "countryCode": "MX",
    "stateCode": "VER",
    "latitude": "19.78864000",
    "longitude": "-97.24195000"
  },
  {
    "name": "Atzalán",
    "countryCode": "MX",
    "stateCode": "PUE",
    "latitude": "19.82472000",
    "longitude": "-97.44417000"
  },
  {
    "name": "Atzcatlán",
    "countryCode": "MX",
    "stateCode": "JAL",
    "latitude": "20.40306000",
    "longitude": "-102.97111000"
  },
  {
    "name": "Atzingo (La Cumbre)",
    "countryCode": "MX",
    "stateCode": "PUE",
    "latitude": "19.97972000",
    "longitude": "-97.96861000"
  },
  {
    "name": "Atzitzintla",
    "countryCode": "MX",
    "stateCode": "PUE",
    "latitude": "18.89915000",
    "longitude": "-97.32440000"
  },
  {
    "name": "Augusto Gómez Villanueva",
    "countryCode": "MX",
    "stateCode": "COL",
    "latitude": "19.02154000",
    "longitude": "-104.00156000"
  },
  {
    "name": "Aurelio Manrique",
    "countryCode": "MX",
    "stateCode": "SLP",
    "latitude": "22.28750000",
    "longitude": "-98.65083000"
  },
  {
    "name": "Aurora Ermita",
    "countryCode": "MX",
    "stateCode": "CHP",
    "latitude": "17.23583000",
    "longitude": "-92.87389000"
  },
  {
    "name": "Aurora Esquipulas",
    "countryCode": "MX",
    "stateCode": "CHP",
    "latitude": "17.11704000",
    "longitude": "-92.47626000"
  },
  {
    "name": "Autlán de Navarro",
    "countryCode": "MX",
    "stateCode": "JAL",
    "latitude": "19.76666667",
    "longitude": "-104.36666667"
  },
  {
    "name": "Aután",
    "countryCode": "MX",
    "stateCode": "NAY",
    "latitude": "21.68973000",
    "longitude": "-105.30750000"
  },
  {
    "name": "Axapusco",
    "countryCode": "MX",
    "stateCode": "MEX",
    "latitude": "19.72456000",
    "longitude": "-98.75863000"
  },
  {
    "name": "Axaxacualco",
    "countryCode": "MX",
    "stateCode": "GRO",
    "latitude": "17.80387000",
    "longitude": "-99.46175000"
  },
  {
    "name": "Axixintla",
    "countryCode": "MX",
    "stateCode": "GRO",
    "latitude": "18.60222000",
    "longitude": "-99.51806000"
  },
  {
    "name": "Axochiapan",
    "countryCode": "MX",
    "stateCode": "MOR",
    "latitude": "18.50246000",
    "longitude": "-98.75358000"
  },
  {
    "name": "Axochío",
    "countryCode": "MX",
    "stateCode": "VER",
    "latitude": "18.37175000",
    "longitude": "-95.29985000"
  },
  {
    "name": "Axotlán",
    "countryCode": "MX",
    "stateCode": "MEX",
    "latitude": "19.69417000",
    "longitude": "-99.23944000"
  },
  {
    "name": "Axtla de Terrazas",
    "countryCode": "MX",
    "stateCode": "SLP",
    "latitude": "21.43923000",
    "longitude": "-98.87508000"
  },
  {
    "name": "Axutla",
    "countryCode": "MX",
    "stateCode": "PUE",
    "latitude": "18.18938000",
    "longitude": "-98.38935000"
  },
  {
    "name": "Axuxco",
    "countryCode": "MX",
    "stateCode": "PUE",
    "latitude": "18.23045000",
    "longitude": "-97.20739000"
  },
  {
    "name": "Ayahualulco",
    "countryCode": "MX",
    "stateCode": "GRO",
    "latitude": "17.50066000",
    "longitude": "-99.18264000"
  },
  {
    "name": "Ayahualulco",
    "countryCode": "MX",
    "stateCode": "VER",
    "latitude": "19.38613000",
    "longitude": "-97.14853000"
  },
  {
    "name": "Ayala",
    "countryCode": "MX",
    "stateCode": "MOR",
    "latitude": "18.72604000",
    "longitude": "-98.95106000"
  },
  {
    "name": "Ayapa",
    "countryCode": "MX",
    "stateCode": "TAB",
    "latitude": "18.22410000",
    "longitude": "-93.11158000"
  },
  {
    "name": "Ayapango",
    "countryCode": "MX",
    "stateCode": "MEX",
    "latitude": "19.12692000",
    "longitude": "-98.79988000"
  },
  {
    "name": "Ayometitla",
    "countryCode": "MX",
    "stateCode": "TLA",
    "latitude": "19.20722000",
    "longitude": "-98.19306000"
  },
  {
    "name": "Ayoquezco de Aldama",
    "countryCode": "MX",
    "stateCode": "OAX",
    "latitude": "16.68370000",
    "longitude": "-96.84287000"
  },
  {
    "name": "Ayotitlán",
    "countryCode": "MX",
    "stateCode": "JAL",
    "latitude": "20.22048000",
    "longitude": "-103.94397000"
  },
  {
    "name": "Ayotla",
    "countryCode": "MX",
    "stateCode": "PUE",
    "latitude": "18.67004000",
    "longitude": "-98.37266000"
  },
  {
    "name": "Ayotlán Municipality",
    "countryCode": "MX",
    "stateCode": "JAL",
    "latitude": "20.49388889",
    "longitude": "-102.35083333"
  },
  {
    "name": "Ayotoxco de Guerrero",
    "countryCode": "MX",
    "stateCode": "PUE",
    "latitude": "20.09589000",
    "longitude": "-97.40961000"
  },
  {
    "name": "Ayotuxtla",
    "countryCode": "MX",
    "stateCode": "VER",
    "latitude": "20.64885000",
    "longitude": "-98.30264000"
  },
  {
    "name": "Ayotzinapa",
    "countryCode": "MX",
    "stateCode": "GRO",
    "latitude": "17.55628000",
    "longitude": "-98.76346000"
  },
  {
    "name": "Ayotzintepec",
    "countryCode": "MX",
    "stateCode": "OAX",
    "latitude": "17.67261000",
    "longitude": "-96.12855000"
  },
  {
    "name": "Ayuquila",
    "countryCode": "MX",
    "stateCode": "JAL",
    "latitude": "19.84001000",
    "longitude": "-104.27156000"
  },
  {
    "name": "Ayutla",
    "countryCode": "MX",
    "stateCode": "OAX",
    "latitude": "17.02756000",
    "longitude": "-96.07632000"
  },
  {
    "name": "Ayutla",
    "countryCode": "MX",
    "stateCode": "PUE",
    "latitude": "18.54503000",
    "longitude": "-98.50537000"
  },
  {
    "name": "Ayutla de los Libres",
    "countryCode": "MX",
    "stateCode": "GRO",
    "latitude": "16.96376000",
    "longitude": "-99.09616000"
  },
  {
    "name": "Ayutla, Jalisco",
    "countryCode": "MX",
    "stateCode": "JAL",
    "latitude": "20.81666667",
    "longitude": "-104.20000000"
  },
  {
    "name": "Azcapotzalco",
    "countryCode": "MX",
    "stateCode": "CDMX",
    "latitude": "19.48698000",
    "longitude": "-99.18594000"
  },
  {
    "name": "Azoyú",
    "countryCode": "MX",
    "stateCode": "GRO",
    "latitude": "16.64925000",
    "longitude": "-98.57828000"
  },
  {
    "name": "Azteca",
    "countryCode": "MX",
    "stateCode": "CHP",
    "latitude": "16.21775000",
    "longitude": "-93.94557000"
  },
  {
    "name": "Aztlán",
    "countryCode": "MX",
    "stateCode": "CHP",
    "latitude": "16.76919000",
    "longitude": "-92.92316000"
  },
  {
    "name": "Azumbilla",
    "countryCode": "MX",
    "stateCode": "PUE",
    "latitude": "18.64552000",
    "longitude": "-97.39815000"
  },
  {
    "name": "Baborigame",
    "countryCode": "MX",
    "stateCode": "CHH",
    "latitude": "26.42962000",
    "longitude": "-107.26857000"
  },
  {
    "name": "Baburia",
    "countryCode": "MX",
    "stateCode": "SIN",
    "latitude": "25.84289000",
    "longitude": "-108.20276000"
  },
  {
    "name": "Baca",
    "countryCode": "MX",
    "stateCode": "YUC",
    "latitude": "21.10874000",
    "longitude": "-89.39866000"
  },
  {
    "name": "Bacabachi",
    "countryCode": "MX",
    "stateCode": "SON",
    "latitude": "26.89471000",
    "longitude": "-109.39320000"
  },
  {
    "name": "Bacabchén",
    "countryCode": "MX",
    "stateCode": "CAM",
    "latitude": "20.28903000",
    "longitude": "-90.05602000"
  },
  {
    "name": "Bacadéhuachi",
    "countryCode": "MX",
    "stateCode": "SON",
    "latitude": "29.80872000",
    "longitude": "-109.14054000"
  },
  {
    "name": "Bacalar",
    "countryCode": "MX",
    "stateCode": "ROO",
    "latitude": "18.68109000",
    "longitude": "-88.39333000"
  },
  {
    "name": "Bacame Nuevo",
    "countryCode": "MX",
    "stateCode": "SON",
    "latitude": "27.15899000",
    "longitude": "-109.59286000"
  },
  {
    "name": "Bacanora",
    "countryCode": "MX",
    "stateCode": "SON",
    "latitude": "28.98152000",
    "longitude": "-109.40012000"
  },
  {
    "name": "Bacerac",
    "countryCode": "MX",
    "stateCode": "SON",
    "latitude": "30.35565000",
    "longitude": "-108.93147000"
  },
  {
    "name": "Bachajón",
    "countryCode": "MX",
    "stateCode": "CHP",
    "latitude": "17.03963000",
    "longitude": "-92.18986000"
  },
  {
    "name": "Bachigualatito",
    "countryCode": "MX",
    "stateCode": "SIN",
    "latitude": "24.71344000",
    "longitude": "-107.46938000"
  },
  {
    "name": "Bachoco",
    "countryCode": "MX",
    "stateCode": "SIN",
    "latitude": "25.69687000",
    "longitude": "-108.81437000"
  },
  {
    "name": "Bachomobampo Número Dos",
    "countryCode": "MX",
    "stateCode": "SIN",
    "latitude": "25.73888000",
    "longitude": "-109.14776000"
  },
  {
    "name": "Bachíniva",
    "countryCode": "MX",
    "stateCode": "CHH",
    "latitude": "28.76801000",
    "longitude": "-107.25559000"
  },
  {
    "name": "Bacobampo",
    "countryCode": "MX",
    "stateCode": "SON",
    "latitude": "26.98239000",
    "longitude": "-109.65350000"
  },
  {
    "name": "Bacorehuis",
    "countryCode": "MX",
    "stateCode": "SIN",
    "latitude": "26.31749000",
    "longitude": "-109.08510000"
  },
  {
    "name": "Bacubirito",
    "countryCode": "MX",
    "stateCode": "SIN",
    "latitude": "25.80944000",
    "longitude": "-107.91500000"
  },
  {
    "name": "Badiraguato",
    "countryCode": "MX",
    "stateCode": "SIN",
    "latitude": "25.36525000",
    "longitude": "-107.55083000"
  },
  {
    "name": "Bagojo Colectivo",
    "countryCode": "MX",
    "stateCode": "SIN",
    "latitude": "25.87417000",
    "longitude": "-109.11778000"
  },
  {
    "name": "Bahuichivo",
    "countryCode": "MX",
    "stateCode": "CHH",
    "latitude": "27.40950000",
    "longitude": "-108.06740000"
  },
  {
    "name": "Bahía Asunción",
    "countryCode": "MX",
    "stateCode": "BCS",
    "latitude": "27.14231000",
    "longitude": "-114.29582000"
  },
  {
    "name": "Bahía Tortugas",
    "countryCode": "MX",
    "stateCode": "BCS",
    "latitude": "27.69056000",
    "longitude": "-114.89660000"
  },
  {
    "name": "Bahía de Kino",
    "countryCode": "MX",
    "stateCode": "SON",
    "latitude": "28.82278000",
    "longitude": "-111.94083000"
  },
  {
    "name": "Bahía de Lobos",
    "countryCode": "MX",
    "stateCode": "SON",
    "latitude": "27.35167000",
    "longitude": "-110.45472000"
  },
  {
    "name": "Bajos de Chila",
    "countryCode": "MX",
    "stateCode": "OAX",
    "latitude": "15.92343000",
    "longitude": "-97.12113000"
  },
  {
    "name": "Bajos del Ejido",
    "countryCode": "MX",
    "stateCode": "GRO",
    "latitude": "16.96086000",
    "longitude": "-99.97169000"
  },
  {
    "name": "Bajucu",
    "countryCode": "MX",
    "stateCode": "CHP",
    "latitude": "16.47520000",
    "longitude": "-92.06471000"
  },
  {
    "name": "Bajío Seco",
    "countryCode": "MX",
    "stateCode": "JAL",
    "latitude": "20.70889000",
    "longitude": "-102.39028000"
  },
  {
    "name": "Bajío de Bonillas",
    "countryCode": "MX",
    "stateCode": "GUA",
    "latitude": "20.94944000",
    "longitude": "-101.49528000"
  },
  {
    "name": "Bajío de Ratones",
    "countryCode": "MX",
    "stateCode": "JAL",
    "latitude": "20.71306000",
    "longitude": "-102.42861000"
  },
  {
    "name": "Bajío de San José",
    "countryCode": "MX",
    "stateCode": "JAL",
    "latitude": "21.67525000",
    "longitude": "-102.11606000"
  },
  {
    "name": "Bajío de San Nicolás",
    "countryCode": "MX",
    "stateCode": "ZAC",
    "latitude": "22.56499000",
    "longitude": "-102.00784000"
  },
  {
    "name": "Balancán",
    "countryCode": "MX",
    "stateCode": "TAB",
    "latitude": "17.80903000",
    "longitude": "-91.53682000"
  },
  {
    "name": "Balcones de la Calera",
    "countryCode": "MX",
    "stateCode": "JAL",
    "latitude": "20.44250000",
    "longitude": "-103.26722000"
  },
  {
    "name": "Balleza",
    "countryCode": "MX",
    "stateCode": "CHH",
    "latitude": "26.95154000",
    "longitude": "-106.34921000"
  },
  {
    "name": "Bamoa",
    "countryCode": "MX",
    "stateCode": "SIN",
    "latitude": "25.70523000",
    "longitude": "-108.34614000"
  },
  {
    "name": "Banco Nacional",
    "countryCode": "MX",
    "stateCode": "DUR",
    "latitude": "25.87139000",
    "longitude": "-103.35667000"
  },
  {
    "name": "Banderas",
    "countryCode": "MX",
    "stateCode": "VER",
    "latitude": "20.99083000",
    "longitude": "-97.39361000"
  },
  {
    "name": "Banderas (Guatacalca 2da. Sección)",
    "countryCode": "MX",
    "stateCode": "TAB",
    "latitude": "18.15167000",
    "longitude": "-92.89881000"
  },
  {
    "name": "Banderas del Águila",
    "countryCode": "MX",
    "stateCode": "DUR",
    "latitude": "23.92596000",
    "longitude": "-105.33950000"
  },
  {
    "name": "Banderilla",
    "countryCode": "MX",
    "stateCode": "VER",
    "latitude": "19.58893000",
    "longitude": "-96.93727000"
  },
  {
    "name": "Bangandhó",
    "countryCode": "MX",
    "stateCode": "HID",
    "latitude": "20.48277000",
    "longitude": "-99.14901000"
  },
  {
    "name": "Banus Vallarta",
    "countryCode": "MX",
    "stateCode": "JAL",
    "latitude": "20.71611000",
    "longitude": "-105.22306000"
  },
  {
    "name": "Bara de Chachalacas",
    "countryCode": "MX",
    "stateCode": "VER",
    "latitude": "19.40643000",
    "longitude": "-96.34159000"
  },
  {
    "name": "Bariometo",
    "countryCode": "MX",
    "stateCode": "SIN",
    "latitude": "24.76695000",
    "longitude": "-107.66254000"
  },
  {
    "name": "Barra de Cazones",
    "countryCode": "MX",
    "stateCode": "VER",
    "latitude": "20.72307000",
    "longitude": "-97.20320000"
  },
  {
    "name": "Barra de Navidad",
    "countryCode": "MX",
    "stateCode": "JAL",
    "latitude": "19.20805556",
    "longitude": "-104.68055556"
  },
  {
    "name": "Barra de Tecoanapa",
    "countryCode": "MX",
    "stateCode": "GRO",
    "latitude": "16.50864000",
    "longitude": "-98.73216000"
  },
  {
    "name": "Barranca de Otates",
    "countryCode": "MX",
    "stateCode": "JAL",
    "latitude": "20.26806000",
    "longitude": "-103.66472000"
  },
  {
    "name": "Barranca de Santa Clara",
    "countryCode": "MX",
    "stateCode": "JAL",
    "latitude": "20.25566000",
    "longitude": "-103.65560000"
  },
  {
    "name": "Barranca de los Laureles",
    "countryCode": "MX",
    "stateCode": "JAL",
    "latitude": "20.23333333",
    "longitude": "-103.63333333"
  },
  {
    "name": "Barranca del Tule",
    "countryCode": "MX",
    "stateCode": "JAL",
    "latitude": "21.98028000",
    "longitude": "-103.90694000"
  },
  {
    "name": "Barrancas",
    "countryCode": "MX",
    "stateCode": "VER",
    "latitude": "18.06918000",
    "longitude": "-94.58691000"
  },
  {
    "name": "Barrancas y Amate 3ra. Sección",
    "countryCode": "MX",
    "stateCode": "TAB",
    "latitude": "17.97100000",
    "longitude": "-92.76173000"
  },
  {
    "name": "Barretal",
    "countryCode": "MX",
    "stateCode": "TAM",
    "latitude": "24.08337000",
    "longitude": "-99.12526000"
  },
  {
    "name": "Barretos",
    "countryCode": "MX",
    "stateCode": "GUA",
    "latitude": "20.93933000",
    "longitude": "-101.64282000"
  },
  {
    "name": "Barrio Aztlán",
    "countryCode": "MX",
    "stateCode": "HID",
    "latitude": "20.46562000",
    "longitude": "-98.08553000"
  },
  {
    "name": "Barrio Bordo Nuevo",
    "countryCode": "MX",
    "stateCode": "MEX",
    "latitude": "19.37917000",
    "longitude": "-99.67333000"
  },
  {
    "name": "Barrio Chiquichuca",
    "countryCode": "MX",
    "stateCode": "MEX",
    "latitude": "19.32139000",
    "longitude": "-100.21278000"
  },
  {
    "name": "Barrio Cuarto (La Loma)",
    "countryCode": "MX",
    "stateCode": "MEX",
    "latitude": "19.76861000",
    "longitude": "-99.67694000"
  },
  {
    "name": "Barrio Nuevo",
    "countryCode": "MX",
    "stateCode": "GRO",
    "latitude": "17.72075000",
    "longitude": "-101.63657000"
  },
  {
    "name": "Barrio Nuevo de los Muertos",
    "countryCode": "MX",
    "stateCode": "GRO",
    "latitude": "16.89278000",
    "longitude": "-99.54389000"
  },
  {
    "name": "Barrio San Diego",
    "countryCode": "MX",
    "stateCode": "OAX",
    "latitude": "17.27917000",
    "longitude": "-97.67417000"
  },
  {
    "name": "Barrio San Joaquín el Junco",
    "countryCode": "MX",
    "stateCode": "MEX",
    "latitude": "19.56417000",
    "longitude": "-99.77333000"
  },
  {
    "name": "Barrio San Miguel Dorami",
    "countryCode": "MX",
    "stateCode": "MEX",
    "latitude": "19.44622000",
    "longitude": "-99.34296000"
  },
  {
    "name": "Barrio Santa Cruz",
    "countryCode": "MX",
    "stateCode": "MEX",
    "latitude": "19.35139000",
    "longitude": "-99.66278000"
  },
  {
    "name": "Barrio Tepetitlán Emilio Portes Gil",
    "countryCode": "MX",
    "stateCode": "MEX",
    "latitude": "19.65306000",
    "longitude": "-99.88667000"
  },
  {
    "name": "Barrio Tlatenco",
    "countryCode": "MX",
    "stateCode": "MEX",
    "latitude": "19.73917000",
    "longitude": "-99.19167000"
  },
  {
    "name": "Barrio de Arriba de San Juan Xoconusco",
    "countryCode": "MX",
    "stateCode": "MEX",
    "latitude": "19.32040000",
    "longitude": "-100.27020000"
  },
  {
    "name": "Barrio de Boyecha",
    "countryCode": "MX",
    "stateCode": "MEX",
    "latitude": "19.70778000",
    "longitude": "-99.68444000"
  },
  {
    "name": "Barrio de Canales",
    "countryCode": "MX",
    "stateCode": "MEX",
    "latitude": "19.37333000",
    "longitude": "-99.37556000"
  },
  {
    "name": "Barrio de Centro del Cerrillo",
    "countryCode": "MX",
    "stateCode": "MEX",
    "latitude": "19.53694000",
    "longitude": "-99.95417000"
  },
  {
    "name": "Barrio de Ensido",
    "countryCode": "MX",
    "stateCode": "MEX",
    "latitude": "19.49389000",
    "longitude": "-99.37444000"
  },
  {
    "name": "Barrio de España",
    "countryCode": "MX",
    "stateCode": "MEX",
    "latitude": "19.86139000",
    "longitude": "-99.08167000"
  },
  {
    "name": "Barrio de Guadalupe",
    "countryCode": "MX",
    "stateCode": "MEX",
    "latitude": "19.23054000",
    "longitude": "-98.93090000"
  },
  {
    "name": "Barrio de Guadalupe del Mezquitillo",
    "countryCode": "MX",
    "stateCode": "GUA",
    "latitude": "20.94417000",
    "longitude": "-101.80083000"
  },
  {
    "name": "Barrio de Jesús Fracción Primera",
    "countryCode": "MX",
    "stateCode": "MEX",
    "latitude": "19.36778000",
    "longitude": "-99.68694000"
  },
  {
    "name": "Barrio de México",
    "countryCode": "MX",
    "stateCode": "MEX",
    "latitude": "19.28250000",
    "longitude": "-99.82833000"
  },
  {
    "name": "Barrio de Nuevo León",
    "countryCode": "MX",
    "stateCode": "PUE",
    "latitude": "19.08861000",
    "longitude": "-98.29000000"
  },
  {
    "name": "Barrio de Puentecillas",
    "countryCode": "MX",
    "stateCode": "MEX",
    "latitude": "19.53558000",
    "longitude": "-99.98463000"
  },
  {
    "name": "Barrio de Reyes",
    "countryCode": "MX",
    "stateCode": "JAL",
    "latitude": "21.29194000",
    "longitude": "-102.50556000"
  },
  {
    "name": "Barrio de San Isidro",
    "countryCode": "MX",
    "stateCode": "MEX",
    "latitude": "19.52139000",
    "longitude": "-99.95861000"
  },
  {
    "name": "Barrio de San Juan",
    "countryCode": "MX",
    "stateCode": "MEX",
    "latitude": "19.41420000",
    "longitude": "-99.53717000"
  },
  {
    "name": "Barrio de San Miguel",
    "countryCode": "MX",
    "stateCode": "MEX",
    "latitude": "19.51232000",
    "longitude": "-99.95467000"
  },
  {
    "name": "Barrio de San Miguel",
    "countryCode": "MX",
    "stateCode": "VER",
    "latitude": "19.64333000",
    "longitude": "-97.12389000"
  },
  {
    "name": "Barrio de San Pedro la Cabecera",
    "countryCode": "MX",
    "stateCode": "MEX",
    "latitude": "19.56528000",
    "longitude": "-99.75000000"
  },
  {
    "name": "Barrio de San Ramón",
    "countryCode": "MX",
    "stateCode": "MEX",
    "latitude": "19.37361000",
    "longitude": "-99.33111000"
  },
  {
    "name": "Barrio de Tapias",
    "countryCode": "MX",
    "stateCode": "JAL",
    "latitude": "22.18361000",
    "longitude": "-103.22667000"
  },
  {
    "name": "Barrio de la Barranca",
    "countryCode": "MX",
    "stateCode": "MEX",
    "latitude": "19.43583000",
    "longitude": "-99.55833000"
  },
  {
    "name": "Barrio del Cajón",
    "countryCode": "MX",
    "stateCode": "MEX",
    "latitude": "19.39139000",
    "longitude": "-99.65806000"
  },
  {
    "name": "Barrio el Boncho",
    "countryCode": "MX",
    "stateCode": "MEX",
    "latitude": "19.42611000",
    "longitude": "-100.10639000"
  },
  {
    "name": "Barrio el Vivero",
    "countryCode": "MX",
    "stateCode": "MEX",
    "latitude": "19.45306000",
    "longitude": "-100.03528000"
  },
  {
    "name": "Barrio la Joya",
    "countryCode": "MX",
    "stateCode": "MEX",
    "latitude": "19.42000000",
    "longitude": "-100.09972000"
  },
  {
    "name": "Barrio la Tenería",
    "countryCode": "MX",
    "stateCode": "MEX",
    "latitude": "19.69361000",
    "longitude": "-99.79194000"
  },
  {
    "name": "Barrio los Tules",
    "countryCode": "MX",
    "stateCode": "MEX",
    "latitude": "19.42917000",
    "longitude": "-100.07472000"
  },
  {
    "name": "Barrón",
    "countryCode": "MX",
    "stateCode": "GUA",
    "latitude": "20.67667000",
    "longitude": "-101.08423000"
  },
  {
    "name": "Barrón",
    "countryCode": "MX",
    "stateCode": "SIN",
    "latitude": "23.12322000",
    "longitude": "-106.27650000"
  },
  {
    "name": "Basaseachic",
    "countryCode": "MX",
    "stateCode": "CHH",
    "latitude": "28.20626000",
    "longitude": "-108.21270000"
  },
  {
    "name": "Basconcobe",
    "countryCode": "MX",
    "stateCode": "SON",
    "latitude": "26.95491000",
    "longitude": "-109.66860000"
  },
  {
    "name": "Basúchil",
    "countryCode": "MX",
    "stateCode": "CHH",
    "latitude": "28.52479000",
    "longitude": "-107.40172000"
  },
  {
    "name": "Batopilas",
    "countryCode": "MX",
    "stateCode": "CHH",
    "latitude": "27.02846000",
    "longitude": "-107.74125000"
  },
  {
    "name": "Bautista Chico",
    "countryCode": "MX",
    "stateCode": "CHP",
    "latitude": "16.79972000",
    "longitude": "-92.71194000"
  },
  {
    "name": "Bavispe",
    "countryCode": "MX",
    "stateCode": "SON",
    "latitude": "30.47931000",
    "longitude": "-108.93982000"
  },
  {
    "name": "Becanchén",
    "countryCode": "MX",
    "stateCode": "YUC",
    "latitude": "19.87467000",
    "longitude": "-89.21732000"
  },
  {
    "name": "Bejucal de Ocampo",
    "countryCode": "MX",
    "stateCode": "CHP",
    "latitude": "15.45535000",
    "longitude": "-92.15835000"
  },
  {
    "name": "Bejucos",
    "countryCode": "MX",
    "stateCode": "MEX",
    "latitude": "18.77802000",
    "longitude": "-100.42778000"
  },
  {
    "name": "Belem",
    "countryCode": "MX",
    "stateCode": "MEX",
    "latitude": "19.63334000",
    "longitude": "-98.79664000"
  },
  {
    "name": "Belem del Refugio",
    "countryCode": "MX",
    "stateCode": "JAL",
    "latitude": "21.53023000",
    "longitude": "-102.43515000"
  },
  {
    "name": "Belisario Domínguez",
    "countryCode": "MX",
    "stateCode": "CHP",
    "latitude": "15.29944000",
    "longitude": "-92.38056000"
  },
  {
    "name": "Belisario Domínguez",
    "countryCode": "MX",
    "stateCode": "MIC",
    "latitude": "19.87140000",
    "longitude": "-100.97184000"
  },
  {
    "name": "Bella Esperanza",
    "countryCode": "MX",
    "stateCode": "VER",
    "latitude": "19.43329000",
    "longitude": "-96.86648000"
  },
  {
    "name": "Bella Vista",
    "countryCode": "MX",
    "stateCode": "CHP",
    "latitude": "15.58333000",
    "longitude": "-92.21667000"
  },
  {
    "name": "Bella Vista del Río",
    "countryCode": "MX",
    "stateCode": "QUE",
    "latitude": "20.69000000",
    "longitude": "-99.57139000"
  },
  {
    "name": "Bellas Fuentes",
    "countryCode": "MX",
    "stateCode": "MIC",
    "latitude": "19.82132000",
    "longitude": "-101.67950000"
  },
  {
    "name": "Bellavista",
    "countryCode": "MX",
    "stateCode": "JAL",
    "latitude": "20.43408000",
    "longitude": "-103.63742000"
  },
  {
    "name": "Bellavista",
    "countryCode": "MX",
    "stateCode": "NAY",
    "latitude": "21.56236000",
    "longitude": "-104.88267000"
  },
  {
    "name": "Bellavista",
    "countryCode": "MX",
    "stateCode": "SIN",
    "latitude": "24.81373000",
    "longitude": "-107.46188000"
  },
  {
    "name": "Bellavista de Victoria (San José Bellavista)",
    "countryCode": "MX",
    "stateCode": "PUE",
    "latitude": "18.87639000",
    "longitude": "-97.54389000"
  },
  {
    "name": "Belén",
    "countryCode": "MX",
    "stateCode": "TAB",
    "latitude": "17.78907000",
    "longitude": "-92.61137000"
  },
  {
    "name": "Belén Atzitzimititlán",
    "countryCode": "MX",
    "stateCode": "TLA",
    "latitude": "19.34694000",
    "longitude": "-98.19000000"
  },
  {
    "name": "Benemérito Juárez",
    "countryCode": "MX",
    "stateCode": "OAX",
    "latitude": "18.11944000",
    "longitude": "-96.00194000"
  },
  {
    "name": "Benemérito de las Américas",
    "countryCode": "MX",
    "stateCode": "CHP",
    "latitude": "16.51599000",
    "longitude": "-90.65371000"
  },
  {
    "name": "Benito García (El Zorrillo)",
    "countryCode": "MX",
    "stateCode": "BCN",
    "latitude": "31.67111000",
    "longitude": "-116.51139000"
  },
  {
    "name": "Benito González",
    "countryCode": "MX",
    "stateCode": "TAB",
    "latitude": "17.86993000",
    "longitude": "-92.70834000"
  },
  {
    "name": "Benito Juarez",
    "countryCode": "MX",
    "stateCode": "CDMX",
    "latitude": "19.39840000",
    "longitude": "-99.15766000"
  },
  {
    "name": "Benito Juárez",
    "countryCode": "MX",
    "stateCode": "BCN",
    "latitude": "32.56852000",
    "longitude": "-114.99422000"
  },
  {
    "name": "Benito Juárez",
    "countryCode": "MX",
    "stateCode": "CHH",
    "latitude": "29.74624000",
    "longitude": "-107.93966000"
  },
  {
    "name": "Benito Juárez",
    "countryCode": "MX",
    "stateCode": "CHP",
    "latitude": "15.05500000",
    "longitude": "-92.19111000"
  },
  {
    "name": "Benito Juárez",
    "countryCode": "MX",
    "stateCode": "HID",
    "latitude": "20.16047000",
    "longitude": "-98.82606000"
  },
  {
    "name": "Benito Juárez",
    "countryCode": "MX",
    "stateCode": "JAL",
    "latitude": "20.03639000",
    "longitude": "-105.26806000"
  },
  {
    "name": "Benito Juárez",
    "countryCode": "MX",
    "stateCode": "MEX",
    "latitude": "19.43765000",
    "longitude": "-99.85384000"
  },
  {
    "name": "Benito Juárez",
    "countryCode": "MX",
    "stateCode": "MIC",
    "latitude": "19.23333000",
    "longitude": "-100.46667000"
  },
  {
    "name": "Benito Juárez",
    "countryCode": "MX",
    "stateCode": "OAX",
    "latitude": "15.88178000",
    "longitude": "-96.32405000"
  },
  {
    "name": "Benito Juárez",
    "countryCode": "MX",
    "stateCode": "PUE",
    "latitude": "19.81654000",
    "longitude": "-97.79108000"
  },
  {
    "name": "Benito Juárez",
    "countryCode": "MX",
    "stateCode": "ROO",
    "latitude": "21.02029000",
    "longitude": "-87.04101000"
  },
  {
    "name": "Benito Juárez",
    "countryCode": "MX",
    "stateCode": "SIN",
    "latitude": "25.77373000",
    "longitude": "-109.03311000"
  },
  {
    "name": "Benito Juárez",
    "countryCode": "MX",
    "stateCode": "TAB",
    "latitude": "18.42573000",
    "longitude": "-92.80285000"
  },