[
  {
    "name": "Alor Gajah",
    "countryCode": "MY",
    "stateCode": "04",
    "latitude": "2.38040000",
    "longitude": "102.20890000"
  },
  {
    "name": "Alor Setar",
    "countryCode": "MY",
    "stateCode": "02",
    "latitude": "6.12104000",
    "longitude": "100.36014000"
  },
  {
    "name": "Ampang",
    "countryCode": "MY",
    "stateCode": "10",
    "latitude": "3.15000000",
    "longitude": "101.76667000"
  },
  {
    "name": "Ayer Hangat",
    "countryCode": "MY",
    "stateCode": "02",
    "latitude": "6.42062000",
    "longitude": "99.82199000"
  },
  {
    "name": "Bagan Pulau Ketam",
    "countryCode": "MY",
    "stateCode": "10",
    "latitude": "3.01667000",
    "longitude": "101.26667000"
  },
  {
    "name": "Bagan Serai",
    "countryCode": "MY",
    "stateCode": "08",
    "latitude": "5.01080000",
    "longitude": "100.54101000"
  },
  {
    "name": "Bahau",
    "countryCode": "MY",
    "stateCode": "05",
    "latitude": "2.80790000",
    "longitude": "102.40490000"
  },
  {
    "name": "Bakri",
    "countryCode": "MY",
    "stateCode": "01",
    "latitude": "2.04410000",
    "longitude": "102.65270000"
  },
  {
    "name": "Bandar Labuan",
    "countryCode": "MY",
    "stateCode": "12",
    "latitude": "5.28883000",
    "longitude": "115.26924000"
  },
  {
    "name": "Banting",
    "countryCode": "MY",
    "stateCode": "10",
    "latitude": "2.81360000",
    "longitude": "101.50185000"
  },
  {
    "name": "Batang Berjuntai",
    "countryCode": "MY",
    "stateCode": "10",
    "latitude": "3.38333000",
    "longitude": "101.41667000"
  },
  {
    "name": "Batu Arang",
    "countryCode": "MY",
    "stateCode": "10",
    "latitude": "3.31667000",
    "longitude": "101.46667000"
  },
  {
    "name": "Batu Berendam",
    "countryCode": "MY",
    "stateCode": "04",
    "latitude": "2.24870000",
    "longitude": "102.24600000"
  },
  {
    "name": "Batu Feringgi",
    "countryCode": "MY",
    "stateCode": "07",
    "latitude": "5.47090000",
    "longitude": "100.24529000"
  },
  {
    "name": "Batu Gajah",
    "countryCode": "MY",
    "stateCode": "08",
    "latitude": "4.46916000",
    "longitude": "101.04107000"
  },
  {
    "name": "Batu Pahat",
    "countryCode": "MY",
    "stateCode": "01",
    "latitude": "1.85480000",
    "longitude": "102.93250000"
  },
  {
    "name": "Beaufort",
    "countryCode": "MY",
    "stateCode": "12",
    "latitude": "5.34730000",
    "longitude": "115.74550000"
  },
  {
    "name": "Bedong",
    "countryCode": "MY",
    "stateCode": "02",
    "latitude": "5.72743000",
    "longitude": "100.50876000"
  },
  {
    "name": "Bemban",
    "countryCode": "MY",
    "stateCode": "04",
    "latitude": "2.26840000",
    "longitude": "102.37460000"
  },
  {
    "name": "Bentong Town",
    "countryCode": "MY",
    "stateCode": "06",
    "latitude": "3.52229000",
    "longitude": "101.90866000"
  },
  {
    "name": "Bidur",
    "countryCode": "MY",
    "stateCode": "08",
    "latitude": "4.11667000",
    "longitude": "101.28333000"
  },
  {
    "name": "Bintulu",
    "countryCode": "MY",
    "stateCode": "13",
    "latitude": "3.16667000",
    "longitude": "113.03333000"
  },
  {
    "name": "Bukit Mertajam",
    "countryCode": "MY",
    "stateCode": "07",
    "latitude": "5.36301000",
    "longitude": "100.46670000"
  },
  {
    "name": "Bukit Rambai",
    "countryCode": "MY",
    "stateCode": "04",
    "latitude": "2.25940000",
    "longitude": "102.18380000"
  },
  {
    "name": "Buloh Kasap",
    "countryCode": "MY",
    "stateCode": "01",
    "latitude": "2.55360000",
    "longitude": "102.76400000"
  },
  {
    "name": "Butterworth",
    "countryCode": "MY",
    "stateCode": "07",
    "latitude": "5.39910000",
    "longitude": "100.36382000"
  },
  {
    "name": "Chaah",
    "countryCode": "MY",
    "stateCode": "01",
    "latitude": "2.24900000",
    "longitude": "103.04800000"
  },
  {
    "name": "Cukai",
    "countryCode": "MY",
    "stateCode": "11",
    "latitude": "4.25000000",
    "longitude": "103.41667000"
  },
  {
    "name": "Daerah Batu Pahat",
    "countryCode": "MY",
    "stateCode": "01",
    "latitude": "1.93333000",
    "longitude": "103.00000000"
  },
  {
    "name": "Daerah Johor Baharu",
    "countryCode": "MY",
    "stateCode": "01",
    "latitude": "1.65000000",
    "longitude": "103.60000000"
  },
  {
    "name": "Daerah Keluang",
    "countryCode": "MY",
    "stateCode": "01",
    "latitude": "2.20000000",
    "longitude": "103.33333000"
  },
  {
    "name": "Daerah Kota Tinggi",
    "countryCode": "MY",
    "stateCode": "01",
    "latitude": "1.81667000",
    "longitude": "103.96667000"
  },
  {
    "name": "Daerah Mersing",
    "countryCode": "MY",
    "stateCode": "01",
    "latitude": "2.31667000",
    "longitude": "103.71667000"
  },
  {
    "name": "Daerah Muar",
    "countryCode": "MY",
    "stateCode": "01",
    "latitude": "2.25000000",
    "longitude": "102.75000000"
  },
  {
    "name": "Daerah Pontian",
    "countryCode": "MY",
    "stateCode": "01",
    "latitude": "1.50000000",
    "longitude": "103.50000000"
  },
  {
    "name": "Daerah Segamat",
    "countryCode": "MY",
    "stateCode": "01",
    "latitude": "2.60000000",
    "longitude": "102.81667000"
  },
  {
    "name": "Data Kakus",
    "countryCode": "MY",
    "stateCode": "13",
    "latitude": "2.65465000",
    "longitude": "113.62249000"
  },
  {
    "name": "Donggongon",
    "countryCode": "MY",
    "stateCode": "12",
    "latitude": "5.90702000",
    "longitude": "116.10146000"
  },
  {
    "name": "George Town",
    "countryCode": "MY",
    "stateCode": "07",
    "latitude": "5.41123000",
    "longitude": "100.33543000"
  },
  {
    "name": "Gua Musang",
    "countryCode": "MY",
    "stateCode": "03",
    "latitude": "4.88441000",
    "longitude": "101.96857000"
  },
  {
    "name": "Gurun",
    "countryCode": "MY",
    "stateCode": "02",
    "latitude": "5.81717000",
    "longitude": "100.47381000"
  },
  {
    "name": "Ipoh",
    "countryCode": "MY",
    "stateCode": "08",
    "latitude": "4.58410000",
    "longitude": "101.08290000"
  },
  {
    "name": "Jenjarum",
    "countryCode": "MY",
    "stateCode": "10",
    "latitude": "2.87240000",
    "longitude": "101.49484000"
  },
  {
    "name": "Jerantut",
    "countryCode": "MY",
    "stateCode": "06",
    "latitude": "3.93600000",
    "longitude": "102.36260000"
  },
  {
    "name": "Jertih",
    "countryCode": "MY",
    "stateCode": "11",
    "latitude": "5.73360000",
    "longitude": "102.48970000"
  },
  {
    "name": "Jitra",
    "countryCode": "MY",
    "stateCode": "02",
    "latitude": "6.26812000",
    "longitude": "100.42167000"
  },
  {
    "name": "Johor Bahru",
    "countryCode": "MY",
    "stateCode": "01",
    "latitude": "1.46550000",
    "longitude": "103.75780000"
  },
  {
    "name": "Juru",
    "countryCode": "MY",
    "stateCode": "07",
    "latitude": "5.31201000",
    "longitude": "100.44229000"
  },
  {
    "name": "Kampar",
    "countryCode": "MY",
    "stateCode": "08",
    "latitude": "4.30000000",
    "longitude": "101.15000000"
  },
  {
    "name": "Kampong Baharu Balakong",
    "countryCode": "MY",
    "stateCode": "10",
    "latitude": "3.03333000",
    "longitude": "101.75000000"
  },
  {
    "name": "Kampong Dungun",
    "countryCode": "MY",
    "stateCode": "08",
    "latitude": "3.21667000",
    "longitude": "101.31667000"
  },
  {
    "name": "Kampong Kadok",
    "countryCode": "MY",
    "stateCode": "03",
    "latitude": "6.00000000",
    "longitude": "102.25000000"
  },
  {
    "name": "Kampong Masjid Tanah",
    "countryCode": "MY",
    "stateCode": "04",
    "latitude": "2.35000000",
    "longitude": "102.11667000"
  },
  {
    "name": "Kampong Pangkal Kalong",
    "countryCode": "MY",
    "stateCode": "03",
    "latitude": "5.91667000",
    "longitude": "102.21667000"
  },
  {
    "name": "Kampung Ayer Keroh",
    "countryCode": "MY",
    "stateCode": "04",
    "latitude": "2.26540000",
    "longitude": "102.28010000"
  },
  {
    "name": "Kampung Ayer Molek",
    "countryCode": "MY",
    "stateCode": "04",
    "latitude": "2.21390000",
    "longitude": "102.32780000"
  },
  {
    "name": "Kampung Baharu Nilai",
    "countryCode": "MY",
    "stateCode": "05",
    "latitude": "2.80330000",
    "longitude": "101.79720000"
  },
  {
    "name": "Kampung Baru Subang",
    "countryCode": "MY",
    "stateCode": "10",
    "latitude": "3.15000000",
    "longitude": "101.53333000"
  },
  {
    "name": "Kampung Batu Feringgi",
    "countryCode": "MY",
    "stateCode": "07",
    "latitude": "5.46948000",
    "longitude": "100.24449000"
  },
  {
    "name": "Kampung Bukit Baharu",
    "countryCode": "MY",
    "stateCode": "04",
    "latitude": "2.21520000",
    "longitude": "102.28510000"
  },
  {
    "name": "Kampung Bukit Tinggi, Bentong",
    "countryCode": "MY",
    "stateCode": "06",
    "latitude": "3.34944000",
    "longitude": "101.82631000"
  },
  {
    "name": "Kampung Kilim",
    "countryCode": "MY",
    "stateCode": "02",
    "latitude": "6.40550000",
    "longitude": "99.85020000"
  },
  {
    "name": "Kampung Kok",
    "countryCode": "MY",
    "stateCode": "02",
    "latitude": "6.36759000",
    "longitude": "99.68252000"
  },
  {
    "name": "Kampung Kuala Besut",
    "countryCode": "MY",
    "stateCode": "11",
    "latitude": "5.83297000",
    "longitude": "102.55061000"
  },
  {
    "name": "Kampung Pasir Gudang Baru",
    "countryCode": "MY",
    "stateCode": "01",
    "latitude": "1.47260000",
    "longitude": "103.87800000"
  },
  {
    "name": "Kampung Simpang Renggam",
    "countryCode": "MY",
    "stateCode": "01",
    "latitude": "1.82780000",
    "longitude": "103.30000000"
  },
  {
    "name": "Kampung Sungai Ara",
    "countryCode": "MY",
    "stateCode": "07",
    "latitude": "5.32699000",
    "longitude": "100.27348000"
  },
  {
    "name": "Kampung Tanjung Karang",
    "countryCode": "MY",
    "stateCode": "10",
    "latitude": "3.42420000",
    "longitude": "101.18490000"
  },
  {
    "name": "Kampung Tekek",
    "countryCode": "MY",
    "stateCode": "06",
    "latitude": "2.81470000",
    "longitude": "104.15920000"
  },
  {
    "name": "Kangar",
    "countryCode": "MY",
    "stateCode": "09",
    "latitude": "6.44140000",
    "longitude": "100.19862000"
  },
  {
    "name": "Kapit",
    "countryCode": "MY",
    "stateCode": "13",
    "latitude": "1.99546000",
    "longitude": "112.93254000"
  },
  {
    "name": "Kelapa Sawit",
    "countryCode": "MY",
    "stateCode": "01",
    "latitude": "1.66980000",
    "longitude": "103.53270000"
  },
  {
    "name": "Keningau",
    "countryCode": "MY",
    "stateCode": "12",
    "latitude": "5.33780000",
    "longitude": "116.16020000"
  },
  {
    "name": "Kepala Batas",
    "countryCode": "MY",
    "stateCode": "07",
    "latitude": "5.51707000",
    "longitude": "100.42650000"
  },
  {
    "name": "Kertih",
    "countryCode": "MY",
    "stateCode": "11",
    "latitude": "4.51410000",
    "longitude": "103.44830000"
  },
  {
    "name": "Kinarut",
    "countryCode": "MY",
    "stateCode": "12",
    "latitude": "5.82310000",
    "longitude": "116.04660000"
  },
  {
    "name": "Klang",
    "countryCode": "MY",
    "stateCode": "10",
    "latitude": "3.03667000",
    "longitude": "101.44333000"
  },
  {
    "name": "Klebang Besar",
    "countryCode": "MY",
    "stateCode": "04",
    "latitude": "2.21860000",
    "longitude": "102.19950000"
  },
  {
    "name": "Kluang",
    "countryCode": "MY",
    "stateCode": "01",
    "latitude": "2.03046000",
    "longitude": "103.31689000"
  },
  {
    "name": "Kota Belud",
    "countryCode": "MY",
    "stateCode": "12",
    "latitude": "6.35100000",
    "longitude": "116.43050000"
  },
  {
    "name": "Kota Bharu",
    "countryCode": "MY",
    "stateCode": "03",
    "latitude": "6.12361000",
    "longitude": "102.24333000"
  },
  {
    "name": "Kota Kinabalu",
    "countryCode": "MY",
    "stateCode": "12",
    "latitude": "5.97490000",
    "longitude": "116.07240000"
  },
  {
    "name": "Kota Tinggi",
    "countryCode": "MY",
    "stateCode": "01",
    "latitude": "1.73810000",
    "longitude": "103.89990000"
  },
  {
    "name": "Kuah",
    "countryCode": "MY",
    "stateCode": "02",
    "latitude": "6.32649000",
    "longitude": "99.84320000"
  },
  {
    "name": "Kuala Besut",
    "countryCode": "MY",
    "stateCode": "11",
    "latitude": "5.83303000",
    "longitude": "102.55514000"
  },
  {
    "name": "Kuala Kangsar",
    "countryCode": "MY",
    "stateCode": "08",
    "latitude": "4.76667000",
    "longitude": "100.93333000"
  },
  {
    "name": "Kuala Kedah",
    "countryCode": "MY",
    "stateCode": "02",
    "latitude": "6.10000000",
    "longitude": "100.30000000"
  },
  {
    "name": "Kuala Lipis",
    "countryCode": "MY",
    "stateCode": "06",
    "latitude": "4.18420000",
    "longitude": "102.04680000"
  },
  {
    "name": "Kuala Lumpur",
    "countryCode": "MY",
    "stateCode": "14",
    "latitude": "3.14120000",
    "longitude": "101.68653000"
  },
  {
    "name": "Kuala Perlis",
    "countryCode": "MY",
    "stateCode": "09",
    "latitude": "6.40000000",
    "longitude": "100.13333000"
  },
  {
    "name": "Kuala Pilah",
    "countryCode": "MY",
    "stateCode": "05",
    "latitude": "2.73890000",
    "longitude": "102.24870000"
  },
  {
    "name": "Kuala Selangor",
    "countryCode": "MY",
    "stateCode": "10",
    "latitude": "3.35000000",
    "longitude": "101.25000000"
  },
  {
    "name": "Kuala Sungai Baru",
    "countryCode": "MY",
    "stateCode": "04",
    "latitude": "2.35940000",
    "longitude": "102.03530000"
  },
  {
    "name": "Kuala Terengganu",
    "countryCode": "MY",
    "stateCode": "11",
    "latitude": "5.33020000",
    "longitude": "103.14080000"
  },
  {
    "name": "Kuala Teriang",
    "countryCode": "MY",
    "stateCode": "02",
    "latitude": "6.36377000",
    "longitude": "99.71532000"
  },
  {
    "name": "Kuang",
    "countryCode": "MY",
    "stateCode": "10",
    "latitude": "3.25940000",
    "longitude": "101.55410000"
  },
  {
    "name": "Kuantan",
    "countryCode": "MY",
    "stateCode": "06",
    "latitude": "3.80770000",
    "longitude": "103.32600000"
  },
  {
    "name": "Kuching",
    "countryCode": "MY",
    "stateCode": "13",
    "latitude": "1.55000000",
    "longitude": "110.33333000"
  },
  {
    "name": "Kudat",
    "countryCode": "MY",
    "stateCode": "12",
    "latitude": "6.88732000",
    "longitude": "116.82364000"
  },
  {
    "name": "Kulai",
    "countryCode": "MY",
    "stateCode": "01",
    "latitude": "1.65610000",
    "longitude": "103.60320000"
  },
  {
    "name": "Kulim",
    "countryCode": "MY",
    "stateCode": "02",
    "latitude": "5.36499000",
    "longitude": "100.56177000"
  },
  {
    "name": "Labis",
    "countryCode": "MY",
    "stateCode": "01",
    "latitude": "2.38500000",
    "longitude": "103.02100000"
  },
  {
    "name": "Labuan",
    "countryCode": "MY",
    "stateCode": "15",
    "latitude": "5.28028000",
    "longitude": "115.24750000"
  },
  {
    "name": "Ladang Seri Kundang",
    "countryCode": "MY",
    "stateCode": "10",
    "latitude": "3.28560000",
    "longitude": "101.51900000"
  },
  {
    "name": "Lahad Datu",
    "countryCode": "MY",
    "stateCode": "12",
    "latitude": "5.02298000",
    "longitude": "118.32897000"
  },
  {
    "name": "Langkawi",
    "countryCode": "MY",
    "stateCode": "02",
    "latitude": "6.35608000",
    "longitude": "99.78375000"
  },
  {
    "name": "Lawas",
    "countryCode": "MY",
    "stateCode": "13",
    "latitude": "4.86040000",
    "longitude": "115.40900000"
  },
  {
    "name": "Lidung Jelo",
    "countryCode": "MY",
    "stateCode": "13",
    "latitude": "2.64848000",
    "longitude": "114.78653000"
  },
  {
    "name": "Limbang",
    "countryCode": "MY",
    "stateCode": "13",
    "latitude": "4.75000000",
    "longitude": "115.00000000"
  },
  {
    "name": "Long Ampan Aing or Abanang",
    "countryCode": "MY",
    "stateCode": "13",
    "latitude": "2.65671000",
    "longitude": "114.73675000"
  },
  {
    "name": "Lumut",
    "countryCode": "MY",
    "stateCode": "08",
    "latitude": "4.23230000",
    "longitude": "100.62980000"
  },
  {
    "name": "Malacca",
    "countryCode": "MY",
    "stateCode": "04",
    "latitude": "2.19600000",
    "longitude": "102.24050000"
  },
  {
    "name": "Marang",
    "countryCode": "MY",
    "stateCode": "11",
    "latitude": "5.20560000",
    "longitude": "103.20590000"
  },
  {
    "name": "Marudi",
    "countryCode": "MY",
    "stateCode": "13",
    "latitude": "4.18333000",
    "longitude": "114.31667000"
  },
  {
    "name": "Mentekab",
    "countryCode": "MY",
    "stateCode": "06",
    "latitude": "3.48540000",
    "longitude": "102.34840000"
  },
  {
    "name": "Mersing",
    "countryCode": "MY",
    "stateCode": "01",
    "latitude": "2.43120000",
    "longitude": "103.84050000"
  },
  {
    "name": "Miri",
    "countryCode": "MY",
    "stateCode": "13",
    "latitude": "4.39928000",
    "longitude": "113.99163000"
  },
  {
    "name": "Muar",
    "countryCode": "MY",
    "stateCode": "01",
    "latitude": "2.04420000",
    "longitude": "102.56890000"
  },
  {
    "name": "Mukah",
    "countryCode": "MY",
    "stateCode": "13",
    "latitude": "2.89435000",
    "longitude": "112.09145000"
  },
  {
    "name": "Nibong Tebal",
    "countryCode": "MY",
    "stateCode": "07",
    "latitude": "5.16586000",
    "longitude": "100.47793000"
  },
  {
    "name": "Padang Mat Sirat",
    "countryCode": "MY",
    "stateCode": "02",
    "latitude": "6.35423000",
    "longitude": "99.73404000"
  },
  {
    "name": "Paka",
    "countryCode": "MY",
    "stateCode": "11",
    "latitude": "4.63740000",
    "longitude": "103.43680000"
  },
  {
    "name": "Pantai Cenang",
    "countryCode": "MY",
    "stateCode": "09",
    "latitude": "6.29369000",
    "longitude": "99.72786000"
  },
  {
    "name": "Pantai Remis",
    "countryCode": "MY",
    "stateCode": "08",
    "latitude": "4.45570000",
    "longitude": "100.62880000"
  },
  {
    "name": "Papar",
    "countryCode": "MY",
    "stateCode": "12",
    "latitude": "5.73333000",
    "longitude": "115.93333000"
  },
  {
    "name": "Parit Buntar",
    "countryCode": "MY",
    "stateCode": "08",
    "latitude": "5.12671000",
    "longitude": "100.49316000"
  },
  {
    "name": "Parit Raja",
    "countryCode": "MY",
    "stateCode": "01",
    "latitude": "1.86810000",
    "longitude": "103.11240000"
  },
  {
    "name": "Pasir Mas",
    "countryCode": "MY",
    "stateCode": "03",
    "latitude": "6.04934000",
    "longitude": "102.13987000"
  },
  {
    "name": "Pekan",
    "countryCode": "MY",
    "stateCode": "06",
    "latitude": "3.48360000",
    "longitude": "103.39960000"
  },
  {
    "name": "Pekan Nenas",
    "countryCode": "MY",
    "stateCode": "01",
    "latitude": "1.51000000",
    "longitude": "103.51410000"
  },
  {
    "name": "Pelabuhan Klang",
    "countryCode": "MY",
    "stateCode": "10",
    "latitude": "2.99959000",
    "longitude": "101.39287000"
  },
  {
    "name": "Perai",
    "countryCode": "MY",
    "stateCode": "07",
    "latitude": "5.38333000",
    "longitude": "100.38333000"
  },
  {
    "name": "Peringat",
    "countryCode": "MY",
    "stateCode": "03",
    "latitude": "6.03333000",
    "longitude": "102.28333000"
  },
  {
    "name": "Permatang Kuching",
    "countryCode": "MY",
    "stateCode": "07",
    "latitude": "5.46339000",
    "longitude": "100.38144000"
  },
  {
    "name": "Petaling Jaya",
    "countryCode": "MY",
    "stateCode": "10",
    "latitude": "3.10726000",
    "longitude": "101.60671000"
  },
  {
    "name": "Pontian Kechil",
    "countryCode": "MY",
    "stateCode": "01",
    "latitude": "1.48660000",
    "longitude": "103.38960000"
  },
  {
    "name": "Port Dickson",
    "countryCode": "MY",
    "stateCode": "05",
    "latitude": "2.53718000",
    "longitude": "101.80571000"
  },
  {
    "name": "Pulau Sebang",
    "countryCode": "MY",
    "stateCode": "04",
    "latitude": "2.45500000",
    "longitude": "102.23290000"
  },
  {
    "name": "Putatan",
    "countryCode": "MY",
    "stateCode": "12",
    "latitude": "5.92580000",
    "longitude": "116.06094000"
  },
  {
    "name": "Putra Heights",
    "countryCode": "MY",
    "stateCode": "10",
    "latitude": "2.99361000",
    "longitude": "101.57255000"
  },
  {
    "name": "Putrajaya",
    "countryCode": "MY",
    "stateCode": "16",
    "latitude": "2.93527000",
    "longitude": "101.69112000"
  },
  {
    "name": "Ranau",
    "countryCode": "MY",
    "stateCode": "12",
    "latitude": "5.95380000",
    "longitude": "116.66410000"
  },
  {
    "name": "Raub",
    "countryCode": "MY",
    "stateCode": "06",
    "latitude": "3.78990000",
    "longitude": "101.85700000"
  },
  {
    "name": "Rawang",
    "countryCode": "MY",
    "stateCode": "10",
    "latitude": "3.32130000",
    "longitude": "101.57670000"
  },
  {
    "name": "Sandakan",
    "countryCode": "MY",
    "stateCode": "12",
    "latitude": "5.84020000",
    "longitude": "118.11790000"
  },
  {
    "name": "Sarikei",
    "countryCode": "MY",
    "stateCode": "13",
    "latitude": "2.11667000",
    "longitude": "111.51667000"
  },
  {
    "name": "Seberang Perai",
    "countryCode": "MY",
    "stateCode": "07",
    "latitude": "5.38770000",
    "longitude": "100.42603000"
  },
  {
    "name": "Segamat",
    "countryCode": "MY",
    "stateCode": "01",
    "latitude": "2.51480000",
    "longitude": "102.81580000"
  },
  {
    "name": "Semenyih",
    "countryCode": "MY",
    "stateCode": "10",
    "latitude": "2.95160000",
    "longitude": "101.84300000"
  },
  {
    "name": "Semporna",
    "countryCode": "MY",
    "stateCode": "12",
    "latitude": "4.48178000",
    "longitude": "118.61119000"
  },
  {
    "name": "Seremban",
    "countryCode": "MY",
    "stateCode": "05",
    "latitude": "2.72970000",
    "longitude": "101.93810000"
  },
  {
    "name": "Serendah",
    "countryCode": "MY",
    "stateCode": "10",
    "latitude": "3.36460000",
    "longitude": "101.60410000"
  },
  {
    "name": "Shah Alam",
    "countryCode": "MY",
    "stateCode": "10",
    "latitude": "3.08507000",
    "longitude": "101.53281000"
  },
  {
    "name": "Sibu",
    "countryCode": "MY",
    "stateCode": "13",
    "latitude": "2.30000000",
    "longitude": "111.81667000"
  },
  {
    "name": "Simanggang",
    "countryCode": "MY",
    "stateCode": "13",
    "latitude": "1.24722000",
    "longitude": "111.45278000"
  },
  {
    "name": "Simpang Empat",
    "countryCode": "MY",
    "stateCode": "08",
    "latitude": "4.95000000",
    "longitude": "100.63333000"
  },
  {
    "name": "Skudai",
    "countryCode": "MY",
    "stateCode": "01",
    "latitude": "1.53741000",
    "longitude": "103.65779000"
  },
  {
    "name": "Subang Jaya",
    "countryCode": "MY",
    "stateCode": "10",
    "latitude": "3.04384000",
    "longitude": "101.58062000"
  },
  {
    "name": "Sungai Besar",
    "countryCode": "MY",
    "stateCode": "10",
    "latitude": "3.67460000",
    "longitude": "100.98670000"
  },
  {
    "name": "Sungai Pelek New Village",
    "countryCode": "MY",
    "stateCode": "10",
    "latitude": "2.65000000",
    "longitude": "101.70000000"
  },
  {
    "name": "Sungai Petani",
    "countryCode": "MY",
    "stateCode": "02",
    "latitude": "5.64700000",
    "longitude": "100.48772000"
  },
  {
    "name": "Sungai Udang",
    "countryCode": "MY",
    "stateCode": "04",
    "latitude": "2.26900000",
    "longitude": "102.14270000"
  },
  {
    "name": "Taiping",
    "countryCode": "MY",
    "stateCode": "08",
    "latitude": "4.85000000",
    "longitude": "100.73333000"
  },
  {
    "name": "Taman Rajawali",
    "countryCode": "MY",
    "stateCode": "12",
    "latitude": "5.89477000",
    "longitude": "118.04576000"
  },
  {
    "name": "Taman Senai",
    "countryCode": "MY",
    "stateCode": "01",
    "latitude": "1.60060000",
    "longitude": "103.64190000"
  },
  {
    "name": "Tampin",
    "countryCode": "MY",
    "stateCode": "05",
    "latitude": "2.47010000",
    "longitude": "102.23020000"
  },
  {
    "name": "Tanah Rata",
    "countryCode": "MY",
    "stateCode": "06",
    "latitude": "4.46361000",
    "longitude": "101.37630000"
  },
  {
    "name": "Tangkak",
    "countryCode": "MY",
    "stateCode": "01",
    "latitude": "2.26730000",
    "longitude": "102.54530000"
  },
  {
    "name": "Tanjung Sepat",
    "countryCode": "MY",
    "stateCode": "10",
    "latitude": "2.65790000",
    "longitude": "101.56290000"
  },
  {
    "name": "Tanjung Tokong",
    "countryCode": "MY",
    "stateCode": "07",
    "latitude": "5.46061000",
    "longitude": "100.30742000"
  },
  {
    "name": "Tapah Road",
    "countryCode": "MY",
    "stateCode": "08",
    "latitude": "4.16667000",
    "longitude": "101.20000000"
  },
  {
    "name": "Tasek Glugor",
    "countryCode": "MY",
    "stateCode": "07",
    "latitude": "5.48032000",
    "longitude": "100.49849000"
  },
  {
    "name": "Tawau",
    "countryCode": "MY",
    "stateCode": "12",
    "latitude": "4.24482000",
    "longitude": "117.89115000"
  },
  {
    "name": "Telaga Batu",
    "countryCode": "MY",
    "stateCode": "07",
    "latitude": "5.46667000",
    "longitude": "100.23333000"
  },
  {
    "name": "Teluk Intan",
    "countryCode": "MY",
    "stateCode": "08",
    "latitude": "4.02219000",
    "longitude": "101.02083000"
  },
  {
    "name": "Temerluh",
    "countryCode": "MY",
    "stateCode": "06",
    "latitude": "3.45060000",
    "longitude": "102.41760000"
  },
  {
    "name": "Tumpat",
    "countryCode": "MY",
    "stateCode": "03",
    "latitude": "6.19775000",
    "longitude": "102.17098000"
  },
  {
    "name": "Ulu Tiram",
    "countryCode": "MY",
    "stateCode": "01",
    "latitude": "1.60000000",
    "longitude": "103.81667000"
  },
  {
    "name": "Yong Peng",
    "countryCode": "MY",
    "stateCode": "01",
    "latitude": "2.01360000",
    "longitude": "103.06590000"
  }
]