[
  {
    "name": "Alto Molócuè",
    "countryCode": "MZ",
    "stateCode": "Q",
    "latitude": "-15.64932000",
    "longitude": "37.66384000"
  },
  {
    "name": "António Enes",
    "countryCode": "MZ",
    "stateCode": "N",
    "latitude": "-16.23250000",
    "longitude": "39.90861000"
  },
  {
    "name": "Beira",
    "countryCode": "MZ",
    "stateCode": "S",
    "latitude": "-19.84361000",
    "longitude": "34.83889000"
  },
  {
    "name": "Boane District",
    "countryCode": "MZ",
    "stateCode": "L",
    "latitude": "-26.02900000",
    "longitude": "32.38900000"
  },
  {
    "name": "Chibuto",
    "countryCode": "MZ",
    "stateCode": "G",
    "latitude": "-24.68667000",
    "longitude": "33.53056000"
  },
  {
    "name": "Chimoio",
    "countryCode": "MZ",
    "stateCode": "B",
    "latitude": "-19.11639000",
    "longitude": "33.48333000"
  },
  {
    "name": "Chinde",
    "countryCode": "MZ",
    "stateCode": "Q",
    "latitude": "-18.58111000",
    "longitude": "36.45861000"
  },
  {
    "name": "Chiure",
    "countryCode": "MZ",
    "stateCode": "P",
    "latitude": "-13.46665000",
    "longitude": "39.70317000"
  },
  {
    "name": "Chokwé",
    "countryCode": "MZ",
    "stateCode": "G",
    "latitude": "-24.53333000",
    "longitude": "32.98333000"
  },
  {
    "name": "Concelho de Matola",
    "countryCode": "MZ",
    "stateCode": "L",
    "latitude": "-25.83472000",
    "longitude": "32.49516000"
  },
  {
    "name": "Cuamba",
    "countryCode": "MZ",
    "stateCode": "A",
    "latitude": "-14.80306000",
    "longitude": "36.53722000"
  },
  {
    "name": "Dondo",
    "countryCode": "MZ",
    "stateCode": "S",
    "latitude": "-19.60944000",
    "longitude": "34.74306000"
  },
  {
    "name": "Ilha de Moçambique",
    "countryCode": "MZ",
    "stateCode": "N",
    "latitude": "-15.03417000",
    "longitude": "40.73583000"
  },
  {
    "name": "Inhambane",
    "countryCode": "MZ",
    "stateCode": "I",
    "latitude": "-23.86500000",
    "longitude": "35.38333000"
  },
  {
    "name": "KaTembe",
    "countryCode": "MZ",
    "stateCode": "MPM",
    "latitude": "-26.02985000",
    "longitude": "32.53204000"
  },
  {
    "name": "Lichinga",
    "countryCode": "MZ",
    "stateCode": "A",
    "latitude": "-13.31278000",
    "longitude": "35.24056000"
  },
  {
    "name": "Macia",
    "countryCode": "MZ",
    "stateCode": "G",
    "latitude": "-25.02694000",
    "longitude": "33.09889000"
  },
  {
    "name": "Magude District",
    "countryCode": "MZ",
    "stateCode": "L",
    "latitude": "-25.02389000",
    "longitude": "32.65150000"
  },
  {
    "name": "Mandimba",
    "countryCode": "MZ",
    "stateCode": "A",
    "latitude": "-14.35250000",
    "longitude": "35.65056000"
  },
  {
    "name": "Manhica",
    "countryCode": "MZ",
    "stateCode": "L",
    "latitude": "-25.34035000",
    "longitude": "32.84234000"
  },
  {
    "name": "Maputo",
    "countryCode": "MZ",
    "stateCode": "MPM",
    "latitude": "-25.96553000",
    "longitude": "32.58322000"
  },
  {
    "name": "Marracuene District",
    "countryCode": "MZ",
    "stateCode": "L",
    "latitude": "-25.73938000",
    "longitude": "32.67436000"
  },
  {
    "name": "Matola",
    "countryCode": "MZ",
    "stateCode": "L",
    "latitude": "-25.96222000",
    "longitude": "32.45889000"
  },
  {
    "name": "Matutiune District",
    "countryCode": "MZ",
    "stateCode": "L",
    "latitude": "-26.43418000",
    "longitude": "32.58820000"
  },
  {
    "name": "Maxixe",
    "countryCode": "MZ",
    "stateCode": "I",
    "latitude": "-23.85972000",
    "longitude": "35.34722000"
  },
  {
    "name": "Moamba District",
    "countryCode": "MZ",
    "stateCode": "L",
    "latitude": "-25.60934000",
    "longitude": "32.24321000"
  },
  {
    "name": "Mocímboa",
    "countryCode": "MZ",
    "stateCode": "P",
    "latitude": "-11.31667000",
    "longitude": "40.35000000"
  },
  {
    "name": "Montepuez",
    "countryCode": "MZ",
    "stateCode": "P",
    "latitude": "-13.12556000",
    "longitude": "38.99972000"
  },
  {
    "name": "Mutuáli",
    "countryCode": "MZ",
    "stateCode": "N",
    "latitude": "-14.87056000",
    "longitude": "37.00444000"
  },
  {
    "name": "Nacala",
    "countryCode": "MZ",
    "stateCode": "N",
    "latitude": "-14.56257000",
    "longitude": "40.68538000"
  },
  {
    "name": "Namaacha District",
    "countryCode": "MZ",
    "stateCode": "L",
    "latitude": "-26.10900000",
    "longitude": "32.18000000"
  },
  {
    "name": "Nampula",
    "countryCode": "MZ",
    "stateCode": "N",
    "latitude": "-15.11646000",
    "longitude": "39.26660000"
  },
  {
    "name": "Nhamatanda District",
    "countryCode": "MZ",
    "stateCode": "S",
    "latitude": "-19.34900000",
    "longitude": "34.26800000"
  },
  {
    "name": "Pemba",
    "countryCode": "MZ",
    "stateCode": "P",
    "latitude": "-12.97395000",
    "longitude": "40.51775000"
  },
  {
    "name": "Quelimane",
    "countryCode": "MZ",
    "stateCode": "Q",
    "latitude": "-17.87861000",
    "longitude": "36.88833000"
  },
  {
    "name": "Ressano Garcia",
    "countryCode": "MZ",
    "stateCode": "L",
    "latitude": "-25.44278000",
    "longitude": "31.99528000"
  },
  {
    "name": "Tete",
    "countryCode": "MZ",
    "stateCode": "T",
    "latitude": "-16.15639000",
    "longitude": "33.58667000"
  },
  {
    "name": "Xai-Xai",
    "countryCode": "MZ",
    "stateCode": "G",
    "latitude": "-25.05194000",
    "longitude": "33.64417000"
  }
]