[
  {
    "name": "Ahipara",
    "countryCode": "NZ",
    "stateCode": "NTL",
    "latitude": "-35.16667000",
    "longitude": "173.16667000"
  },
  {
    "name": "Amberley",
    "countryCode": "NZ",
    "stateCode": "CAN",
    "latitude": "-43.15589000",
    "longitude": "172.72975000"
  },
  {
    "name": "Arrowtown",
    "countryCode": "NZ",
    "stateCode": "OTA",
    "latitude": "-44.93837000",
    "longitude": "168.81007000"
  },
  {
    "name": "Ashburton",
    "countryCode": "NZ",
    "stateCode": "CAN",
    "latitude": "-43.89834000",
    "longitude": "171.73011000"
  },
  {
    "name": "Ashburton District",
    "countryCode": "NZ",
    "stateCode": "CAN",
    "latitude": "-43.90000000",
    "longitude": "171.75000000"
  },
  {
    "name": "Auckland",
    "countryCode": "NZ",
    "stateCode": "AUK",
    "latitude": "-36.84853000",
    "longitude": "174.76349000"
  },
  {
    "name": "Balclutha",
    "countryCode": "NZ",
    "stateCode": "OTA",
    "latitude": "-46.23389000",
    "longitude": "169.75000000"
  },
  {
    "name": "Blenheim",
    "countryCode": "NZ",
    "stateCode": "MBH",
    "latitude": "-41.51603000",
    "longitude": "173.95280000"
  },
  {
    "name": "Bluff",
    "countryCode": "NZ",
    "stateCode": "STL",
    "latitude": "-46.60000000",
    "longitude": "168.33333000"
  },
  {
    "name": "Brightwater",
    "countryCode": "NZ",
    "stateCode": "TAS",
    "latitude": "-41.38333000",
    "longitude": "173.11667000"
  },
  {
    "name": "Brooklyn",
    "countryCode": "NZ",
    "stateCode": "WGN",
    "latitude": "-41.30586000",
    "longitude": "174.76257000"
  },
  {
    "name": "Bulls",
    "countryCode": "NZ",
    "stateCode": "MWT",
    "latitude": "-40.17487000",
    "longitude": "175.38463000"
  },
  {
    "name": "Burnham",
    "countryCode": "NZ",
    "stateCode": "CAN",
    "latitude": "-43.61667000",
    "longitude": "172.31667000"
  },
  {
    "name": "Cambridge",
    "countryCode": "NZ",
    "stateCode": "WKO",
    "latitude": "-37.87822000",
    "longitude": "175.44020000"
  },
  {
    "name": "Castlepoint",
    "countryCode": "NZ",
    "stateCode": "WGN",
    "latitude": "-40.90000000",
    "longitude": "176.21667000"
  },
  {
    "name": "Christchurch",
    "countryCode": "NZ",
    "stateCode": "CAN",
    "latitude": "-43.53333000",
    "longitude": "172.63333000"
  },
  {
    "name": "Christchurch City",
    "countryCode": "NZ",
    "stateCode": "CAN",
    "latitude": "-43.64578000",
    "longitude": "172.74586000"
  },
  {
    "name": "Clutha District",
    "countryCode": "NZ",
    "stateCode": "OTA",
    "latitude": "-46.03883000",
    "longitude": "169.60617000"
  },
  {
    "name": "Coromandel",
    "countryCode": "NZ",
    "stateCode": "WKO",
    "latitude": "-36.76110000",
    "longitude": "175.49634000"
  },
  {
    "name": "Cromwell",
    "countryCode": "NZ",
    "stateCode": "OTA",
    "latitude": "-45.03837000",
    "longitude": "169.20008000"
  },
  {
    "name": "Darfield",
    "countryCode": "NZ",
    "stateCode": "CAN",
    "latitude": "-43.48333000",
    "longitude": "172.11667000"
  },
  {
    "name": "Dargaville",
    "countryCode": "NZ",
    "stateCode": "NTL",
    "latitude": "-35.93333000",
    "longitude": "173.88333000"
  },
  {
    "name": "Dunedin",
    "countryCode": "NZ",
    "stateCode": "OTA",
    "latitude": "-45.87416000",
    "longitude": "170.50361000"
  },
  {
    "name": "Edgecumbe",
    "countryCode": "NZ",
    "stateCode": "BOP",
    "latitude": "-37.98333000",
    "longitude": "176.83333000"
  },
  {
    "name": "Eltham",
    "countryCode": "NZ",
    "stateCode": "TKI",
    "latitude": "-39.42917000",
    "longitude": "174.30000000"
  },
  {
    "name": "Far North District",
    "countryCode": "NZ",
    "stateCode": "NTL",
    "latitude": "-35.03359000",
    "longitude": "173.48841000"
  },
  {
    "name": "Foxton",
    "countryCode": "NZ",
    "stateCode": "MWT",
    "latitude": "-40.46667000",
    "longitude": "175.30000000"
  },
  {
    "name": "Geraldine",
    "countryCode": "NZ",
    "stateCode": "CAN",
    "latitude": "-44.09061000",
    "longitude": "171.24458000"
  },
  {
    "name": "Gisborne",
    "countryCode": "NZ",
    "stateCode": "GIS",
    "latitude": "-38.65333000",
    "longitude": "178.00417000"
  },
  {
    "name": "Gore",
    "countryCode": "NZ",
    "stateCode": "STL",
    "latitude": "-46.10282000",
    "longitude": "168.94357000"
  },
  {
    "name": "Greymouth",
    "countryCode": "NZ",
    "stateCode": "WTC",
    "latitude": "-42.46667000",
    "longitude": "171.20000000"
  },
  {
    "name": "Hamilton",
    "countryCode": "NZ",
    "stateCode": "WKO",
    "latitude": "-37.78333000",
    "longitude": "175.28333000"
  },
  {
    "name": "Hastings",
    "countryCode": "NZ",
    "stateCode": "HKB",
    "latitude": "-39.63810000",
    "longitude": "176.84918000"
  },
  {
    "name": "Hawera",
    "countryCode": "NZ",
    "stateCode": "TKI",
    "latitude": "-39.59167000",
    "longitude": "174.28333000"
  },
  {
    "name": "Hokitika",
    "countryCode": "NZ",
    "stateCode": "WTC",
    "latitude": "-42.71667000",
    "longitude": "170.96667000"
  },
  {
    "name": "Horowhenua District",
    "countryCode": "NZ",
    "stateCode": "MWT",
    "latitude": "-40.57733000",
    "longitude": "175.38071000"
  },
  {
    "name": "Invercargill",
    "countryCode": "NZ",
    "stateCode": "STL",
    "latitude": "-46.40000000",
    "longitude": "168.35000000"
  },
  {
    "name": "Kaiapoi",
    "countryCode": "NZ",
    "stateCode": "CAN",
    "latitude": "-43.37832000",
    "longitude": "172.64013000"
  },
  {
    "name": "Kaipara District",
    "countryCode": "NZ",
    "stateCode": "NTL",
    "latitude": "-35.99546000",
    "longitude": "174.04688000"
  },
  {
    "name": "Kaitaia",
    "countryCode": "NZ",
    "stateCode": "NTL",
    "latitude": "-35.11485000",
    "longitude": "173.26366000"
  },
  {
    "name": "Kapiti Coast District",
    "countryCode": "NZ",
    "stateCode": "WGN",
    "latitude": "-40.85682000",
    "longitude": "175.14690000"
  },
  {
    "name": "Katikati",
    "countryCode": "NZ",
    "stateCode": "BOP",
    "latitude": "-37.55000000",
    "longitude": "175.91667000"
  },
  {
    "name": "Kawakawa",
    "countryCode": "NZ",
    "stateCode": "NTL",
    "latitude": "-35.38333000",
    "longitude": "174.06667000"
  },
  {
    "name": "Kawerau",
    "countryCode": "NZ",
    "stateCode": "BOP",
    "latitude": "-38.10000000",
    "longitude": "176.70000000"
  },
  {
    "name": "Kelburn",
    "countryCode": "NZ",
    "stateCode": "WGN",
    "latitude": "-41.28333000",
    "longitude": "174.76667000"
  },
  {
    "name": "Kerikeri",
    "countryCode": "NZ",
    "stateCode": "NTL",
    "latitude": "-35.22676000",
    "longitude": "173.94739000"
  },
  {
    "name": "Khandallah",
    "countryCode": "NZ",
    "stateCode": "WGN",
    "latitude": "-41.24500000",
    "longitude": "174.79422000"
  },
  {
    "name": "Kingston",
    "countryCode": "NZ",
    "stateCode": "OTA",
    "latitude": "-45.33288000",
    "longitude": "168.71476000"
  },
  {
    "name": "Leeston",
    "countryCode": "NZ",
    "stateCode": "CAN",
    "latitude": "-43.76667000",
    "longitude": "172.30000000"
  },
  {
    "name": "Levin",
    "countryCode": "NZ",
    "stateCode": "MWT",
    "latitude": "-40.63333000",
    "longitude": "175.27500000"
  },
  {
    "name": "Lincoln",
    "countryCode": "NZ",
    "stateCode": "CAN",
    "latitude": "-43.65000000",
    "longitude": "172.48333000"
  },
  {
    "name": "Lower Hutt",
    "countryCode": "NZ",
    "stateCode": "WGN",
    "latitude": "-41.21667000",
    "longitude": "174.91667000"
  },
  {
    "name": "Mackenzie District",
    "countryCode": "NZ",
    "stateCode": "CAN",
    "latitude": "-43.93987000",
    "longitude": "170.51913000"
  },
  {
    "name": "Maketu",
    "countryCode": "NZ",
    "stateCode": "BOP",
    "latitude": "-37.76667000",
    "longitude": "176.45000000"
  },
  {
    "name": "Manawatu District",
    "countryCode": "NZ",
    "stateCode": "MWT",
    "latitude": "-40.11979000",
    "longitude": "175.67426000"
  },
  {
    "name": "Mangere",
    "countryCode": "NZ",
    "stateCode": "AUK",
    "latitude": "-36.96807000",
    "longitude": "174.79875000"
  },
  {
    "name": "Manukau City",
    "countryCode": "NZ",
    "stateCode": "AUK",
    "latitude": "-36.99282000",
    "longitude": "174.87986000"
  },
  {
    "name": "Mapua",
    "countryCode": "NZ",
    "stateCode": "TAS",
    "latitude": "-41.25000000",
    "longitude": "173.10000000"
  },
  {
    "name": "Masterton",
    "countryCode": "NZ",
    "stateCode": "WGN",
    "latitude": "-40.95972000",
    "longitude": "175.65750000"
  },
  {
    "name": "Matamata",
    "countryCode": "NZ",
    "stateCode": "WKO",
    "latitude": "-37.81060000",
    "longitude": "175.76237000"
  },
  {
    "name": "Maungatapere",
    "countryCode": "NZ",
    "stateCode": "NTL",
    "latitude": "-35.75000000",
    "longitude": "174.20000000"
  },
  {
    "name": "Methven",
    "countryCode": "NZ",
    "stateCode": "CAN",
    "latitude": "-43.63333000",
    "longitude": "171.65000000"
  },
  {
    "name": "Milton",
    "countryCode": "NZ",
    "stateCode": "OTA",
    "latitude": "-46.12083000",
    "longitude": "169.96944000"
  },
  {
    "name": "Moerewa",
    "countryCode": "NZ",
    "stateCode": "NTL",
    "latitude": "-35.38333000",
    "longitude": "174.03333000"
  },
  {
    "name": "Motueka",
    "countryCode": "NZ",
    "stateCode": "TAS",
    "latitude": "-41.13333000",
    "longitude": "173.01667000"
  },
  {
    "name": "Muriwai Beach",
    "countryCode": "NZ",
    "stateCode": "AUK",
    "latitude": "-36.81667000",
    "longitude": "174.45000000"
  },
  {
    "name": "Murrays Bay",
    "countryCode": "NZ",
    "stateCode": "AUK",
    "latitude": "-36.72819000",
    "longitude": "174.75019000"
  },
  {
    "name": "Murupara",
    "countryCode": "NZ",
    "stateCode": "BOP",
    "latitude": "-38.46667000",
    "longitude": "176.70000000"
  },
  {
    "name": "Napier",
    "countryCode": "NZ",
    "stateCode": "HKB",
    "latitude": "-39.49260000",
    "longitude": "176.91233000"
  },
  {
    "name": "Nelson",
    "countryCode": "NZ",
    "stateCode": "NSN",
    "latitude": "-41.27078000",
    "longitude": "173.28404000"
  },
  {
    "name": "New Plymouth",
    "countryCode": "NZ",
    "stateCode": "TKI",
    "latitude": "-39.06667000",
    "longitude": "174.08333000"
  },
  {
    "name": "New Plymouth District",
    "countryCode": "NZ",
    "stateCode": "TKI",
    "latitude": "-39.05865000",
    "longitude": "174.10309000"
  },
  {
    "name": "Ngaruawahia",
    "countryCode": "NZ",
    "stateCode": "WKO",
    "latitude": "-37.66738000",
    "longitude": "175.15554000"
  },
  {
    "name": "Ngatea",
    "countryCode": "NZ",
    "stateCode": "WKO",
    "latitude": "-37.28333000",
    "longitude": "175.50000000"
  },
  {
    "name": "Ngunguru",
    "countryCode": "NZ",
    "stateCode": "NTL",
    "latitude": "-35.61667000",
    "longitude": "174.50000000"
  },
  {
    "name": "North Shore",
    "countryCode": "NZ",
    "stateCode": "AUK",
    "latitude": "-36.80000000",
    "longitude": "174.75000000"
  },
  {
    "name": "Oamaru",
    "countryCode": "NZ",
    "stateCode": "OTA",
    "latitude": "-45.09758000",
    "longitude": "170.97087000"
  },
  {
    "name": "Opotiki",
    "countryCode": "NZ",
    "stateCode": "BOP",
    "latitude": "-38.00915000",
    "longitude": "177.28706000"
  },
  {
    "name": "Opunake",
    "countryCode": "NZ",
    "stateCode": "TKI",
    "latitude": "-39.45556000",
    "longitude": "173.85833000"
  },
  {
    "name": "Otaki",
    "countryCode": "NZ",
    "stateCode": "WGN",
    "latitude": "-40.75833000",
    "longitude": "175.15000000"
  },
  {
    "name": "Otorohanga",
    "countryCode": "NZ",
    "stateCode": "WKO",
    "latitude": "-38.18333000",
    "longitude": "175.20000000"
  },
  {
    "name": "Oxford",
    "countryCode": "NZ",
    "stateCode": "CAN",
    "latitude": "-43.30000000",
    "longitude": "172.18333000"
  },
  {
    "name": "Paeroa",
    "countryCode": "NZ",
    "stateCode": "WKO",
    "latitude": "-37.36667000",
    "longitude": "175.66667000"
  },
  {
    "name": "Paihia",
    "countryCode": "NZ",
    "stateCode": "NTL",
    "latitude": "-35.28067000",
    "longitude": "174.09103000"
  },
  {
    "name": "Pakuranga",
    "countryCode": "NZ",
    "stateCode": "AUK",
    "latitude": "-36.88333000",
    "longitude": "174.91667000"
  },
  {
    "name": "Palmerston North",
    "countryCode": "NZ",
    "stateCode": "MWT",
    "latitude": "-40.35636000",
    "longitude": "175.61113000"
  },
  {
    "name": "Papakura",
    "countryCode": "NZ",
    "stateCode": "AUK",
    "latitude": "-37.06573000",
    "longitude": "174.94393000"
  },
  {
    "name": "Papatowai",
    "countryCode": "NZ",
    "stateCode": "OTA",
    "latitude": "-46.56069000",
    "longitude": "169.47068000"
  },
  {
    "name": "Parakai",
    "countryCode": "NZ",
    "stateCode": "AUK",
    "latitude": "-36.65000000",
    "longitude": "174.43333000"
  },
  {
    "name": "Paraparaumu",
    "countryCode": "NZ",
    "stateCode": "WGN",
    "latitude": "-40.91667000",
    "longitude": "175.01667000"
  },
  {
    "name": "Patea",
    "countryCode": "NZ",
    "stateCode": "TKI",
    "latitude": "-39.75833000",
    "longitude": "174.48333000"
  },
  {
    "name": "Petone",
    "countryCode": "NZ",
    "stateCode": "WGN",
    "latitude": "-41.22827000",
    "longitude": "174.87019000"
  },
  {
    "name": "Picton",
    "countryCode": "NZ",
    "stateCode": "MBH",
    "latitude": "-41.29067000",
    "longitude": "174.00801000"
  },
  {
    "name": "Pleasant Point",
    "countryCode": "NZ",
    "stateCode": "CAN",
    "latitude": "-44.26667000",
    "longitude": "171.13333000"
  },
  {
    "name": "Porirua",
    "countryCode": "NZ",
    "stateCode": "WGN",
    "latitude": "-41.13333000",
    "longitude": "174.85000000"
  },
  {
    "name": "Portobello",
    "countryCode": "NZ",
    "stateCode": "OTA",
    "latitude": "-45.85000000",
    "longitude": "170.65000000"
  },
  {
    "name": "Prebbleton",
    "countryCode": "NZ",
    "stateCode": "CAN",
    "latitude": "-43.58333000",
    "longitude": "172.51667000"
  },
  {
    "name": "Pukekohe East",
    "countryCode": "NZ",
    "stateCode": "AUK",
    "latitude": "-37.20000000",
    "longitude": "174.95000000"
  },
  {
    "name": "Queenstown",
    "countryCode": "NZ",
    "stateCode": "OTA",
    "latitude": "-45.03023000",
    "longitude": "168.66271000"
  },
  {
    "name": "Raglan",
    "countryCode": "NZ",
    "stateCode": "WKO",
    "latitude": "-37.80000000",
    "longitude": "174.88333000"
  },
  {
    "name": "Rakaia",
    "countryCode": "NZ",
    "stateCode": "CAN",
    "latitude": "-43.75000000",
    "longitude": "172.01667000"
  },
  {
    "name": "Red Hill",
    "countryCode": "NZ",
    "stateCode": "AUK",
    "latitude": "-37.05820000",
    "longitude": "174.97019000"
  },
  {
    "name": "Richmond",
    "countryCode": "NZ",
    "stateCode": "TAS",
    "latitude": "-41.33333000",
    "longitude": "173.18333000"
  },
  {
    "name": "Riverton",
    "countryCode": "NZ",
    "stateCode": "STL",
    "latitude": "-46.35000000",
    "longitude": "168.01667000"
  },
  {
    "name": "Rolleston",
    "countryCode": "NZ",
    "stateCode": "CAN",
    "latitude": "-43.58333000",
    "longitude": "172.38333000"
  },
  {
    "name": "Rosebank",
    "countryCode": "NZ",
    "stateCode": "AUK",
    "latitude": "-36.87495000",
    "longitude": "174.66991000"
  },
  {
    "name": "Rothesay Bay",
    "countryCode": "NZ",
    "stateCode": "AUK",
    "latitude": "-36.72602000",
    "longitude": "174.74064000"
  },
  {
    "name": "Rotorua",
    "countryCode": "NZ",
    "stateCode": "BOP",
    "latitude": "-38.13874000",
    "longitude": "176.24516000"
  },
  {
    "name": "Ruakaka",
    "countryCode": "NZ",
    "stateCode": "NTL",
    "latitude": "-35.90818000",
    "longitude": "174.45019000"
  },
  {
    "name": "Selwyn District",
    "countryCode": "NZ",
    "stateCode": "CAN",
    "latitude": "-43.32226000",
    "longitude": "171.87064000"
  },
  {
    "name": "South Taranaki District",
    "countryCode": "NZ",
    "stateCode": "TKI",
    "latitude": "-39.52156000",
    "longitude": "174.37160000"
  },
  {
    "name": "South Waikato District",
    "countryCode": "NZ",
    "stateCode": "WKO",
    "latitude": "-38.16797000",
    "longitude": "175.88624000"
  },
  {
    "name": "South Wairarapa District",
    "countryCode": "NZ",
    "stateCode": "WGN",
    "latitude": "-41.26731000",
    "longitude": "175.38442000"
  },
  {
    "name": "Southland District",
    "countryCode": "NZ",
    "stateCode": "STL",
    "latitude": "-45.77256000",
    "longitude": "167.85266000"
  },
  {
    "name": "Taipa",
    "countryCode": "NZ",
    "stateCode": "NTL",
    "latitude": "-34.99604000",
    "longitude": "173.46665000"
  },
  {
    "name": "Tairua",
    "countryCode": "NZ",
    "stateCode": "WKO",
    "latitude": "-37.01667000",
    "longitude": "175.85000000"
  },
  {
    "name": "Takaka",
    "countryCode": "NZ",
    "stateCode": "TAS",
    "latitude": "-40.85000000",
    "longitude": "172.80000000"
  },
  {
    "name": "Takanini",
    "countryCode": "NZ",
    "stateCode": "AUK",
    "latitude": "-37.04820000",
    "longitude": "174.90019000"
  },
  {
    "name": "Tamaki",
    "countryCode": "NZ",
    "stateCode": "AUK",
    "latitude": "-36.88820000",
    "longitude": "174.86019000"
  },
  {
    "name": "Taradale",
    "countryCode": "NZ",
    "stateCode": "HKB",
    "latitude": "-39.53333000",
    "longitude": "176.85000000"
  },
  {
    "name": "Taupo",
    "countryCode": "NZ",
    "stateCode": "WKO",
    "latitude": "-38.68333000",
    "longitude": "176.08333000"
  },
  {
    "name": "Tauranga",
    "countryCode": "NZ",
    "stateCode": "BOP",
    "latitude": "-37.68611000",
    "longitude": "176.16667000"
  },
  {
    "name": "Te Anau",
    "countryCode": "NZ",
    "stateCode": "STL",
    "latitude": "-45.41667000",
    "longitude": "167.71667000"
  },
  {
    "name": "Te Kauwhata",
    "countryCode": "NZ",
    "stateCode": "WKO",
    "latitude": "-37.40000000",
    "longitude": "175.15000000"
  },
  {
    "name": "Thames",
    "countryCode": "NZ",
    "stateCode": "WKO",
    "latitude": "-37.13832000",
    "longitude": "175.54011000"
  },
  {
    "name": "Timaru",
    "countryCode": "NZ",
    "stateCode": "CAN",
    "latitude": "-44.39672000",
    "longitude": "171.25364000"
  },
  {
    "name": "Timaru District",
    "countryCode": "NZ",
    "stateCode": "CAN",
    "latitude": "-44.40000000",
    "longitude": "171.21667000"
  },
  {
    "name": "Tinwald",
    "countryCode": "NZ",
    "stateCode": "CAN",
    "latitude": "-43.91667000",
    "longitude": "171.71667000"
  },
  {
    "name": "Titirangi",
    "countryCode": "NZ",
    "stateCode": "AUK",
    "latitude": "-36.93754000",
    "longitude": "174.65584000"
  },
  {
    "name": "Tokoroa",
    "countryCode": "NZ",
    "stateCode": "WKO",
    "latitude": "-38.23333000",
    "longitude": "175.86667000"
  },
  {
    "name": "Turangi",
    "countryCode": "NZ",
    "stateCode": "WKO",
    "latitude": "-38.99037000",
    "longitude": "175.80837000"
  },
  {
    "name": "Upper Hutt",
    "countryCode": "NZ",
    "stateCode": "WGN",
    "latitude": "-41.13827000",
    "longitude": "175.05020000"
  },
  {
    "name": "Waihi",
    "countryCode": "NZ",
    "stateCode": "WKO",
    "latitude": "-37.38333000",
    "longitude": "175.83333000"
  },
  {
    "name": "Waihi Beach",
    "countryCode": "NZ",
    "stateCode": "BOP",
    "latitude": "-37.40000000",
    "longitude": "175.93333000"
  },
  {
    "name": "Waimakariri District",
    "countryCode": "NZ",
    "stateCode": "CAN",
    "latitude": "-43.20750000",
    "longitude": "172.33286000"
  },
  {
    "name": "Waimate North",
    "countryCode": "NZ",
    "stateCode": "NTL",
    "latitude": "-35.31667000",
    "longitude": "173.88333000"
  },
  {
    "name": "Waiouru",
    "countryCode": "NZ",
    "stateCode": "MWT",
    "latitude": "-39.47753000",
    "longitude": "175.66834000"
  },
  {
    "name": "Waipawa",
    "countryCode": "NZ",
    "stateCode": "WGN",
    "latitude": "-41.41222000",
    "longitude": "175.51528000"
  },
  {
    "name": "Wairoa",
    "countryCode": "NZ",
    "stateCode": "HKB",
    "latitude": "-39.03333000",
    "longitude": "177.36667000"
  },
  {
    "name": "Waitakere",
    "countryCode": "NZ",
    "stateCode": "AUK",
    "latitude": "-36.91754000",
    "longitude": "174.65773000"
  },
  {
    "name": "Waitangi",
    "countryCode": "NZ",
    "stateCode": "CIT",
    "latitude": "-43.95353000",
    "longitude": "-176.55973000"
  },
  {
    "name": "Waitara",
    "countryCode": "NZ",
    "stateCode": "TKI",
    "latitude": "-39.00158000",
    "longitude": "174.23836000"
  },
  {
    "name": "Waiuku",
    "countryCode": "NZ",
    "stateCode": "AUK",
    "latitude": "-37.24806000",
    "longitude": "174.73489000"
  },
  {
    "name": "Wakefield",
    "countryCode": "NZ",
    "stateCode": "TAS",
    "latitude": "-41.40000000",
    "longitude": "173.05000000"
  },
  {
    "name": "Wanaka",
    "countryCode": "NZ",
    "stateCode": "OTA",
    "latitude": "-44.70000000",
    "longitude": "169.15000000"
  },
  {
    "name": "Wanganui",
    "countryCode": "NZ",
    "stateCode": "MWT",
    "latitude": "-39.93333000",
    "longitude": "175.05000000"
  },
  {
    "name": "Warkworth",
    "countryCode": "NZ",
    "stateCode": "AUK",
    "latitude": "-36.40000000",
    "longitude": "174.66667000"
  },
  {
    "name": "Wellington",
    "countryCode": "NZ",
    "stateCode": "WGN",
    "latitude": "-41.28664000",
    "longitude": "174.77557000"
  },
  {
    "name": "Wellington City",
    "countryCode": "NZ",
    "stateCode": "WGN",
    "latitude": "-41.25300000",
    "longitude": "174.75424000"
  },
  {
    "name": "Wellsford",
    "countryCode": "NZ",
    "stateCode": "AUK",
    "latitude": "-36.28333000",
    "longitude": "174.51667000"
  },
  {
    "name": "Westport",
    "countryCode": "NZ",
    "stateCode": "WTC",
    "latitude": "-41.75262000",
    "longitude": "171.60370000"
  },
  {
    "name": "Whakatane",
    "countryCode": "NZ",
    "stateCode": "BOP",
    "latitude": "-37.95855000",
    "longitude": "176.98545000"
  },
  {
    "name": "Whangamata",
    "countryCode": "NZ",
    "stateCode": "WKO",
    "latitude": "-37.20000000",
    "longitude": "175.86667000"
  },
  {
    "name": "Whangarei",
    "countryCode": "NZ",
    "stateCode": "NTL",
    "latitude": "-35.73167000",
    "longitude": "174.32391000"
  },
  {
    "name": "Whitianga",
    "countryCode": "NZ",
    "stateCode": "WKO",
    "latitude": "-36.83333000",
    "longitude": "175.70000000"
  },
  {
    "name": "Winton",
    "countryCode": "NZ",
    "stateCode": "STL",
    "latitude": "-46.15000000",
    "longitude": "168.33333000"
  },
  {
    "name": "Wiri",
    "countryCode": "NZ",
    "stateCode": "AUK",
    "latitude": "-36.99820000",
    "longitude": "174.86019000"
  },
  {
    "name": "Woodend",
    "countryCode": "NZ",
    "stateCode": "CAN",
    "latitude": "-43.31667000",
    "longitude": "172.66667000"
  }
]