[
  {
    "name": "Anse Boileau",
    "countryCode": "SC",
    "stateCode": "02",
    "latitude": "-4.71667000",
    "longitude": "55.48333000"
  },
  {
    "name": "Anse Royale",
    "countryCode": "SC",
    "stateCode": "05",
    "latitude": "-4.73333000",
    "longitude": "55.51667000"
  },
  {
    "name": "Beau Vallon",
    "countryCode": "SC",
    "stateCode": "08",
    "latitude": "-4.62091000",
    "longitude": "55.43015000"
  },
  {
    "name": "Bel Ombre",
    "countryCode": "SC",
    "stateCode": "10",
    "latitude": "-4.61667000",
    "longitude": "55.41667000"
  },
  {
    "name": "Cascade",
    "countryCode": "SC",
    "stateCode": "11",
    "latitude": "-4.66667000",
    "longitude": "55.50000000"
  },
  {
    "name": "Port Glaud",
    "countryCode": "SC",
    "stateCode": "21",
    "latitude": "-4.66667000",
    "longitude": "55.41667000"
  },
  {
    "name": "Takamaka",
    "countryCode": "SC",
    "stateCode": "23",
    "latitude": "-4.76667000",
    "longitude": "55.50000000"
  },
  {
    "name": "Victoria",
    "countryCode": "SC",
    "stateCode": "16",
    "latitude": "-4.62001000",
    "longitude": "55.45501000"
  }
]