[
  {
    "name": "Acquaviva",
    "countryCode": "SM",
    "stateCode": "01",
    "latitude": "43.94593000",
    "longitude": "12.41850000"
  },
  {
    "name": "Borgo Maggiore",
    "countryCode": "SM",
    "stateCode": "06",
    "latitude": "43.94193000",
    "longitude": "12.44738000"
  },
  {
    "name": "Domagnano",
    "countryCode": "SM",
    "stateCode": "03",
    "latitude": "43.94961000",
    "longitude": "12.46828000"
  },
  {
    "name": "Faetano",
    "countryCode": "SM",
    "stateCode": "04",
    "latitude": "43.92831000",
    "longitude": "12.49798000"
  },
  {
    "name": "Fiorentino",
    "countryCode": "SM",
    "stateCode": "05",
    "latitude": "43.91001000",
    "longitude": "12.45738000"
  },
  {
    "name": "Monte Giardino",
    "countryCode": "SM",
    "stateCode": "08",
    "latitude": "43.90878000",
    "longitude": "12.48201000"
  },
  {
    "name": "Poggio di Chiesanuova",
    "countryCode": "SM",
    "stateCode": "02",
    "latitude": "43.90451000",
    "longitude": "12.42142000"
  },
  {
    "name": "San Marino",
    "countryCode": "SM",
    "stateCode": "07",
    "latitude": "43.93667000",
    "longitude": "12.44639000"
  },
  {
    "name": "Serravalle",
    "countryCode": "SM",
    "stateCode": "09",
    "latitude": "43.96897000",
    "longitude": "12.48167000"
  }
]