[
  {
    "name": "Acajutla",
    "countryCode": "SV",
    "stateCode": "SO",
    "latitude": "13.59278000",
    "longitude": "-89.82750000"
  },
  {
    "name": "Aguilares",
    "countryCode": "SV",
    "stateCode": "SS",
    "latitude": "13.95722000",
    "longitude": "-89.18972000"
  },
  {
    "name": "Ahuachapán",
    "countryCode": "SV",
    "stateCode": "AH",
    "latitude": "13.92139000",
    "longitude": "-89.84500000"
  },
  {
    "name": "Anamorós",
    "countryCode": "SV",
    "stateCode": "UN",
    "latitude": "13.74056000",
    "longitude": "-87.87361000"
  },
  {
    "name": "Antiguo Cuscatlán",
    "countryCode": "SV",
    "stateCode": "LI",
    "latitude": "13.66492000",
    "longitude": "-89.25319000"
  },
  {
    "name": "Apastepeque",
    "countryCode": "SV",
    "stateCode": "SV",
    "latitude": "13.66667000",
    "longitude": "-88.78333000"
  },
  {
    "name": "Apopa",
    "countryCode": "SV",
    "stateCode": "SS",
    "latitude": "13.80722000",
    "longitude": "-89.17917000"
  },
  {
    "name": "Armenia",
    "countryCode": "SV",
    "stateCode": "SO",
    "latitude": "13.74361000",
    "longitude": "-89.49889000"
  },
  {
    "name": "Atiquizaya",
    "countryCode": "SV",
    "stateCode": "AH",
    "latitude": "13.97694000",
    "longitude": "-89.75250000"
  },
  {
    "name": "Ayutuxtepeque",
    "countryCode": "SV",
    "stateCode": "SS",
    "latitude": "13.74556000",
    "longitude": "-89.20639000"
  },
  {
    "name": "Berlín",
    "countryCode": "SV",
    "stateCode": "US",
    "latitude": "13.50000000",
    "longitude": "-88.53333000"
  },
  {
    "name": "Cacaopera",
    "countryCode": "SV",
    "stateCode": "MO",
    "latitude": "13.76667000",
    "longitude": "-88.08333000"
  },
  {
    "name": "Candelaria de La Frontera",
    "countryCode": "SV",
    "stateCode": "SA",
    "latitude": "14.11667000",
    "longitude": "-89.65000000"
  },
  {
    "name": "Chalatenango",
    "countryCode": "SV",
    "stateCode": "CH",
    "latitude": "14.03333000",
    "longitude": "-88.93333000"
  },
  {
    "name": "Chalchuapa",
    "countryCode": "SV",
    "stateCode": "SA",
    "latitude": "13.98667000",
    "longitude": "-89.68111000"
  },
  {
    "name": "Chapeltique",
    "countryCode": "SV",
    "stateCode": "SM",
    "latitude": "13.63333000",
    "longitude": "-88.26667000"
  },
  {
    "name": "Chinameca",
    "countryCode": "SV",
    "stateCode": "SM",
    "latitude": "13.50000000",
    "longitude": "-88.35000000"
  },
  {
    "name": "Chirilagua",
    "countryCode": "SV",
    "stateCode": "SM",
    "latitude": "13.22028000",
    "longitude": "-88.13861000"
  },
  {
    "name": "Ciudad Arce",
    "countryCode": "SV",
    "stateCode": "LI",
    "latitude": "13.84028000",
    "longitude": "-89.44722000"
  },
  {
    "name": "Ciudad Barrios",
    "countryCode": "SV",
    "stateCode": "SM",
    "latitude": "13.76667000",
    "longitude": "-88.26667000"
  },
  {
    "name": "Coatepeque",
    "countryCode": "SV",
    "stateCode": "SA",
    "latitude": "13.92861000",
    "longitude": "-89.50417000"
  },
  {
    "name": "Cojutepeque",
    "countryCode": "SV",
    "stateCode": "CU",
    "latitude": "13.71667000",
    "longitude": "-88.93333000"
  },
  {
    "name": "Concepción Batres",
    "countryCode": "SV",
    "stateCode": "US",
    "latitude": "13.35000000",
    "longitude": "-88.36667000"
  },
  {
    "name": "Concepción de Ataco",
    "countryCode": "SV",
    "stateCode": "AH",
    "latitude": "13.87028000",
    "longitude": "-89.84861000"
  },
  {
    "name": "Conchagua",
    "countryCode": "SV",
    "stateCode": "UN",
    "latitude": "13.30778000",
    "longitude": "-87.86472000"
  },
  {
    "name": "Corinto",
    "countryCode": "SV",
    "stateCode": "MO",
    "latitude": "13.81083000",
    "longitude": "-87.97139000"
  },
  {
    "name": "Cuscatancingo",
    "countryCode": "SV",
    "stateCode": "SS",
    "latitude": "13.73611000",
    "longitude": "-89.18139000"
  },
  {
    "name": "Delgado",
    "countryCode": "SV",
    "stateCode": "SS",
    "latitude": "13.72417000",
    "longitude": "-89.17028000"
  },
  {
    "name": "El Congo",
    "countryCode": "SV",
    "stateCode": "SA",
    "latitude": "13.90889000",
    "longitude": "-89.49583000"
  },
  {
    "name": "El Paisnal",
    "countryCode": "SV",
    "stateCode": "SS",
    "latitude": "13.97361000",
    "longitude": "-89.21861000"
  },
  {
    "name": "El Rosario",
    "countryCode": "SV",
    "stateCode": "PA",
    "latitude": "13.49778000",
    "longitude": "-89.02972000"
  },
  {
    "name": "El Tránsito",
    "countryCode": "SV",
    "stateCode": "SM",
    "latitude": "13.35000000",
    "longitude": "-88.35000000"
  },
  {
    "name": "Guatajiagua",
    "countryCode": "SV",
    "stateCode": "MO",
    "latitude": "13.66667000",
    "longitude": "-88.20000000"
  },
  {
    "name": "Guaymango",
    "countryCode": "SV",
    "stateCode": "AH",
    "latitude": "13.75028000",
    "longitude": "-89.84222000"
  },
  {
    "name": "Guazapa",
    "countryCode": "SV",
    "stateCode": "SS",
    "latitude": "13.87694000",
    "longitude": "-89.17306000"
  },
  {
    "name": "Ilopango",
    "countryCode": "SV",
    "stateCode": "SS",
    "latitude": "13.70167000",
    "longitude": "-89.10944000"
  },
  {
    "name": "Intipucá",
    "countryCode": "SV",
    "stateCode": "UN",
    "latitude": "13.19694000",
    "longitude": "-88.05444000"
  },
  {
    "name": "Izalco",
    "countryCode": "SV",
    "stateCode": "SO",
    "latitude": "13.74472000",
    "longitude": "-89.67306000"
  },
  {
    "name": "Jiquilisco",
    "countryCode": "SV",
    "stateCode": "US",
    "latitude": "13.31667000",
    "longitude": "-88.58333000"
  },
  {
    "name": "Jocoro",
    "countryCode": "SV",
    "stateCode": "MO",
    "latitude": "13.61667000",
    "longitude": "-88.01667000"
  },
  {
    "name": "Juayúa",
    "countryCode": "SV",
    "stateCode": "SO",
    "latitude": "13.84139000",
    "longitude": "-89.74556000"
  },
  {
    "name": "Jucuapa",
    "countryCode": "SV",
    "stateCode": "US",
    "latitude": "13.51667000",
    "longitude": "-88.38333000"
  },
  {
    "name": "Jucuarán",
    "countryCode": "SV",
    "stateCode": "US",
    "latitude": "13.25389000",
    "longitude": "-88.24778000"
  },
  {
    "name": "Jujutla",
    "countryCode": "SV",
    "stateCode": "AH",
    "latitude": "13.78694000",
    "longitude": "-89.85722000"
  },
  {
    "name": "La Libertad",
    "countryCode": "SV",
    "stateCode": "LI",
    "latitude": "13.48833000",
    "longitude": "-89.32222000"
  },
  {
    "name": "La Unión",
    "countryCode": "SV",
    "stateCode": "UN",
    "latitude": "13.33694000",
    "longitude": "-87.84389000"
  },
  {
    "name": "Lolotique",
    "countryCode": "SV",
    "stateCode": "SM",
    "latitude": "13.55000000",
    "longitude": "-88.35000000"
  },
  {
    "name": "Mejicanos",
    "countryCode": "SV",
    "stateCode": "SS",
    "latitude": "13.74028000",
    "longitude": "-89.21306000"
  },
  {
    "name": "Metapán",
    "countryCode": "SV",
    "stateCode": "SA",
    "latitude": "14.33333000",
    "longitude": "-89.45000000"
  },
  {
    "name": "Moncagua",
    "countryCode": "SV",
    "stateCode": "SM",
    "latitude": "13.53333000",
    "longitude": "-88.25000000"
  },
  {
    "name": "Nahuizalco",
    "countryCode": "SV",
    "stateCode": "SO",
    "latitude": "13.77750000",
    "longitude": "-89.73667000"
  },
  {
    "name": "Nueva Concepción",
    "countryCode": "SV",
    "stateCode": "CH",
    "latitude": "14.13333000",
    "longitude": "-89.30000000"
  },
  {
    "name": "Nueva Esparta",
    "countryCode": "SV",
    "stateCode": "UN",
    "latitude": "13.78361000",
    "longitude": "-87.83861000"
  },
  {
    "name": "Nueva Guadalupe",
    "countryCode": "SV",
    "stateCode": "SM",
    "latitude": "13.53333000",
    "longitude": "-88.35000000"
  },
  {
    "name": "Nuevo Cuscatlán",
    "countryCode": "SV",
    "stateCode": "LI",
    "latitude": "13.64861000",
    "longitude": "-89.26528000"
  },
  {
    "name": "Olocuilta",
    "countryCode": "SV",
    "stateCode": "PA",
    "latitude": "13.56972000",
    "longitude": "-89.11722000"
  },
  {
    "name": "Ozatlán",
    "countryCode": "SV",
    "stateCode": "US",
    "latitude": "13.38333000",
    "longitude": "-88.50000000"
  },
  {
    "name": "Panchimalco",
    "countryCode": "SV",
    "stateCode": "SS",
    "latitude": "13.61278000",
    "longitude": "-89.18000000"
  },
  {
    "name": "Pasaquina",
    "countryCode": "SV",
    "stateCode": "UN",
    "latitude": "13.58444000",
    "longitude": "-87.84111000"
  },
  {
    "name": "Puerto El Triunfo",
    "countryCode": "SV",
    "stateCode": "US",
    "latitude": "13.28333000",
    "longitude": "-88.55000000"
  },
  {
    "name": "Quezaltepeque",
    "countryCode": "SV",
    "stateCode": "LI",
    "latitude": "13.83124000",
    "longitude": "-89.27221000"
  },
  {
    "name": "Rosario de Mora",
    "countryCode": "SV",
    "stateCode": "SS",
    "latitude": "13.57528000",
    "longitude": "-89.20889000"
  },
  {
    "name": "San Agustín",
    "countryCode": "SV",
    "stateCode": "US",
    "latitude": "13.43333000",
    "longitude": "-88.60000000"
  },
  {
    "name": "San Alejo",
    "countryCode": "SV",
    "stateCode": "UN",
    "latitude": "13.43139000",
    "longitude": "-87.96306000"
  },
  {
    "name": "San Antonio del Monte",
    "countryCode": "SV",
    "stateCode": "SO",
    "latitude": "13.71639000",
    "longitude": "-89.73833000"
  },
  {
    "name": "San Francisco",
    "countryCode": "SV",
    "stateCode": "MO",
    "latitude": "13.70000000",
    "longitude": "-88.10000000"
  },
  {
    "name": "San Francisco Menéndez",
    "countryCode": "SV",
    "stateCode": "AH",
    "latitude": "13.84306000",
    "longitude": "-90.01583000"
  },
  {
    "name": "San Juan Opico",
    "countryCode": "SV",
    "stateCode": "LI",
    "latitude": "13.87611000",
    "longitude": "-89.35972000"
  },
  {
    "name": "San Marcos",
    "countryCode": "SV",
    "stateCode": "SS",
    "latitude": "13.65889000",
    "longitude": "-89.18306000"
  },
  {
    "name": "San Martín",
    "countryCode": "SV",
    "stateCode": "CU",
    "latitude": "13.78333000",
    "longitude": "-88.91667000"
  },
  {
    "name": "San Miguel",
    "countryCode": "SV",
    "stateCode": "SM",
    "latitude": "13.48333000",
    "longitude": "-88.18333000"
  },
  {
    "name": "San Pablo Tacachico",
    "countryCode": "SV",
    "stateCode": "LI",
    "latitude": "13.97556000",
    "longitude": "-89.34000000"
  },
  {
    "name": "San Pedro Masahuat",
    "countryCode": "SV",
    "stateCode": "PA",
    "latitude": "13.54361000",
    "longitude": "-89.03861000"
  },
  {
    "name": "San Rafael Oriente",
    "countryCode": "SV",
    "stateCode": "SM",
    "latitude": "13.38333000",
    "longitude": "-88.35000000"
  },
  {
    "name": "San Salvador",
    "countryCode": "SV",
    "stateCode": "SS",
    "latitude": "13.68935000",
    "longitude": "-89.18718000"
  },
  {
    "name": "San Sebastián",
    "countryCode": "SV",
    "stateCode": "SV",
    "latitude": "13.73333000",
    "longitude": "-88.83333000"
  },
  {
    "name": "San Vicente",
    "countryCode": "SV",
    "stateCode": "SV",
    "latitude": "13.63333000",
    "longitude": "-88.80000000"
  },
  {
    "name": "Santa Ana",
    "countryCode": "SV",
    "stateCode": "SA",
    "latitude": "13.99417000",
    "longitude": "-89.55972000"
  },
  {
    "name": "Santa Elena",
    "countryCode": "SV",
    "stateCode": "US",
    "latitude": "13.38333000",
    "longitude": "-88.41667000"
  },
  {
    "name": "Santa Rosa de Lima",
    "countryCode": "SV",
    "stateCode": "UN",
    "latitude": "13.62472000",
    "longitude": "-87.89361000"
  },
  {
    "name": "Santa Tecla",
    "countryCode": "SV",
    "stateCode": "LI",
    "latitude": "13.67694000",
    "longitude": "-89.27972000"
  },
  {
    "name": "Santiago Nonualco",
    "countryCode": "SV",
    "stateCode": "PA",
    "latitude": "13.51667000",
    "longitude": "-88.95000000"
  },
  {
    "name": "Santiago de María",
    "countryCode": "SV",
    "stateCode": "US",
    "latitude": "13.48333000",
    "longitude": "-88.46667000"
  },
  {
    "name": "Santo Tomás",
    "countryCode": "SV",
    "stateCode": "SS",
    "latitude": "13.64083000",
    "longitude": "-89.13333000"
  },
  {
    "name": "Sensuntepeque",
    "countryCode": "SV",
    "stateCode": "CA",
    "latitude": "13.86667000",
    "longitude": "-88.63333000"
  },
  {
    "name": "Sesori",
    "countryCode": "SV",
    "stateCode": "SM",
    "latitude": "13.71667000",
    "longitude": "-88.36667000"
  },
  {
    "name": "Sociedad",
    "countryCode": "SV",
    "stateCode": "MO",
    "latitude": "13.70000000",
    "longitude": "-88.01667000"
  },
  {
    "name": "Sonsonate",
    "countryCode": "SV",
    "stateCode": "SO",
    "latitude": "13.71889000",
    "longitude": "-89.72417000"
  },
  {
    "name": "Sonzacate",
    "countryCode": "SV",
    "stateCode": "SO",
    "latitude": "13.73417000",
    "longitude": "-89.71472000"
  },
  {
    "name": "Soyapango",
    "countryCode": "SV",
    "stateCode": "SS",
    "latitude": "13.71024000",
    "longitude": "-89.13989000"
  },
  {
    "name": "Suchitoto",
    "countryCode": "SV",
    "stateCode": "CU",
    "latitude": "13.93806000",
    "longitude": "-89.02778000"
  },
  {
    "name": "Tacuba",
    "countryCode": "SV",
    "stateCode": "AH",
    "latitude": "13.90111000",
    "longitude": "-89.92972000"
  },
  {
    "name": "Tecoluca",
    "countryCode": "SV",
    "stateCode": "CU",
    "latitude": "13.78917000",
    "longitude": "-89.00528000"
  },
  {
    "name": "Tenancingo",
    "countryCode": "SV",
    "stateCode": "CU",
    "latitude": "13.83333000",
    "longitude": "-88.98333000"
  },
  {
    "name": "Texistepeque",
    "countryCode": "SV",
    "stateCode": "SA",
    "latitude": "14.13333000",
    "longitude": "-89.50000000"
  },
  {
    "name": "Tonacatepeque",
    "countryCode": "SV",
    "stateCode": "SS",
    "latitude": "13.78111000",
    "longitude": "-89.11861000"
  },
  {
    "name": "Usulután",
    "countryCode": "SV",
    "stateCode": "US",
    "latitude": "13.35000000",
    "longitude": "-88.45000000"
  },
  {
    "name": "Victoria",
    "countryCode": "SV",
    "stateCode": "CA",
    "latitude": "13.95000000",
    "longitude": "-88.63333000"
  },
  {
    "name": "Zacatecoluca",
    "countryCode": "SV",
    "stateCode": "PA",
    "latitude": "13.50000000",
    "longitude": "-88.86667000"
  },
  {
    "name": "Zaragoza",
    "countryCode": "SV",
    "stateCode": "LI",
    "latitude": "13.58944000",
    "longitude": "-89.28889000"
  }
]