[
  {
    "name": "Abdurahmoni Jomí",
    "countryCode": "TJ",
    "stateCode": "KT",
    "latitude": "37.94636000",
    "longitude": "68.80878000"
  },
  {
    "name": "Adrasmon",
    "countryCode": "TJ",
    "stateCode": "SU",
    "latitude": "40.64928000",
    "longitude": "69.98472000"
  },
  {
    "name": "Ayní",
    "countryCode": "TJ",
    "stateCode": "SU",
    "latitude": "39.39406000",
    "longitude": "68.53766000"
  },
  {
    "name": "Boshchorbogh",
    "countryCode": "TJ",
    "stateCode": "KT",
    "latitude": "37.52027000",
    "longitude": "68.12825000"
  },
  {
    "name": "Bŭston",
    "countryCode": "TJ",
    "stateCode": "SU",
    "latitude": "40.52286000",
    "longitude": "69.33307000"
  },
  {
    "name": "Bŭstonqal’a",
    "countryCode": "TJ",
    "stateCode": "KT",
    "latitude": "37.84783000",
    "longitude": "68.83125000"
  },
  {
    "name": "Chkalov",
    "countryCode": "TJ",
    "stateCode": "SU",
    "latitude": "40.23417000",
    "longitude": "69.69481000"
  },
  {
    "name": "Chubek",
    "countryCode": "TJ",
    "stateCode": "KT",
    "latitude": "37.61453000",
    "longitude": "69.70525000"
  },
  {
    "name": "Danghara",
    "countryCode": "TJ",
    "stateCode": "KT",
    "latitude": "38.09578000",
    "longitude": "69.33998000"
  },
  {
    "name": "Darband",
    "countryCode": "TJ",
    "stateCode": "RA",
    "latitude": "38.86776000",
    "longitude": "69.96642000"
  },
  {
    "name": "Dŭstí",
    "countryCode": "TJ",
    "stateCode": "KT",
    "latitude": "37.34812000",
    "longitude": "68.66398000"
  },
  {
    "name": "Farkhor",
    "countryCode": "TJ",
    "stateCode": "KT",
    "latitude": "37.49219000",
    "longitude": "69.40356000"
  },
  {
    "name": "Ghafurov",
    "countryCode": "TJ",
    "stateCode": "SU",
    "latitude": "40.21571000",
    "longitude": "69.72867000"
  },
  {
    "name": "Gharavŭtí",
    "countryCode": "TJ",
    "stateCode": "KT",
    "latitude": "37.56703000",
    "longitude": "68.44668000"
  },
  {
    "name": "Hisor",
    "countryCode": "TJ",
    "stateCode": "RA",
    "latitude": "38.52504000",
    "longitude": "68.55124000"
  },
  {
    "name": "Isfara",
    "countryCode": "TJ",
    "stateCode": "SU",
    "latitude": "40.12649000",
    "longitude": "70.62526000"
  },
  {
    "name": "Ishqoshim",
    "countryCode": "TJ",
    "stateCode": "GB",
    "latitude": "36.72484000",
    "longitude": "71.61331000"
  },
  {
    "name": "Istaravshan",
    "countryCode": "TJ",
    "stateCode": "SU",
    "latitude": "39.91420000",
    "longitude": "69.00328000"
  },
  {
    "name": "Jilikŭl",
    "countryCode": "TJ",
    "stateCode": "KT",
    "latitude": "37.49167000",
    "longitude": "68.53106000"
  },
  {
    "name": "Karakenja",
    "countryCode": "TJ",
    "stateCode": "RA",
    "latitude": "39.23585000",
    "longitude": "71.52412000"
  },
  {
    "name": "Khodzha-Maston",
    "countryCode": "TJ",
    "stateCode": "RA",
    "latitude": "38.74457000",
    "longitude": "68.62702000"
  },
  {
    "name": "Khorugh",
    "countryCode": "TJ",
    "stateCode": "GB",
    "latitude": "37.48974000",
    "longitude": "71.55304000"
  },
  {
    "name": "Khŭjand",
    "countryCode": "TJ",
    "stateCode": "SU",
    "latitude": "40.28256000",
    "longitude": "69.62216000"
  },
  {
    "name": "Kim",
    "countryCode": "TJ",
    "stateCode": "SU",
    "latitude": "40.20798000",
    "longitude": "70.46882000"
  },
  {
    "name": "Kirov",
    "countryCode": "TJ",
    "stateCode": "KT",
    "latitude": "37.81908000",
    "longitude": "68.85905000"
  },
  {
    "name": "Kolkhozobod",
    "countryCode": "TJ",
    "stateCode": "KT",
    "latitude": "37.58823000",
    "longitude": "68.65886000"
  },
  {
    "name": "Konibodom",
    "countryCode": "TJ",
    "stateCode": "SU",
    "latitude": "40.29414000",
    "longitude": "70.43122000"
  },
  {
    "name": "Konsoy",
    "countryCode": "TJ",
    "stateCode": "SU",
    "latitude": "40.49155000",
    "longitude": "69.70245000"
  },
  {
    "name": "Kŭlob",
    "countryCode": "TJ",
    "stateCode": "KT",
    "latitude": "37.91459000",
    "longitude": "69.78454000"
  },
  {
    "name": "Moskovskiy",
    "countryCode": "TJ",
    "stateCode": "KT",
    "latitude": "37.60931000",
    "longitude": "68.58094000"
  },
  {
    "name": "Murghob",
    "countryCode": "TJ",
    "stateCode": "GB",
    "latitude": "38.17023000",
    "longitude": "73.96674000"
  },
  {
    "name": "Mŭ’minobod",
    "countryCode": "TJ",
    "stateCode": "KT",
    "latitude": "38.10714000",
    "longitude": "70.03213000"
  },
  {
    "name": "Neftobod",
    "countryCode": "TJ",
    "stateCode": "SU",
    "latitude": "40.21524000",
    "longitude": "70.57193000"
  },
  {
    "name": "Nohiyai Kolkhozobod",
    "countryCode": "TJ",
    "stateCode": "KT",
    "latitude": "37.57277000",
    "longitude": "68.81528000"
  },
  {
    "name": "Nohiyai Konibodom",
    "countryCode": "TJ",
    "stateCode": "SU",
    "latitude": "40.26877000",
    "longitude": "70.33057000"
  },
  {
    "name": "Nohiyai Panj",
    "countryCode": "TJ",
    "stateCode": "KT",
    "latitude": "37.31611000",
    "longitude": "69.16679000"
  },
  {
    "name": "Nohiyai Shughnon",
    "countryCode": "TJ",
    "stateCode": "GB",
    "latitude": "37.70004000",
    "longitude": "72.16748000"
  },
  {
    "name": "Nohiyai Vakhsh",
    "countryCode": "TJ",
    "stateCode": "KT",
    "latitude": "37.75602000",
    "longitude": "68.94138000"
  },
  {
    "name": "Norak",
    "countryCode": "TJ",
    "stateCode": "KT",
    "latitude": "38.38917000",
    "longitude": "69.32272000"
  },
  {
    "name": "Nov",
    "countryCode": "TJ",
    "stateCode": "SU",
    "latitude": "40.15220000",
    "longitude": "69.37076000"
  },
  {
    "name": "Novobod",
    "countryCode": "TJ",
    "stateCode": "RA",
    "latitude": "39.01084000",
    "longitude": "70.15082000"
  },
  {
    "name": "Obigarm",
    "countryCode": "TJ",
    "stateCode": "RA",
    "latitude": "38.71731000",
    "longitude": "69.70885000"
  },
  {
    "name": "Oltintopkan",
    "countryCode": "TJ",
    "stateCode": "SU",
    "latitude": "40.65425000",
    "longitude": "69.59811000"
  },
  {
    "name": "Orzu",
    "countryCode": "TJ",
    "stateCode": "KT",
    "latitude": "37.55820000",
    "longitude": "68.81952000"
  },
  {
    "name": "Pakhtakoron",
    "countryCode": "TJ",
    "stateCode": "SU",
    "latitude": "40.15709000",
    "longitude": "68.74659000"
  },
  {
    "name": "Palos",
    "countryCode": "TJ",
    "stateCode": "SU",
    "latitude": "40.31628000",
    "longitude": "69.73743000"
  },
  {
    "name": "Panj",
    "countryCode": "TJ",
    "stateCode": "KT",
    "latitude": "37.23634000",
    "longitude": "69.09911000"
  },
  {
    "name": "Panjakent",
    "countryCode": "TJ",
    "stateCode": "SU",
    "latitude": "39.49524000",
    "longitude": "67.60931000"
  },
  {
    "name": "Proletar",
    "countryCode": "TJ",
    "stateCode": "SU",
    "latitude": "40.16713000",
    "longitude": "69.50163000"
  },
  {
    "name": "Quruqsoy",
    "countryCode": "TJ",
    "stateCode": "SU",
    "latitude": "40.57648000",
    "longitude": "69.37962000"
  },
  {
    "name": "Qŭrghonteppa",
    "countryCode": "TJ",
    "stateCode": "KT",
    "latitude": "37.83399000",
    "longitude": "68.78186000"
  },
  {
    "name": "Rasht",
    "countryCode": "TJ",
    "stateCode": "RA",
    "latitude": "39.02871000",
    "longitude": "70.37446000"
  },
  {
    "name": "Roghun",
    "countryCode": "TJ",
    "stateCode": "RA",
    "latitude": "38.69331000",
    "longitude": "69.73692000"
  },
  {
    "name": "Shahrinav",
    "countryCode": "TJ",
    "stateCode": "RA",
    "latitude": "38.57085000",
    "longitude": "68.33498000"
  },
  {
    "name": "Shahritus",
    "countryCode": "TJ",
    "stateCode": "KT",
    "latitude": "37.26206000",
    "longitude": "68.13849000"
  },
  {
    "name": "Shaydon",
    "countryCode": "TJ",
    "stateCode": "SU",
    "latitude": "40.66992000",
    "longitude": "70.35020000"
  },
  {
    "name": "Shŭrob",
    "countryCode": "TJ",
    "stateCode": "SU",
    "latitude": "40.04605000",
    "longitude": "70.54117000"
  },
  {
    "name": "Sovet",
    "countryCode": "TJ",
    "stateCode": "KT",
    "latitude": "38.04670000",
    "longitude": "69.58822000"
  },
  {
    "name": "Taboshar",
    "countryCode": "TJ",
    "stateCode": "SU",
    "latitude": "40.57017000",
    "longitude": "69.64175000"
  },
  {
    "name": "Tagob",
    "countryCode": "TJ",
    "stateCode": "RA",
    "latitude": "38.83827000",
    "longitude": "68.89847000"
  },
  {
    "name": "Tartiki",
    "countryCode": "TJ",
    "stateCode": "KT",
    "latitude": "37.58221000",
    "longitude": "68.13347000"
  },
  {
    "name": "Tursunzoda",
    "countryCode": "TJ",
    "stateCode": "RA",
    "latitude": "38.51271000",
    "longitude": "68.23163000"
  },
  {
    "name": "Vahdat",
    "countryCode": "TJ",
    "stateCode": "RA",
    "latitude": "38.55632000",
    "longitude": "69.01354000"
  },
  {
    "name": "Vahdat District",
    "countryCode": "TJ",
    "stateCode": "RA",
    "latitude": "38.83333000",
    "longitude": "69.33333000"
  },
  {
    "name": "Vakhsh",
    "countryCode": "TJ",
    "stateCode": "KT",
    "latitude": "37.71485000",
    "longitude": "68.83456000"
  },
  {
    "name": "Varzob",
    "countryCode": "TJ",
    "stateCode": "RA",
    "latitude": "38.77369000",
    "longitude": "68.81776000"
  },
  {
    "name": "Varzob District",
    "countryCode": "TJ",
    "stateCode": "RA",
    "latitude": "38.75000000",
    "longitude": "68.75000000"
  },
  {
    "name": "Vorukh",
    "countryCode": "TJ",
    "stateCode": "SU",
    "latitude": "39.85125000",
    "longitude": "70.58012000"
  },
  {
    "name": "Vose’",
    "countryCode": "TJ",
    "stateCode": "KT",
    "latitude": "37.80396000",
    "longitude": "69.64417000"
  },
  {
    "name": "Yovon",
    "countryCode": "TJ",
    "stateCode": "KT",
    "latitude": "38.31408000",
    "longitude": "69.03784000"
  }
]