[
  {
    "name": "Banqiao",
    "countryCode": "TW",
    "stateCode": "TPE",
    "latitude": "25.01427000",
    "longitude": "121.46719000"
  },
  {
    "name": "Changhua",
    "countryCode": "TW",
    "stateCode": "CHA",
    "latitude": "23.95361000",
    "longitude": "120.49083000"
  },
  {
    "name": "Chiayi",
    "countryCode": "TW",
    "stateCode": "CYI",
    "latitude": "23.47722000",
    "longitude": "120.44527000"
  },
  {
    "name": "Chiayi County",
    "countryCode": "TW",
    "stateCode": "CYQ",
    "latitude": "23.46333000",
    "longitude": "120.58166000"
  },
  {
    "name": "Daxi",
    "countryCode": "TW",
    "stateCode": "TAO",
    "latitude": "24.88373000",
    "longitude": "121.29043000"
  },
  {
    "name": "Donggang",
    "countryCode": "TW",
    "stateCode": "PIF",
    "latitude": "22.46515000",
    "longitude": "120.44927000"
  },
  {
    "name": "Douliu",
    "countryCode": "TW",
    "stateCode": "YUN",
    "latitude": "23.70944000",
    "longitude": "120.54333000"
  },
  {
    "name": "Hengchun",
    "countryCode": "TW",
    "stateCode": "PIF",
    "latitude": "22.00417000",
    "longitude": "120.74389000"
  },
  {
    "name": "Hsinchu",
    "countryCode": "TW",
    "stateCode": "HSQ",
    "latitude": "24.80361000",
    "longitude": "120.96861000"
  },
  {
    "name": "Hsinchu County",
    "countryCode": "TW",
    "stateCode": "HSZ",
    "latitude": "24.67416000",
    "longitude": "121.16111000"
  },
  {
    "name": "Hualien",
    "countryCode": "TW",
    "stateCode": "HUA",
    "latitude": "23.78166000",
    "longitude": "121.39333000"
  },
  {
    "name": "Hualien City",
    "countryCode": "TW",
    "stateCode": "HUA",
    "latitude": "23.97694000",
    "longitude": "121.60444000"
  },
  {
    "name": "Jincheng",
    "countryCode": "TW",
    "stateCode": "KIN",
    "latitude": "24.43415000",
    "longitude": "118.31712000"
  },
  {
    "name": "Jiufen",
    "countryCode": "TW",
    "stateCode": "TPE",
    "latitude": "25.10957000",
    "longitude": "121.84424000"
  },
  {
    "name": "Kaohsiung",
    "countryCode": "TW",
    "stateCode": "KHH",
    "latitude": "22.61626000",
    "longitude": "120.31333000"
  },
  {
    "name": "Kinmen County",
    "countryCode": "TW",
    "stateCode": "KIN",
    "latitude": "24.45333000",
    "longitude": "118.38861000"
  },
  {
    "name": "Lienchiang",
    "countryCode": "TW",
    "stateCode": "LIE",
    "latitude": "26.37004000",
    "longitude": "120.49545000"
  },
  {
    "name": "Lugu",
    "countryCode": "TW",
    "stateCode": "NAN",
    "latitude": "23.74639000",
    "longitude": "120.75250000"
  },
  {
    "name": "Magong",
    "countryCode": "TW",
    "stateCode": "PEN",
    "latitude": "23.56540000",
    "longitude": "119.58627000"
  },
  {
    "name": "Miaoli",
    "countryCode": "TW",
    "stateCode": "MIA",
    "latitude": "24.48972000",
    "longitude": "120.90638000"
  },
  {
    "name": "Nangan",
    "countryCode": "TW",
    "stateCode": "LIE",
    "latitude": "26.15039000",
    "longitude": "119.93284000"
  },
  {
    "name": "Nantou",
    "countryCode": "TW",
    "stateCode": "NAN",
    "latitude": "23.83419000",
    "longitude": "120.92704000"
  },
  {
    "name": "Penghu County",
    "countryCode": "TW",
    "stateCode": "PEN",
    "latitude": "23.57111000",
    "longitude": "119.61138000"
  },
  {
    "name": "Pingtung",
    "countryCode": "TW",
    "stateCode": "PIF",
    "latitude": "22.49555000",
    "longitude": "120.61444000"
  },
  {
    "name": "Pizitou",
    "countryCode": "TW",
    "stateCode": "CYI",
    "latitude": "23.48556000",
    "longitude": "120.44472000"
  },
  {
    "name": "Puli",
    "countryCode": "TW",
    "stateCode": "NAN",
    "latitude": "23.96639000",
    "longitude": "120.96952000"
  },
  {
    "name": "Taichung",
    "countryCode": "TW",
    "stateCode": "TXG",
    "latitude": "24.14690000",
    "longitude": "120.68390000"
  },
  {
    "name": "Taichung City",
    "countryCode": "TW",
    "stateCode": "TXG",
    "latitude": "24.15472000",
    "longitude": "120.67297000"
  },
  {
    "name": "Tainan",
    "countryCode": "TW",
    "stateCode": "TNN",
    "latitude": "22.99083000",
    "longitude": "120.21333000"
  },
  {
    "name": "Taipei",
    "countryCode": "TW",
    "stateCode": "TPE",
    "latitude": "25.04776000",
    "longitude": "121.53185000"
  },
  {
    "name": "Taipei City",
    "countryCode": "TW",
    "stateCode": "TPE",
    "latitude": "25.08300000",
    "longitude": "121.55331000"
  },
  {
    "name": "Taitung",
    "countryCode": "TW",
    "stateCode": "TTT",
    "latitude": "22.88361000",
    "longitude": "121.04833000"
  },
  {
    "name": "Taitung City",
    "countryCode": "TW",
    "stateCode": "TTT",
    "latitude": "22.75830000",
    "longitude": "121.14440000"
  },
  {
    "name": "Taoyuan",
    "countryCode": "TW",
    "stateCode": "TAO",
    "latitude": "24.89500000",
    "longitude": "121.24611000"
  },
  {
    "name": "Taoyuan City",
    "countryCode": "TW",
    "stateCode": "TAO",
    "latitude": "24.99368000",
    "longitude": "121.29696000"
  },
  {
    "name": "Yilan",
    "countryCode": "TW",
    "stateCode": "ILA",
    "latitude": "24.54250000",
    "longitude": "121.63361000"
  },
  {
    "name": "Yuanlin",
    "countryCode": "TW",
    "stateCode": "CHA",
    "latitude": "23.95671000",
    "longitude": "120.57608000"
  },
  {
    "name": "Yujing",
    "countryCode": "TW",
    "stateCode": "TNN",
    "latitude": "23.12493000",
    "longitude": "120.46138000"
  },
  {
    "name": "Yunlin",
    "countryCode": "TW",
    "stateCode": "YUN",
    "latitude": "23.70701000",
    "longitude": "120.38481000"
  },
  {
    "name": "Zhongxing New Village",
    "countryCode": "TW",
    "stateCode": "NAN",
    "latitude": "23.95908000",
    "longitude": "120.68516000"
  }
]