[
  {
    "name": "25 de Agosto",
    "countryCode": "UY",
    "stateCode": "FD",
    "latitude": "-34.41167000",
    "longitude": "-56.40222000"
  },
  {
    "name": "25 de Mayo",
    "countryCode": "UY",
    "stateCode": "FD",
    "latitude": "-34.18917000",
    "longitude": "-56.33944000"
  },
  {
    "name": "Aceguá",
    "countryCode": "UY",
    "stateCode": "CL",
    "latitude": "-31.87178000",
    "longitude": "-54.16351000"
  },
  {
    "name": "Aguas Corrientes",
    "countryCode": "UY",
    "stateCode": "CA",
    "latitude": "-34.52194000",
    "longitude": "-56.39361000"
  },
  {
    "name": "Aiguá",
    "countryCode": "UY",
    "stateCode": "MA",
    "latitude": "-34.20498000",
    "longitude": "-54.75665000"
  },
  {
    "name": "Alejandro Gallinal",
    "countryCode": "UY",
    "stateCode": "FD",
    "latitude": "-33.86252000",
    "longitude": "-55.54264000"
  },
  {
    "name": "Artigas",
    "countryCode": "UY",
    "stateCode": "AR",
    "latitude": "-30.40000000",
    "longitude": "-56.46667000"
  },
  {
    "name": "Atlántida",
    "countryCode": "UY",
    "stateCode": "CA",
    "latitude": "-34.77190000",
    "longitude": "-55.75840000"
  },
  {
    "name": "Baltasar Brum",
    "countryCode": "UY",
    "stateCode": "AR",
    "latitude": "-30.71905000",
    "longitude": "-57.32596000"
  },
  {
    "name": "Barra de Carrasco",
    "countryCode": "UY",
    "stateCode": "CA",
    "latitude": "-34.87722000",
    "longitude": "-56.02972000"
  },
  {
    "name": "Barros Blancos",
    "countryCode": "UY",
    "stateCode": "CA",
    "latitude": "-34.75240000",
    "longitude": "-56.00259000"
  },
  {
    "name": "Bella Unión",
    "countryCode": "UY",
    "stateCode": "AR",
    "latitude": "-30.25966000",
    "longitude": "-57.59919000"
  },
  {
    "name": "Bella Vista",
    "countryCode": "UY",
    "stateCode": "MO",
    "latitude": "-34.87527778",
    "longitude": "-56.18666667"
  },
  {
    "name": "Belvedere",
    "countryCode": "UY",
    "stateCode": "MO",
    "latitude": "-34.85155556",
    "longitude": "-56.21611111"
  },
  {
    "name": "Belén",
    "countryCode": "UY",
    "stateCode": "SA",
    "latitude": "-30.78716000",
    "longitude": "-57.77577000"
  },
  {
    "name": "Blanquillo",
    "countryCode": "UY",
    "stateCode": "DU",
    "latitude": "-32.76667000",
    "longitude": "-55.63333000"
  },
  {
    "name": "Buceo",
    "countryCode": "UY",
    "stateCode": "MO",
    "latitude": "-34.90000000",
    "longitude": "-56.13305556"
  },
  {
    "name": "Canelones",
    "countryCode": "UY",
    "stateCode": "CA",
    "latitude": "-34.52278000",
    "longitude": "-56.27778000"
  },
  {
    "name": "Capurro (Montevideo)",
    "countryCode": "UY",
    "stateCode": "MO",
    "latitude": "-34.87500000",
    "longitude": "-56.20555556"
  },
  {
    "name": "Cardal",
    "countryCode": "UY",
    "stateCode": "FD",
    "latitude": "-34.29056000",
    "longitude": "-56.38889000"
  },
  {
    "name": "Cardona",
    "countryCode": "UY",
    "stateCode": "SO",
    "latitude": "-33.87049000",
    "longitude": "-57.36954000"
  },
  {
    "name": "Carlos Reyles",
    "countryCode": "UY",
    "stateCode": "DU",
    "latitude": "-33.05658000",
    "longitude": "-56.47652000"
  },
  {
    "name": "Carmelo",
    "countryCode": "UY",
    "stateCode": "CO",
    "latitude": "-34.00023000",
    "longitude": "-58.28402000"
  },
  {
    "name": "Carrasco",
    "countryCode": "UY",
    "stateCode": "MO",
    "latitude": "-34.88333333",
    "longitude": "-56.06666667"
  },
  {
    "name": "Casabó",
    "countryCode": "UY",
    "stateCode": "MO",
    "latitude": "-34.86388889",
    "longitude": "-56.34111111"
  },
  {
    "name": "Castillos",
    "countryCode": "UY",
    "stateCode": "RO",
    "latitude": "-34.19871000",
    "longitude": "-53.85919000"
  },
  {
    "name": "Casupá",
    "countryCode": "UY",
    "stateCode": "FD",
    "latitude": "-34.09994000",
    "longitude": "-55.64811000"
  },
  {
    "name": "Cebollatí",
    "countryCode": "UY",
    "stateCode": "RO",
    "latitude": "-33.26703000",
    "longitude": "-53.79425000"
  },
  {
    "name": "Centro",
    "countryCode": "UY",
    "stateCode": "MO",
    "latitude": "-34.90361111",
    "longitude": "-56.18833333"
  },
  {
    "name": "Cerrito, Montevideo",
    "countryCode": "UY",
    "stateCode": "MO",
    "latitude": "-34.85349444",
    "longitude": "-56.17282778"
  },
  {
    "name": "Chui",
    "countryCode": "UY",
    "stateCode": "RO",
    "latitude": "-33.69792000",
    "longitude": "-53.45926000"
  },
  {
    "name": "Colonia Nicolich",
    "countryCode": "UY",
    "stateCode": "CA",
    "latitude": "-34.81516000",
    "longitude": "-56.02435000"
  },
  {
    "name": "Colonia del Sacramento",
    "countryCode": "UY",
    "stateCode": "CO",
    "latitude": "-34.46262000",
    "longitude": "-57.83976000"
  },
  {
    "name": "Colón Centro y Noroeste",
    "countryCode": "UY",
    "stateCode": "MO",
    "latitude": "-34.80230556",
    "longitude": "-56.22413889"
  },
  {
    "name": "Colón Sudeste",
    "countryCode": "UY",
    "stateCode": "MO",
    "latitude": "-34.76666667",
    "longitude": "-56.20277778"
  },
  {
    "name": "Conciliación",
    "countryCode": "UY",
    "stateCode": "MO",
    "latitude": "-34.82361111",
    "longitude": "-56.23194444"
  },
  {
    "name": "Cordón",
    "countryCode": "UY",
    "stateCode": "MO",
    "latitude": "-34.90000000",
    "longitude": "-56.17858333"
  },
  {
    "name": "Curtina",
    "countryCode": "UY",
    "stateCode": "TA",
    "latitude": "-32.15000000",
    "longitude": "-56.11667000"
  },
  {
    "name": "Delta del Tigre",
    "countryCode": "UY",
    "stateCode": "SJ",
    "latitude": "-34.76488000",
    "longitude": "-56.36450000"
  },
  {
    "name": "Dieciocho de Julio",
    "countryCode": "UY",
    "stateCode": "RO",
    "latitude": "-33.68216000",
    "longitude": "-53.55325000"
  },
  {
    "name": "Dolores",
    "countryCode": "UY",
    "stateCode": "SO",
    "latitude": "-33.53009000",
    "longitude": "-58.21701000"
  },
  {
    "name": "Durazno",
    "countryCode": "UY",
    "stateCode": "DU",
    "latitude": "-33.38056000",
    "longitude": "-56.52361000"
  },
  {
    "name": "Ecilda Paullier",
    "countryCode": "UY",
    "stateCode": "SJ",
    "latitude": "-34.35778000",
    "longitude": "-57.04883000"
  },
  {
    "name": "Empalme Olmos",
    "countryCode": "UY",
    "stateCode": "CA",
    "latitude": "-34.69753000",
    "longitude": "-55.89268000"
  },
  {
    "name": "Estación Porvenir",
    "countryCode": "UY",
    "stateCode": "PA",
    "latitude": "-32.37085000",
    "longitude": "-57.85371000"
  },
  {
    "name": "Flor de Maroñas",
    "countryCode": "UY",
    "stateCode": "MO",
    "latitude": "-34.85055556",
    "longitude": "-56.12472222"
  },
  {
    "name": "Florencio Sánchez",
    "countryCode": "UY",
    "stateCode": "CO",
    "latitude": "-33.87785000",
    "longitude": "-57.37166000"
  },
  {
    "name": "Florida",
    "countryCode": "UY",
    "stateCode": "FD",
    "latitude": "-34.09556000",
    "longitude": "-56.21417000"
  },
  {
    "name": "Fray Bentos",
    "countryCode": "UY",
    "stateCode": "RN",
    "latitude": "-33.11651000",
    "longitude": "-58.31067000"
  },
  {
    "name": "Guichón",
    "countryCode": "UY",
    "stateCode": "PA",
    "latitude": "-32.35846000",
    "longitude": "-57.19778000"
  },
  {
    "name": "Isidoro Noblía",
    "countryCode": "UY",
    "stateCode": "CL",
    "latitude": "-31.96218000",
    "longitude": "-54.12309000"
  },
  {
    "name": "Ituzaingó",
    "countryCode": "UY",
    "stateCode": "MO",
    "latitude": "-34.84750000",
    "longitude": "-56.14361111"
  },
  {
    "name": "Joaquín Suárez",
    "countryCode": "UY",
    "stateCode": "CA",
    "latitude": "-34.73501000",
    "longitude": "-56.03470000"
  },
  {
    "name": "José Batlle y Ordóñez",
    "countryCode": "UY",
    "stateCode": "LA",
    "latitude": "-33.46667000",
    "longitude": "-55.11667000"
  },
  {
    "name": "José Enrique Rodó",
    "countryCode": "UY",
    "stateCode": "SO",
    "latitude": "-33.69618000",
    "longitude": "-57.53153000"
  },
  {
    "name": "José Pedro Varela",
    "countryCode": "UY",
    "stateCode": "LA",
    "latitude": "-33.45451000",
    "longitude": "-54.53586000"
  },
  {
    "name": "Juan L. Lacaze",
    "countryCode": "UY",
    "stateCode": "CO",
    "latitude": "-34.41888000",
    "longitude": "-57.45285000"
  },
  {
    "name": "Juanicó",
    "countryCode": "UY",
    "stateCode": "CA",
    "latitude": "-34.59454000",
    "longitude": "-56.25334000"
  },
  {
    "name": "La Floresta",
    "countryCode": "UY",
    "stateCode": "CA",
    "latitude": "-34.75572000",
    "longitude": "-55.68141000"
  },
  {
    "name": "La Paloma",
    "countryCode": "UY",
    "stateCode": "DU",
    "latitude": "-32.72689000",
    "longitude": "-55.58270000"
  },
  {
    "name": "La Paloma",
    "countryCode": "UY",
    "stateCode": "RO",
    "latitude": "-34.66268000",
    "longitude": "-54.16452000"
  },
  {
    "name": "La Paz",
    "countryCode": "UY",
    "stateCode": "CA",
    "latitude": "-34.76031000",
    "longitude": "-56.22590000"
  },
  {
    "name": "La Unión",
    "countryCode": "UY",
    "stateCode": "MO",
    "latitude": "-34.87861111",
    "longitude": "-56.13583333"
  },
  {
    "name": "Las Piedras",
    "countryCode": "UY",
    "stateCode": "AR",
    "latitude": "-30.26204000",
    "longitude": "-57.58174000"
  },
  {
    "name": "Las Piedras",
    "countryCode": "UY",
    "stateCode": "CA",
    "latitude": "-34.73020000",
    "longitude": "-56.21915000"
  },
  {
    "name": "Las Toscas",
    "countryCode": "UY",
    "stateCode": "CA",
    "latitude": "-34.73333000",
    "longitude": "-55.71667000"
  },
  {
    "name": "Lascano",
    "countryCode": "UY",
    "stateCode": "RO",
    "latitude": "-33.67235000",
    "longitude": "-54.20650000"
  },
  {
    "name": "Libertad",
    "countryCode": "UY",
    "stateCode": "SJ",
    "latitude": "-34.63459000",
    "longitude": "-56.61739000"
  },
  {
    "name": "Los Cerrillos",
    "countryCode": "UY",
    "stateCode": "CA",
    "latitude": "-34.60500000",
    "longitude": "-56.35639000"
  },
  {
    "name": "Maldonado",
    "countryCode": "UY",
    "stateCode": "MA",
    "latitude": "-34.90000000",
    "longitude": "-54.95000000"
  },
  {
    "name": "Malvín",
    "countryCode": "UY",
    "stateCode": "MO",
    "latitude": "-34.89352778",
    "longitude": "-56.09994444"
  },
  {
    "name": "Manga",
    "countryCode": "UY",
    "stateCode": "MO",
    "latitude": "-34.80722222",
    "longitude": "-56.13805556"
  },
  {
    "name": "Mariscala",
    "countryCode": "UY",
    "stateCode": "LA",
    "latitude": "-34.04085000",
    "longitude": "-54.77732000"
  },
  {
    "name": "Maroñas",
    "countryCode": "UY",
    "stateCode": "MO",
    "latitude": "-34.86338889",
    "longitude": "-56.12963889"
  },
  {
    "name": "Melo",
    "countryCode": "UY",
    "stateCode": "CL",
    "latitude": "-32.37028000",
    "longitude": "-54.16750000"
  },
  {
    "name": "Mercedes",
    "countryCode": "UY",
    "stateCode": "SO",
    "latitude": "-33.25240000",
    "longitude": "-58.03047000"
  },
  {
    "name": "Migues",
    "countryCode": "UY",
    "stateCode": "CA",
    "latitude": "-34.48759000",
    "longitude": "-55.62793000"
  },
  {
    "name": "Minas",
    "countryCode": "UY",
    "stateCode": "LA",
    "latitude": "-34.37589000",
    "longitude": "-55.23771000"
  },
  {
    "name": "Minas de Corrales",
    "countryCode": "UY",
    "stateCode": "RV",
    "latitude": "-31.57375000",
    "longitude": "-55.47075000"
  },
  {
    "name": "Montes",
    "countryCode": "UY",
    "stateCode": "CA",
    "latitude": "-34.49339000",
    "longitude": "-55.56219000"
  },
  {
    "name": "Montevideo",
    "countryCode": "UY",
    "stateCode": "MO",
    "latitude": "-34.90328000",
    "longitude": "-56.18816000"
  },
  {
    "name": "Nueva Helvecia",
    "countryCode": "UY",
    "stateCode": "CO",
    "latitude": "-34.30000000",
    "longitude": "-57.23333000"
  },
  {
    "name": "Nueva Palmira",
    "countryCode": "UY",
    "stateCode": "CO",
    "latitude": "-33.87031000",
    "longitude": "-58.41176000"
  },
  {
    "name": "Nuevo Berlín",
    "countryCode": "UY",
    "stateCode": "RN",
    "latitude": "-32.97974000",
    "longitude": "-58.05858000"
  },
  {
    "name": "Nuevo París",
    "countryCode": "UY",
    "stateCode": "MO",
    "latitude": "-34.83333333",
    "longitude": "-56.25000000"
  },
  {
    "name": "Ombúes de Lavalle",
    "countryCode": "UY",
    "stateCode": "CO",
    "latitude": "-33.93783000",
    "longitude": "-57.80959000"
  },
  {
    "name": "Pajas Blancas",
    "countryCode": "UY",
    "stateCode": "MO",
    "latitude": "-34.80167000",
    "longitude": "-56.33417000"
  },
  {
    "name": "Palmitas",
    "countryCode": "UY",
    "stateCode": "SO",
    "latitude": "-33.50719000",
    "longitude": "-57.80079000"
  },
  {
    "name": "Pan de Azúcar",
    "countryCode": "UY",
    "stateCode": "MA",
    "latitude": "-34.77870000",
    "longitude": "-55.23582000"
  },
  {
    "name": "Pando",
    "countryCode": "UY",
    "stateCode": "CA",
    "latitude": "-34.71716000",
    "longitude": "-55.95840000"
  },
  {
    "name": "Paso de Carrasco",
    "countryCode": "UY",
    "stateCode": "CA",
    "latitude": "-34.86028000",
    "longitude": "-56.05222000"
  },
  {
    "name": "Paso de los Toros",
    "countryCode": "UY",
    "stateCode": "TA",
    "latitude": "-32.81667000",
    "longitude": "-56.51667000"
  },
  {
    "name": "Paso del Molino",
    "countryCode": "UY",
    "stateCode": "MO",
    "latitude": "-34.85000000",
    "longitude": "-56.21666667"
  },
  {
    "name": "Paysandú",
    "countryCode": "UY",
    "stateCode": "PA",
    "latitude": "-32.31710000",
    "longitude": "-58.08072000"
  },
  {
    "name": "Peñarol",
    "countryCode": "UY",
    "stateCode": "MO",
    "latitude": "-34.82519444",
    "longitude": "-56.19916667"
  },
  {
    "name": "Piedras Blancas",
    "countryCode": "UY",
    "stateCode": "MO",
    "latitude": "-34.82361111",
    "longitude": "-56.14027778"
  },
  {
    "name": "Piedras Coloradas",
    "countryCode": "UY",
    "stateCode": "PA",
    "latitude": "-32.37183000",
    "longitude": "-57.60901000"
  },
  {
    "name": "Piriápolis",
    "countryCode": "UY",
    "stateCode": "MA",
    "latitude": "-34.86287000",
    "longitude": "-55.27471000"
  },
  {
    "name": "Pocitos",
    "countryCode": "UY",
    "stateCode": "MO",
    "latitude": "-34.90833333",
    "longitude": "-56.15000000"
  },
  {
    "name": "Progreso",
    "countryCode": "UY",
    "stateCode": "CA",
    "latitude": "-34.66737000",
    "longitude": "-56.21758000"
  },
  {
    "name": "Punta Carretas",
    "countryCode": "UY",
    "stateCode": "MO",
    "latitude": "-34.92188889",
    "longitude": "-56.15944444"
  },
  {
    "name": "Punta Gorda",
    "countryCode": "UY",
    "stateCode": "MO",
    "latitude": "-34.88647222",
    "longitude": "-56.08983333"
  },
  {
    "name": "Punta del Este",
    "countryCode": "UY",
    "stateCode": "MA",
    "latitude": "-34.94747000",
    "longitude": "-54.93382000"
  },
  {
    "name": "Puntas de Valdéz",
    "countryCode": "UY",
    "stateCode": "SJ",
    "latitude": "-34.58550000",
    "longitude": "-56.70097000"
  },
  {
    "name": "Quebracho",
    "countryCode": "UY",
    "stateCode": "PA",
    "latitude": "-31.93526000",
    "longitude": "-57.90140000"
  },
  {
    "name": "Rafael Perazza",
    "countryCode": "UY",
    "stateCode": "SJ",
    "latitude": "-34.52335000",
    "longitude": "-56.79710000"
  },
  {
    "name": "Reducto",
    "countryCode": "UY",
    "stateCode": "MO",
    "latitude": "-34.87831944",
    "longitude": "-56.18957778"
  },
  {
    "name": "Rivera",
    "countryCode": "UY",
    "stateCode": "RV",
    "latitude": "-30.90534000",
    "longitude": "-55.55076000"
  },
  {
    "name": "Rocha",
    "countryCode": "UY",
    "stateCode": "RO",
    "latitude": "-34.48333000",
    "longitude": "-54.33333000"
  },
  {
    "name": "Rodríguez",
    "countryCode": "UY",
    "stateCode": "SJ",
    "latitude": "-34.38100000",
    "longitude": "-56.53797000"
  },
  {
    "name": "Rosario",
    "countryCode": "UY",
    "stateCode": "CO",
    "latitude": "-34.31667000",
    "longitude": "-57.35000000"
  },
  {
    "name": "Río Branco",
    "countryCode": "UY",
    "stateCode": "CL",
    "latitude": "-32.59802000",
    "longitude": "-53.38583000"
  },
  {
    "name": "Salto",
    "countryCode": "UY",
    "stateCode": "SA",
    "latitude": "-31.38333000",
    "longitude": "-57.96667000"
  },
  {
    "name": "San Antonio",
    "countryCode": "UY",
    "stateCode": "CA",
    "latitude": "-34.45130000",
    "longitude": "-56.08036000"
  },
  {
    "name": "San Bautista",
    "countryCode": "UY",
    "stateCode": "CA",
    "latitude": "-34.44016000",
    "longitude": "-55.95861000"
  },
  {
    "name": "San Carlos",
    "countryCode": "UY",
    "stateCode": "MA",
    "latitude": "-34.79123000",
    "longitude": "-54.91824000"
  },
  {
    "name": "San Félix",
    "countryCode": "UY",
    "stateCode": "PA",
    "latitude": "-32.34631000",
    "longitude": "-58.10094000"
  },
  {
    "name": "San Jacinto",
    "countryCode": "UY",
    "stateCode": "CA",
    "latitude": "-34.54465000",
    "longitude": "-55.87151000"
  },
  {
    "name": "San Javier",
    "countryCode": "UY",
    "stateCode": "RN",
    "latitude": "-32.66523000",
    "longitude": "-58.13320000"
  },
  {
    "name": "San José de Mayo",
    "countryCode": "UY",
    "stateCode": "SJ",
    "latitude": "-34.33750000",
    "longitude": "-56.71361000"
  },
  {
    "name": "San Ramón",
    "countryCode": "UY",
    "stateCode": "CA",
    "latitude": "-34.29155000",
    "longitude": "-55.95571000"
  },
  {
    "name": "Santa Bernardina",
    "countryCode": "UY",
    "stateCode": "DU",
    "latitude": "-33.35360000",
    "longitude": "-56.52498000"
  },
  {
    "name": "Santa Catalina",
    "countryCode": "UY",
    "stateCode": "SO",
    "latitude": "-33.79100000",
    "longitude": "-57.48824000"
  },
  {
    "name": "Santa Clara de Olimar",
    "countryCode": "UY",
    "stateCode": "TT",
    "latitude": "-32.92254000",
    "longitude": "-54.94447000"
  },
  {
    "name": "Santa Lucía",
    "countryCode": "UY",
    "stateCode": "CA",
    "latitude": "-34.45333000",
    "longitude": "-56.39056000"
  },
  {
    "name": "Santa Rosa",
    "countryCode": "UY",
    "stateCode": "CA",
    "latitude": "-34.49819000",
    "longitude": "-56.03795000"
  },
  {
    "name": "Santiago Vázquez",
    "countryCode": "UY",
    "stateCode": "MO",
    "latitude": "-34.79028000",
    "longitude": "-56.35000000"
  },
  {
    "name": "Sarandí Grande",
    "countryCode": "UY",
    "stateCode": "FD",
    "latitude": "-33.73333000",
    "longitude": "-56.33333000"
  },
  {
    "name": "Sarandí del Yi",
    "countryCode": "UY",
    "stateCode": "DU",
    "latitude": "-33.35000000",
    "longitude": "-55.63333000"
  },
  {
    "name": "Sauce",
    "countryCode": "UY",
    "stateCode": "CA",
    "latitude": "-34.65191000",
    "longitude": "-56.06431000"
  },
  {
    "name": "Sayage",
    "countryCode": "UY",
    "stateCode": "MO",
    "latitude": "-34.83583333",
    "longitude": "-56.21250000"
  },
  {
    "name": "Soca",
    "countryCode": "UY",
    "stateCode": "CA",
    "latitude": "-34.68432000",
    "longitude": "-55.70200000"
  },
  {
    "name": "Solís de Mataojo",
    "countryCode": "UY",
    "stateCode": "LA",
    "latitude": "-34.59951000",
    "longitude": "-55.46808000"
  },
  {
    "name": "Tacuarembó",
    "countryCode": "UY",
    "stateCode": "TA",
    "latitude": "-31.71694000",
    "longitude": "-55.98111000"
  },
  {
    "name": "Tala",
    "countryCode": "UY",
    "stateCode": "CA",
    "latitude": "-34.34349000",
    "longitude": "-55.76375000"
  },
  {
    "name": "Tarariras",
    "countryCode": "UY",
    "stateCode": "CO",
    "latitude": "-34.26555000",
    "longitude": "-57.61866000"
  },
  {
    "name": "Toledo",
    "countryCode": "UY",
    "stateCode": "CA",
    "latitude": "-34.73807000",
    "longitude": "-56.09469000"
  },
  {
    "name": "Tomás Gomensoro",
    "countryCode": "UY",
    "stateCode": "AR",
    "latitude": "-30.42870000",
    "longitude": "-57.43609000"
  },
  {
    "name": "Tranqueras",
    "countryCode": "UY",
    "stateCode": "RV",
    "latitude": "-31.20000000",
    "longitude": "-55.75000000"
  },
  {
    "name": "Treinta y Tres",
    "countryCode": "UY",
    "stateCode": "TT",
    "latitude": "-33.23333000",
    "longitude": "-54.38333000"
  },
  {
    "name": "Tres Cruces",
    "countryCode": "UY",
    "stateCode": "MO",
    "latitude": "-34.89583333",
    "longitude": "-56.16805556"
  },
  {
    "name": "Trinidad",
    "countryCode": "UY",
    "stateCode": "FS",
    "latitude": "-33.51650000",
    "longitude": "-56.89957000"
  },
  {
    "name": "Tupambaé",
    "countryCode": "UY",
    "stateCode": "CL",
    "latitude": "-32.83333000",
    "longitude": "-54.76667000"
  },
  {
    "name": "Velázquez",
    "countryCode": "UY",
    "stateCode": "RO",
    "latitude": "-34.03631000",
    "longitude": "-54.28054000"
  },
  {
    "name": "Vergara",
    "countryCode": "UY",
    "stateCode": "TT",
    "latitude": "-32.94419000",
    "longitude": "-53.93810000"
  },
  {
    "name": "Vichadero",
    "countryCode": "UY",
    "stateCode": "RV",
    "latitude": "-31.77794000",
    "longitude": "-54.69183000"
  },
  {
    "name": "Villa Constitución",
    "countryCode": "UY",
    "stateCode": "SA",
    "latitude": "-31.06913000",
    "longitude": "-57.84946000"
  },
  {
    "name": "Villa Española",
    "countryCode": "UY",
    "stateCode": "MO",
    "latitude": "-34.86388889",
    "longitude": "-56.14472222"
  },
  {
    "name": "Villa García",
    "countryCode": "UY",
    "stateCode": "MO",
    "latitude": "-34.78111000",
    "longitude": "-56.05333000"
  },
  {
    "name": "Villa Muñoz",
    "countryCode": "UY",
    "stateCode": "MO",
    "latitude": "-34.88781389",
    "longitude": "-56.17701389"
  },
  {
    "name": "Villa Sara",
    "countryCode": "UY",
    "stateCode": "TT",
    "latitude": "-33.25340000",
    "longitude": "-54.41947000"
  },
  {
    "name": "Villa Soriano",
    "countryCode": "UY",
    "stateCode": "SO",
    "latitude": "-33.39811000",
    "longitude": "-58.32177000"
  },
  {
    "name": "Villa del Carmen",
    "countryCode": "UY",
    "stateCode": "DU",
    "latitude": "-33.23943000",
    "longitude": "-56.00936000"
  },
  {
    "name": "Villa del Cerro",
    "countryCode": "UY",
    "stateCode": "MO",
    "latitude": "-34.88444444",
    "longitude": "-56.25138889"
  },
  {
    "name": "Young",
    "countryCode": "UY",
    "stateCode": "RN",
    "latitude": "-32.69844000",
    "longitude": "-57.62693000"
  }
]