[
  {
    "name": "Chadiza",
    "countryCode": "ZM",
    "stateCode": "03",
    "latitude": "-14.06779000",
    "longitude": "32.43917000"
  },
  {
    "name": "Chama",
    "countryCode": "ZM",
    "stateCode": "10",
    "latitude": "-11.21303000",
    "longitude": "33.15210000"
  },
  {
    "name": "Chambishi",
    "countryCode": "ZM",
    "stateCode": "08",
    "latitude": "-12.63247000",
    "longitude": "28.05367000"
  },
  {
    "name": "Chibombo",
    "countryCode": "ZM",
    "stateCode": "02",
    "latitude": "-14.65685000",
    "longitude": "28.07057000"
  },
  {
    "name": "Chibombo District",
    "countryCode": "ZM",
    "stateCode": "02",
    "latitude": "-14.65808000",
    "longitude": "28.07376000"
  },
  {
    "name": "Chililabombwe",
    "countryCode": "ZM",
    "stateCode": "08",
    "latitude": "-12.36475000",
    "longitude": "27.82286000"
  },
  {
    "name": "Chingola",
    "countryCode": "ZM",
    "stateCode": "08",
    "latitude": "-12.52897000",
    "longitude": "27.88382000"
  },
  {
    "name": "Chingola District",
    "countryCode": "ZM",
    "stateCode": "08",
    "latitude": "-12.48478000",
    "longitude": "27.66313000"
  },
  {
    "name": "Chinsali",
    "countryCode": "ZM",
    "stateCode": "10",
    "latitude": "-10.54142000",
    "longitude": "32.08162000"
  },
  {
    "name": "Chipata",
    "countryCode": "ZM",
    "stateCode": "03",
    "latitude": "-13.63333000",
    "longitude": "32.65000000"
  },
  {
    "name": "Choma",
    "countryCode": "ZM",
    "stateCode": "07",
    "latitude": "-16.80889000",
    "longitude": "26.98750000"
  },
  {
    "name": "Chongwe",
    "countryCode": "ZM",
    "stateCode": "09",
    "latitude": "-15.32916000",
    "longitude": "28.68204000"
  },
  {
    "name": "Gwembe",
    "countryCode": "ZM",
    "stateCode": "07",
    "latitude": "-16.49755000",
    "longitude": "27.60691000"
  },
  {
    "name": "Isoka",
    "countryCode": "ZM",
    "stateCode": "10",
    "latitude": "-10.16062000",
    "longitude": "32.63353000"
  },
  {
    "name": "Itezhi-Tezhi District",
    "countryCode": "ZM",
    "stateCode": "07",
    "latitude": "-15.74092000",
    "longitude": "26.04146000"
  },
  {
    "name": "Kabompo",
    "countryCode": "ZM",
    "stateCode": "06",
    "latitude": "-13.59268000",
    "longitude": "24.20081000"
  },
  {
    "name": "Kabwe",
    "countryCode": "ZM",
    "stateCode": "02",
    "latitude": "-14.44690000",
    "longitude": "28.44644000"
  },
  {
    "name": "Kafue",
    "countryCode": "ZM",
    "stateCode": "09",
    "latitude": "-15.76911000",
    "longitude": "28.18136000"
  },
  {
    "name": "Kalabo",
    "countryCode": "ZM",
    "stateCode": "01",
    "latitude": "-14.99307000",
    "longitude": "22.67926000"
  },
  {
    "name": "Kalengwa",
    "countryCode": "ZM",
    "stateCode": "06",
    "latitude": "-13.46586000",
    "longitude": "25.00271000"
  },
  {
    "name": "Kalulushi",
    "countryCode": "ZM",
    "stateCode": "08",
    "latitude": "-12.84151000",
    "longitude": "28.09479000"
  },
  {
    "name": "Kansanshi",
    "countryCode": "ZM",
    "stateCode": "06",
    "latitude": "-12.09514000",
    "longitude": "26.42727000"
  },
  {
    "name": "Kaoma",
    "countryCode": "ZM",
    "stateCode": "01",
    "latitude": "-14.78333000",
    "longitude": "24.80000000"
  },
  {
    "name": "Kapiri Mposhi",
    "countryCode": "ZM",
    "stateCode": "02",
    "latitude": "-13.97147000",
    "longitude": "28.66985000"
  },
  {
    "name": "Kaputa",
    "countryCode": "ZM",
    "stateCode": "05",
    "latitude": "-8.46887000",
    "longitude": "29.66193000"
  },
  {
    "name": "Kasama",
    "countryCode": "ZM",
    "stateCode": "05",
    "latitude": "-10.21289000",
    "longitude": "31.18084000"
  },
  {
    "name": "Kasempa",
    "countryCode": "ZM",
    "stateCode": "06",
    "latitude": "-13.45836000",
    "longitude": "25.83380000"
  },
  {
    "name": "Kataba",
    "countryCode": "ZM",
    "stateCode": "08",
    "latitude": "-11.88333000",
    "longitude": "29.78333000"
  },
  {
    "name": "Kawambwa",
    "countryCode": "ZM",
    "stateCode": "04",
    "latitude": "-9.79150000",
    "longitude": "29.07913000"
  },
  {
    "name": "Kitwe",
    "countryCode": "ZM",
    "stateCode": "08",
    "latitude": "-12.80243000",
    "longitude": "28.21323000"
  },
  {
    "name": "Limulunga",
    "countryCode": "ZM",
    "stateCode": "01",
    "latitude": "-15.09691000",
    "longitude": "23.13757000"
  },
  {
    "name": "Livingstone",
    "countryCode": "ZM",
    "stateCode": "07",
    "latitude": "-17.84194000",
    "longitude": "25.85425000"
  },
  {
    "name": "Luangwa",
    "countryCode": "ZM",
    "stateCode": "09",
    "latitude": "-15.61667000",
    "longitude": "30.41667000"
  },
  {
    "name": "Luanshya",
    "countryCode": "ZM",
    "stateCode": "08",
    "latitude": "-13.13667000",
    "longitude": "28.41661000"
  },
  {
    "name": "Lukulu",
    "countryCode": "ZM",
    "stateCode": "01",
    "latitude": "-14.37067000",
    "longitude": "23.24196000"
  },
  {
    "name": "Lundazi",
    "countryCode": "ZM",
    "stateCode": "03",
    "latitude": "-12.29292000",
    "longitude": "33.17820000"
  },
  {
    "name": "Lusaka",
    "countryCode": "ZM",
    "stateCode": "09",
    "latitude": "-15.40669000",
    "longitude": "28.28713000"
  },
  {
    "name": "Luwingu",
    "countryCode": "ZM",
    "stateCode": "05",
    "latitude": "-10.26210000",
    "longitude": "29.92712000"
  },
  {
    "name": "Maamba",
    "countryCode": "ZM",
    "stateCode": "07",
    "latitude": "-17.36667000",
    "longitude": "27.15000000"
  },
  {
    "name": "Mansa",
    "countryCode": "ZM",
    "stateCode": "04",
    "latitude": "-11.19976000",
    "longitude": "28.89431000"
  },
  {
    "name": "Mazabuka",
    "countryCode": "ZM",
    "stateCode": "07",
    "latitude": "-15.85601000",
    "longitude": "27.74800000"
  },
  {
    "name": "Mbala",
    "countryCode": "ZM",
    "stateCode": "05",
    "latitude": "-8.84024000",
    "longitude": "31.36587000"
  },
  {
    "name": "Mkushi",
    "countryCode": "ZM",
    "stateCode": "02",
    "latitude": "-13.62015000",
    "longitude": "29.39390000"
  },
  {
    "name": "Mongu",
    "countryCode": "ZM",
    "stateCode": "01",
    "latitude": "-15.24835000",
    "longitude": "23.12741000"
  },
  {
    "name": "Monze",
    "countryCode": "ZM",
    "stateCode": "07",
    "latitude": "-16.28333000",
    "longitude": "27.48333000"
  },
  {
    "name": "Mpika",
    "countryCode": "ZM",
    "stateCode": "10",
    "latitude": "-11.83431000",
    "longitude": "31.45287000"
  },
  {
    "name": "Mpongwe",
    "countryCode": "ZM",
    "stateCode": "08",
    "latitude": "-13.50914000",
    "longitude": "28.15504000"
  },
  {
    "name": "Mporokoso",
    "countryCode": "ZM",
    "stateCode": "05",
    "latitude": "-9.37273000",
    "longitude": "30.12501000"
  },
  {
    "name": "Mpulungu",
    "countryCode": "ZM",
    "stateCode": "05",
    "latitude": "-8.76234000",
    "longitude": "31.11405000"
  },
  {
    "name": "Mufulira",
    "countryCode": "ZM",
    "stateCode": "08",
    "latitude": "-12.54982000",
    "longitude": "28.24071000"
  },
  {
    "name": "Mufumbwe",
    "countryCode": "ZM",
    "stateCode": "06",
    "latitude": "-13.68333000",
    "longitude": "24.80000000"
  },
  {
    "name": "Mumbwa",
    "countryCode": "ZM",
    "stateCode": "02",
    "latitude": "-14.98293000",
    "longitude": "27.06190000"
  },
  {
    "name": "Mungwi",
    "countryCode": "ZM",
    "stateCode": "05",
    "latitude": "-10.17320000",
    "longitude": "31.36942000"
  },
  {
    "name": "Mwense",
    "countryCode": "ZM",
    "stateCode": "04",
    "latitude": "-10.38447000",
    "longitude": "28.69800000"
  },
  {
    "name": "Mwinilunga",
    "countryCode": "ZM",
    "stateCode": "06",
    "latitude": "-11.73584000",
    "longitude": "24.42926000"
  },
  {
    "name": "Nakambala",
    "countryCode": "ZM",
    "stateCode": "07",
    "latitude": "-15.83244000",
    "longitude": "27.77994000"
  },
  {
    "name": "Nakonde",
    "countryCode": "ZM",
    "stateCode": "10",
    "latitude": "-9.34213000",
    "longitude": "32.74500000"
  },
  {
    "name": "Namwala",
    "countryCode": "ZM",
    "stateCode": "07",
    "latitude": "-15.75042000",
    "longitude": "26.43839000"
  },
  {
    "name": "Nchelenge",
    "countryCode": "ZM",
    "stateCode": "04",
    "latitude": "-9.34506000",
    "longitude": "28.73396000"
  },
  {
    "name": "Ndola",
    "countryCode": "ZM",
    "stateCode": "08",
    "latitude": "-12.95867000",
    "longitude": "28.63659000"
  },
  {
    "name": "Nyimba",
    "countryCode": "ZM",
    "stateCode": "03",
    "latitude": "-14.55656000",
    "longitude": "30.81490000"
  },
  {
    "name": "Petauke",
    "countryCode": "ZM",
    "stateCode": "03",
    "latitude": "-14.24117000",
    "longitude": "31.31975000"
  },
  {
    "name": "Samfya",
    "countryCode": "ZM",
    "stateCode": "04",
    "latitude": "-11.36491000",
    "longitude": "29.55652000"
  },
  {
    "name": "Senanga",
    "countryCode": "ZM",
    "stateCode": "01",
    "latitude": "-16.11667000",
    "longitude": "23.26667000"
  },
  {
    "name": "Serenje",
    "countryCode": "ZM",
    "stateCode": "02",
    "latitude": "-13.23251000",
    "longitude": "30.23522000"
  },
  {
    "name": "Sesheke",
    "countryCode": "ZM",
    "stateCode": "01",
    "latitude": "-17.47593000",
    "longitude": "24.29684000"
  },
  {
    "name": "Siavonga",
    "countryCode": "ZM",
    "stateCode": "07",
    "latitude": "-16.53818000",
    "longitude": "28.70876000"
  },
  {
    "name": "Siavonga District",
    "countryCode": "ZM",
    "stateCode": "07",
    "latitude": "-16.26742000",
    "longitude": "28.55036000"
  },
  {
    "name": "Sinazongwe",
    "countryCode": "ZM",
    "stateCode": "07",
    "latitude": "-17.26140000",
    "longitude": "27.46179000"
  },
  {
    "name": "Solwezi",
    "countryCode": "ZM",
    "stateCode": "06",
    "latitude": "-12.16880000",
    "longitude": "26.38938000"
  },
  {
    "name": "Zambezi",
    "countryCode": "ZM",
    "stateCode": "06",
    "latitude": "-13.54323000",
    "longitude": "23.10467000"
  }
]